%%%%%%%%%%%%%%%%%%%%%%%%%%%%%%%%%%%%%%%%%%%%%%%%%%%%%%%%%%%
%% LOG FILE:       /home/moos-ivp-douglas/log/teste_7_3_2023_____10_39_07/teste_7_3_2023_____10_39_07.alog
%% FILE OPENED ON  Wed Dec 31 21:00:00 1969
%% LOGSTART           1678196346.337289
%%%%%%%%%%%%%%%%%%%%%%%%%%%%%%%%%%%%%%%%%%%%%%%%%%%%%%%%%%%
-0.04089        MOOS_DEBUG           pHelmIvP        pHelmIvP AllStop: ManualOverride 
-0.04086        DESIRED_SPEED        pHelmIvP        0.00000      
-0.04086        DESIRED_HEADING      pHelmIvP        0.00000      
0.16039         DESIRED_RUDDER       pMarinePIDV22   0.00000      
0.16039         DESIRED_THRUST       pMarinePIDV22   0.00000      
0.72881         MSG_UDP              iDivisorNMEA    $AGRSA,-0.90,A,,V*6B
 
0.72884         ANGULO_LEME          iDivisorNMEA    -0.90000     
0.76772         MSG_UDP              iDivisorNMEA    $HCHDG,283.6,0.0,E,23.3,W*6D
 
0.76780         MSG_UDP              iDivisorNMEA    $GPHDT,260.30,T*02
 
0.77794         MSG_UDP              iDivisorNMEA    $TIROT,-1.49,A*2A
 
0.78811         MSG_UDP              iDivisorNMEA    $MXPGN,00FF00,280B,0002000005049913*19
 
0.79824         MSG_UDP              iDivisorNMEA    $GPGSA,A,3,08,10,16,18,21,23,26,,,,,,2.16,1.79,1.79*06
 
0.80843         MSG_UDP              iDivisorNMEA    $GPGSV,2,1,07,08,40,238,44,10,38,152,35,16,10,315,41,18,17,070,00*7E
 
0.81861         MSG_UDP              iDivisorNMEA    $GPGSV,2,2,07,21,10,222,00,23,14,126,00,26,01,350,00*4C
 
0.82878         MSG_UDP              iDivisorNMEA    $MXPGN,01FA06,681C,9F00B800C80C0FE0*12
 
0.83896         MSG_UDP              iDivisorNMEA    $MXPGN,01FA06,681C,00A300B4E53600E1*19
 
0.84914         MSG_UDP              iDivisorNMEA    $MXPGN,01FA06,681C,FFFFFFFFFF0168E2*64
 
0.85930         MSG_UDP              iDivisorNMEA    $MXPGN,01F803,281C,000000000000000C*17
 
0.86947         MSG_UDP              iDivisorNMEA    $MXPGN,01F804,281C,0000001BAFC1000C*16
 
0.87964         MSG_UDP              iDivisorNMEA    $GPGGA,133907.000,2254.75330,S,04309.53839,W,1,07,1.79,1.17,M,-5.00,M,,*72
 
0.88984         MSG_UDP              iDivisorNMEA    $GPGLL,2254.75330,S,04309.53839,W,133907.000,A,A*50
 
0.90002         MSG_UDP              iDivisorNMEA    $GPRMC,133907.000,A,2254.75330,S,04309.53839,W,0.01,31.99,070323,23.39,W,A*23
 
0.91021         MSG_UDP              iDivisorNMEA    $GPVTG,31.99,T,,M,0.01,N,0.01,K,A*0F
 
0.92041         MSG_UDP              iDivisorNMEA    $AGRSA,-0.90,A,,V*6B
 
0.92047         ANGULO_LEME          iDivisorNMEA    -0.90000     
0.93059         MSG_UDP              iDivisorNMEA    $HCHDG,283.6,0.0,E,23.3,W*6D
 
0.94079         MSG_UDP              iDivisorNMEA    $GPHDT,260.30,T*02
 
0.95103         MSG_UDP              iDivisorNMEA    $TIROT,-1.49,A*2A
 
0.96123         MSG_UDP              iDivisorNMEA    $MXPGN,01F803,281C,000000000000140D*15
 
0.97138         MSG_UDP              iDivisorNMEA    $MXPGN,01F804,281C,0000001BAFC1140D*14
 
0.98151         MSG_UDP              iDivisorNMEA    $MXPGN,00FF28,3808,FF08FFFDFC059F41*19
 
0.99169         MSG_UDP              iDivisorNMEA    $AGRSA,-0.90,A,,V*6B
 
0.99174         ANGULO_LEME          iDivisorNMEA    -0.90000     
1.00184         MSG_UDP              iDivisorNMEA    $HCHDG,283.6,0.0,E,23.3,W*6D
 
1.01197         MSG_UDP              iDivisorNMEA    $GPHDT,260.29,T*0A
 
1.02213         MSG_UDP              iDivisorNMEA    $TIROT,-1.49,A*2A
 
1.03225         MSG_UDP              iDivisorNMEA    $MXPGN,01F803,281C,0000000000003C0F*62
 
1.04237         MSG_UDP              iDivisorNMEA    $MXPGN,01F804,281C,00000029F3C13C0F*69
 
1.05250         MSG_UDP              iDivisorNMEA    $MXPGN,01FF2C,7808,FFFFFFFF9F4117E0*1E
 
1.06265         MSG_UDP              iDivisorNMEA    $MXPGN,01FF2C,7808,FFFF7FFFFFFF7FE1*63
 
1.07294         MSG_UDP              iDivisorNMEA    $AGRSA,-0.90,A,,V*6B
 
1.07297         ANGULO_LEME          iDivisorNMEA    -0.90000     
1.08309         MSG_UDP              iDivisorNMEA    $MXPGN,01FF2C,7808,FF7FFFFFFFFFFFE2*11
 
1.09322         MSG_UDP              iDivisorNMEA    $MXPGN,01FF2C,7808,FFFFFFFF7FFFFFE3*10
 
1.10336         MSG_UDP              iDivisorNMEA    $MXPGN,00FF3D,6808,7FFFFF0DFFFF9F41*6E
 
1.11352         MSG_UDP              iDivisorNMEA    $HCHDG,283.6,0.0,E,23.3,W*6D
 
1.12369         MSG_UDP              iDivisorNMEA    $GPHDT,260.27,T*04
 
1.13388         MSG_UDP              iDivisorNMEA    $TIROT,-1.49,A*2A
 
1.14407         MSG_UDP              iDivisorNMEA    $MXPGN,00FF00,280B,0002000005049913*19
 
1.15424         MSG_UDP              iDivisorNMEA    $MXPGN,01F803,281C,0000000000005010*60
 
1.16443         MSG_UDP              iDivisorNMEA    $MXPGN,01F804,281C,00000029F3C15010*6B
 
1.17462         MSG_UDP              iDivisorNMEA    $MXPGN,00FF3C,3808,8000F8FE00009F41*1C
 
1.18480         MSG_UDP              iDivisorNMEA    $AGRSA,-0.90,A,,V*6B
 
1.18484         ANGULO_LEME          iDivisorNMEA    -0.90000     
1.19496         MSG_UDP              iDivisorNMEA    $HCHDG,283.6,0.0,E,23.3,W*6D
 
1.20513         MSG_UDP              iDivisorNMEA    $GPHDT,260.26,T*05
 
1.21532         MSG_UDP              iDivisorNMEA    $TIROT,-1.29,A*2C
 
1.22553         MSG_UDP              iDivisorNMEA    $MXPGN,01F803,281C,0000000000006411*66
 
1.23572         MSG_UDP              iDivisorNMEA    $MXPGN,01F804,281C,0000003BD8C16411*1E
 
1.24586         MSG_UDP              iDivisorNMEA    $AGRSA,-0.90,A,,V*6B
 
1.24591         ANGULO_LEME          iDivisorNMEA    -0.90000     
1.25605         MSG_UDP              iDivisorNMEA    $MXPGN,00FF16,7808,FF0000002B0A9F41*1B
 
1.26617         MSG_UDP              iDivisorNMEA    $MXPGN,00FF19,7808,0000000202009F41*15
 
1.49669         MSG_UDP              iDivisorNMEA    $MXPGN,01F803,281C,000000000000A014*10
 
1.49743         MSG_UDP              iDivisorNMEA    $MXPGN,01F804,281C,0000002BB8C1A014*6F
 
1.51655         MSG_UDP              iDivisorNMEA    $AGRSA,-0.90,A,,V*6B
 
1.51662         ANGULO_LEME          iDivisorNMEA    -0.90000     
1.56868         MSG_UDP              iDivisorNMEA    $GPGGA,133907.000,2254.75321,S,04309.53940,W,1,12,1.00,7.14,M,-5.60,M,,*74
 
1.56964         MSG_UDP              iDivisorNMEA    $GPGLL,2254.75321,S,04309.53940,W,133907.000,A,A*5F
 
1.57909         MSG_UDP              iDivisorNMEA    $GPRMC,133907.000,A,2254.75321,S,04309.53940,W,0.19,0.00,070323,23.30,W,A*1E
 
1.58928         MSG_UDP              iDivisorNMEA    $GPVTG,0.00,T,,M,0.19,N,0.35,K,A*33
 
1.59944         MSG_UDP              iDivisorNMEA    $HCHDG,283.6,0.0,E,23.3,W*6D
 
1.60959         MSG_UDP              iDivisorNMEA    $GPHDT,260.25,T*06
 
1.61975         MSG_UDP              iDivisorNMEA    $TIROT,-0.89,A*27
 
1.62991         MSG_UDP              iDivisorNMEA    $MXPGN,00FF00,280B,0002000005049913*19
 
1.64007         MSG_UDP              iDivisorNMEA    $MXPGN,01F803,281C,000000000000B415*16
 
1.65026         MSG_UDP              iDivisorNMEA    $MXPGN,01F804,281C,0000002BB8C1B415*69
 
1.66044         MSG_UDP              iDivisorNMEA    $AGRSA,-0.90,A,,V*6B
 
1.66048         ANGULO_LEME          iDivisorNMEA    -0.90000     
1.67064         MSG_UDP              iDivisorNMEA    $SDDPT,1.78,0.00,*75
 
1.68083         MSG_UDP              iDivisorNMEA    !AIVDO,1,1,,,B:UOH3P00W>Vt@Lf>c7ACwSUoP06,0*2D
 
1.69100         MSG_UDP              iDivisorNMEA    $HCHDG,283.5,0.0,E,23.3,W*6E
 
1.70120         MSG_UDP              iDivisorNMEA    $GPHDT,260.23,T*00
 
1.71139         MSG_UDP              iDivisorNMEA    $TIROT,-0.89,A*27
 
1.72155         MSG_UDP              iDivisorNMEA    $MXPGN,01FF1A,680B,FF022B849F410560*6A
 
1.73175         MSG_UDP              iDivisorNMEA    $MXPGN,01FF1A,782B,FF010B049F4105A0*17
 
1.74195         MSG_UDP              iDivisorNMEA    $MXPGN,01F803,281C,000000000000C816*18
 
1.75210         MSG_UDP              iDivisorNMEA    $MXPGN,01F804,281C,000000C0A0C1C816*6F
 
1.76234         MSG_UDP              iDivisorNMEA    $AGRSA,-0.90,A,,V*6B
 
1.76239         ANGULO_LEME          iDivisorNMEA    -0.90000     
1.77254         MSG_UDP              iDivisorNMEA    $HCHDG,283.5,0.0,E,23.3,W*6E
 
1.78277         MSG_UDP              iDivisorNMEA    $GPHDT,260.22,T*01
 
1.79299         MSG_UDP              iDivisorNMEA    $TIROT,-0.89,A*27
 
1.80319         MSG_UDP              iDivisorNMEA    $GPGSA,A,3,08,10,16,18,21,23,26,,,,,,2.16,1.79,1.79*06
 
1.81342         MSG_UDP              iDivisorNMEA    $GPGSV,2,1,07,08,40,238,45,10,38,152,35,16,10,315,42,18,17,070,00*7C
 
1.82360         MSG_UDP              iDivisorNMEA    $GPGSV,2,2,07,21,10,222,00,23,14,126,00,26,01,350,00*4C
 
1.83383         MSG_UDP              iDivisorNMEA    $MXPGN,01FA06,681C,9F00B800C8160F00*13
 
1.84407         MSG_UDP              iDivisorNMEA    $MXPGN,01FA06,681C,00A300B4E5460001*6B
 
1.85431         MSG_UDP              iDivisorNMEA    $MXPGN,01FA06,681C,FFFFFFFFFF016802*11
 
1.86451         MSG_UDP              iDivisorNMEA    $MXPGN,01F803,281C,0000000000000016*63
 
1.87470         MSG_UDP              iDivisorNMEA    $MXPGN,01F804,281C,000000C0A0C10016*14
 
1.88484         MSG_UDP              iDivisorNMEA    $GPGGA,133908.000,2254.75330,S,04309.53839,W,1,07,1.79,1.17,M,-5.00,M,,*7D
 
1.89500         MSG_UDP              iDivisorNMEA    $GPGLL,2254.75330,S,04309.53839,W,133908.000,A,A*5F
 
1.90521         MSG_UDP              iDivisorNMEA    $GPRMC,133908.000,A,2254.75330,S,04309.53839,W,0.00,64.12,070323,23.39,W,A*2E
 
1.91554         MSG_UDP              iDivisorNMEA    $GPVTG,64.12,T,,M,0.00,N,0.00,K,A*0C
 
1.92589         MSG_UDP              iDivisorNMEA    $AGRSA,-0.90,A,,V*6B
 
1.92593         ANGULO_LEME          iDivisorNMEA    -0.90000     
1.93633         MSG_UDP              iDivisorNMEA    $MXPGN,00FF00,280B,0002000005049913*19
 
1.94654         MSG_UDP              iDivisorNMEA    $HCHDG,283.5,0.0,E,23.3,W*6E
 
1.95680         MSG_UDP              iDivisorNMEA    $GPHDT,260.22,T*01
 
1.96700         MSG_UDP              iDivisorNMEA    $TIROT,-0.89,A*27
 
1.97718         MSG_UDP              iDivisorNMEA    $MXPGN,01F803,281C,0000000000002818*67
 
1.98733         MSG_UDP              iDivisorNMEA    $MXPGN,01F804,281C,000000C0A0C12818*10
 
1.99749         MSG_UDP              iDivisorNMEA    $MXPGN,00FF28,3808,FF08FFFDFC059F41*19
 
2.00764         MSG_UDP              iDivisorNMEA    $AGRSA,-0.90,A,,V*6B
 
2.00766         ANGULO_LEME          iDivisorNMEA    -0.90000     
2.01779         MSG_UDP              iDivisorNMEA    $HCHDG,283.5,0.0,E,23.3,W*6E
 
2.02791         MSG_UDP              iDivisorNMEA    $GPHDT,260.21,T*02
 
2.03808         MSG_UDP              iDivisorNMEA    $TIROT,-0.99,A*26
 
2.04831         MSG_UDP              iDivisorNMEA    $MXPGN,01F803,281C,0000000000003C19*1C
 
2.05853         MSG_UDP              iDivisorNMEA    $MXPGN,01F804,281C,0000000B82C13C19*11
 
2.06881         MSG_UDP              iDivisorNMEA    $MXPGN,01FF2C,7808,FFFFFFFF9F411700*6B
 
2.07907         MSG_UDP              iDivisorNMEA    $MXPGN,01FF2C,7808,FFFF7FFFFFFF7F01*16
 
2.08934         MSG_UDP              iDivisorNMEA    $AGRSA,-0.90,A,,V*6B
 
2.08941         ANGULO_LEME          iDivisorNMEA    -0.90000     
2.09964         MSG_UDP              iDivisorNMEA    $MXPGN,01FF2C,7808,FF7FFFFFFFFFFF02*64
 
2.10991         MSG_UDP              iDivisorNMEA    $MXPGN,01FF2C,7808,FFFFFFFF7FFFFF03*65
 
2.12012         MSG_UDP              iDivisorNMEA    $MXPGN,01FF22,2808,FF01FFFF9F410CE0*1E
 
2.13039         MSG_UDP              iDivisorNMEA    $MXPGN,01FF22,2808,FFFF00000A0039E1*6C
 
2.14079         MSG_UDP              iDivisorNMEA    $MXPGN,00FF3D,6808,7FFFFF0DFFFF9F41*6E
 
2.15107         MSG_UDP              iDivisorNMEA    $HCHDG,283.5,0.0,E,23.3,W*6E
 
2.16134         MSG_UDP              iDivisorNMEA    $GPHDT,260.20,T*03
 
2.17166         MSG_UDP              iDivisorNMEA    $TIROT,-0.99,A*26
 
2.37866         MSG_UDP              iDivisorNMEA    $GPGSA,A,3,08,10,16,18,27,28,31,32,66,65,86,87,1.80,1.50,1.50*02
 
2.38066         MSG_UDP              iDivisorNMEA    $GPGSV,3,1,12,08,40,239,39,10,39,152,30,16,10,316,41,18,18,070,38*73
 
2.38994         MSG_UDP              iDivisorNMEA    $GPGSV,3,2,12,27,62,289,35,28,19,029,39,31,14,019,43,32,77,105,44*71
 
2.40026         MSG_UDP              iDivisorNMEA    $GPGSV,3,3,12,66,16,312,44,65,62,262,39,86,30,048,41,87,70,142,44*7D
 
2.41060         MSG_UDP              iDivisorNMEA    $MXPGN,01FF0D,780B,FF030000989005C0*15
 
2.42091         MSG_UDP              iDivisorNMEA    $MXPGN,01F803,281C,0000000000008C1D*6A
 
2.43121         MSG_UDP              iDivisorNMEA    $MXPGN,01F804,281C,00000055BBC18C1D*1F
 
2.44144         MSG_UDP              iDivisorNMEA    $AGRSA,-0.90,A,,V*6B
 
2.44151         ANGULO_LEME          iDivisorNMEA    -0.90000     
2.45171         MSG_UDP              iDivisorNMEA    $GPZDA,133908.250,07,03,2023,,*56
 
2.46195         MSG_UDP              iDivisorNMEA    !AIVDM,1,1,,B,1:U8Qv04AetrLoujqi7JT`<<0<31,0*21
 
2.47217         MSG_UDP              iDivisorNMEA    $HCHDG,283.5,0.0,E,23.3,W*6E
 
2.48240         MSG_UDP              iDivisorNMEA    $GPHDT,260.20,T*03
 
2.49268         MSG_UDP              iDivisorNMEA    $TIROT,-0.59,A*2A
 
2.50289         MSG_UDP              iDivisorNMEA    $MXPGN,01F803,281C,000000000000A01E*61
 
2.51312         MSG_UDP              iDivisorNMEA    $MXPGN,01F804,281C,000000684AC1A01E*6F
 
2.52333         MSG_UDP              iDivisorNMEA    $AGRSA,-0.90,A,,V*6B
 
2.52338         ANGULO_LEME          iDivisorNMEA    -0.90000     
2.56861         MSG_UDP              iDivisorNMEA    $GPGGA,133908.000,2254.75304,S,04309.53919,W,1,12,1.00,7.01,M,-5.60,M,,*74
 
2.56950         MSG_UDP              iDivisorNMEA    $GPGLL,2254.75304,S,04309.53919,W,133908.000,A,A*5B
 
2.57979         MSG_UDP              iDivisorNMEA    $GPRMC,133908.000,A,2254.75304,S,04309.53919,W,0.19,187.49,070323,23.30,W,A*19
 
2.59008         MSG_UDP              iDivisorNMEA    $GPVTG,187.49,T,,M,0.19,N,0.35,K,A*30
 
2.60035         MSG_UDP              iDivisorNMEA    $HCHDG,283.5,0.0,E,23.3,W*6E
 
2.61063         MSG_UDP              iDivisorNMEA    $GPHDT,260.21,T*02
 
2.62094         MSG_UDP              iDivisorNMEA    $TIROT,-0.79,A*28
 
2.63123         MSG_UDP              iDivisorNMEA    $MXPGN,00FF00,280B,0002000005049913*19
 
2.64153         MSG_UDP              iDivisorNMEA    $MXPGN,01F803,281C,000000000000B41F*65
 
2.65176         MSG_UDP              iDivisorNMEA    $MXPGN,01F804,281C,000000684AC1B41F*6B
 
2.66197         MSG_UDP              iDivisorNMEA    !AIVDM,1,1,,B,1:U8?kPP1gLrM>mjqJGS3wwp0W3h,0*5B
 
2.67217         MSG_UDP              iDivisorNMEA    $AGRSA,-0.90,A,,V*6B
 
2.67222         ANGULO_LEME          iDivisorNMEA    -0.90000     
2.68237         MSG_UDP              iDivisorNMEA    $SDDPT,1.77,0.00,*7A
 
2.69257         MSG_UDP              iDivisorNMEA    $HCHDG,283.5,0.0,E,23.3,W*6E
 
2.70282         MSG_UDP              iDivisorNMEA    $GPHDT,260.20,T*03
 
2.71303         MSG_UDP              iDivisorNMEA    $TIROT,-0.79,A*28
 
2.72326         MSG_UDP              iDivisorNMEA    $MXPGN,01FF1A,680B,FF022B849F410580*64
 
2.73353         MSG_UDP              iDivisorNMEA    $MXPGN,01FF1A,782B,FF010B049F4105C0*15
 
2.74386         MSG_UDP              iDivisorNMEA    $MXPGN,01F803,281C,000000000000C820*1D
 
2.75418         MSG_UDP              iDivisorNMEA    $MXPGN,01F804,281C,0000005844C1C820*65
 
2.76446         MSG_UDP              iDivisorNMEA    $AGRSA,-0.96,A,,V*6D
 
2.76453         ANGULO_LEME          iDivisorNMEA    -0.96000     
2.77467         MSG_UDP              iDivisorNMEA    $HCHDG,283.5,0.0,E,23.3,W*6E
 
2.78481         MSG_UDP              iDivisorNMEA    $GPHDT,260.20,T*03
 
2.79495         MSG_UDP              iDivisorNMEA    $TIROT,-0.99,A*26
 
2.80511         MSG_UDP              iDivisorNMEA    $GPGSA,A,3,08,10,16,18,21,23,26,,,,,,2.16,1.79,1.79*06
 
2.81526         MSG_UDP              iDivisorNMEA    $GPGSV,2,1,07,08,40,238,45,10,38,152,35,16,10,315,41,18,17,070,00*7F
 
2.82545         MSG_UDP              iDivisorNMEA    $GPGSV,2,2,07,21,10,222,00,23,14,125,00,26,01,350,00*4F
 
2.83557         MSG_UDP              iDivisorNMEA    $MXPGN,01FA06,681C,9F00B800C8200F20*14
 
2.84569         MSG_UDP              iDivisorNMEA    $MXPGN,01FA06,681C,00A300B4E5460021*69
 
2.85581         MSG_UDP              iDivisorNMEA    $MXPGN,01FA06,681C,FFFFFFFFFF016822*13
 
2.86602         MSG_UDP              iDivisorNMEA    $MXPGN,01F803,281C,0000000000000020*66
 
2.87627         MSG_UDP              iDivisorNMEA    $MXPGN,01F804,281C,0000005844C10020*1E
 
2.88654         MSG_UDP              iDivisorNMEA    $GPGGA,133909.000,2254.75330,S,04309.53839,W,1,07,1.79,1.17,M,-5.00,M,,*7C
 
2.89691         MSG_UDP              iDivisorNMEA    $GPGLL,2254.75330,S,04309.53839,W,133909.000,A,A*5E
 
2.90728         MSG_UDP              iDivisorNMEA    $GPRMC,133909.000,A,2254.75330,S,04309.53839,W,0.01,152.96,070323,23.39,W,A*16
 
2.91765         MSG_UDP              iDivisorNMEA    $GPVTG,152.96,T,,M,0.01,N,0.01,K,A*34
 
2.92797         MSG_UDP              iDivisorNMEA    $AGRSA,-0.96,A,,V*6D
 
2.92807         ANGULO_LEME          iDivisorNMEA    -0.96000     
2.93829         MSG_UDP              iDivisorNMEA    $MXPGN,00FF00,280B,0002000005049913*19
 
2.94911         MSG_UDP              iDivisorNMEA    $HCHDG,283.5,0.0,E,23.3,W*6E
 
2.95941         MSG_UDP              iDivisorNMEA    $GPHDT,260.20,T*03
 
2.96973         MSG_UDP              iDivisorNMEA    $TIROT,-0.99,A*26
 
2.98006         MSG_UDP              iDivisorNMEA    $MXPGN,01F803,281C,0000000000002822*6E
 
2.99039         MSG_UDP              iDivisorNMEA    $MXPGN,01F804,281C,0000005844C12822*16
 
3.00066         MSG_UDP              iDivisorNMEA    $MXPGN,00FF28,3808,FF08FFFDFC059F41*19
 
3.01091         MSG_UDP              iDivisorNMEA    $AGRSA,-0.90,A,,V*6B
 
3.01098         ANGULO_LEME          iDivisorNMEA    -0.90000     
3.02112         MSG_UDP              iDivisorNMEA    $HCHDG,283.5,0.0,E,23.3,W*6E
 
3.03132         MSG_UDP              iDivisorNMEA    $GPHDT,260.23,T*00
 
3.04161         MSG_UDP              iDivisorNMEA    $TIROT,-0.69,A*29
 
3.29653         MSG_UDP              iDivisorNMEA    $MXPGN,01F803,281C,0000000000007826*6F
 
3.29728         MSG_UDP              iDivisorNMEA    $MXPGN,01F804,281C,00000079F9C17826*6B
 
3.31536         MSG_UDP              iDivisorNMEA    $MXPGN,00FF8C,6808,FFF10695C9409F41*64
 
3.31867         MSG_UDP              iDivisorNMEA    $GPGGA,,2254.75349,S,04309.53939,W,1,,,,M,,M,,*55
 
3.32894         MSG_UDP              iDivisorNMEA    $GPGLL,2254.75349,S,04309.53939,W,,A,A*4E
 
3.33917         MSG_UDP              iDivisorNMEA    $GPVTG,334.80,T,,M,0.20,N,0.37,K,A*37
 
3.34939         MSG_UDP              iDivisorNMEA    $AGRSA,-0.96,A,,V*6D
 
3.34944         ANGULO_LEME          iDivisorNMEA    -0.96000     
3.35965         MSG_UDP              iDivisorNMEA    $MXPGN,00FF00,280B,0002000005049913*19
 
3.36984         MSG_UDP              iDivisorNMEA    !AIVDM,1,1,,B,3539a0000;trQMMjrcAFJmTB2P4k,0*54
 
3.38008         MSG_UDP              iDivisorNMEA    $HCHDG,283.5,0.0,E,23.3,W*6E
 
3.39037         MSG_UDP              iDivisorNMEA    $GPHDT,260.21,T*02
 
3.40058         MSG_UDP              iDivisorNMEA    $TIROT,-1.19,A*2F
 
3.41083         MSG_UDP              iDivisorNMEA    $GPGSA,A,3,08,10,16,18,27,28,31,32,66,65,86,87,1.80,1.50,1.50*02
 
3.42110         MSG_UDP              iDivisorNMEA    $GPGSV,3,1,12,08,40,239,39,10,39,152,30,16,10,316,41,18,18,070,37*7C
 
3.43138         MSG_UDP              iDivisorNMEA    $GPGSV,3,2,12,27,62,289,35,28,19,029,39,31,14,019,43,32,77,105,44*71
 
3.44166         MSG_UDP              iDivisorNMEA    $GPGSV,3,3,12,66,16,312,44,65,62,262,40,86,30,048,41,87,70,142,44*73
 
3.45261         MSG_UDP              iDivisorNMEA    $MXPGN,01FF0D,780B,FF030000989005E0*13
 
3.46292         MSG_UDP              iDivisorNMEA    $MXPGN,01F803,281C,0000000000008C27*1A
 
3.47313         MSG_UDP              iDivisorNMEA    $MXPGN,01F804,281C,00000079F9C18C27*1E
 
3.48339         MSG_UDP              iDivisorNMEA    $AGRSA,-0.96,A,,V*6D
 
3.48345         ANGULO_LEME          iDivisorNMEA    -0.96000     
3.49367         MSG_UDP              iDivisorNMEA    $GPZDA,133909.250,07,03,2023,,*57
 
3.50393         MSG_UDP              iDivisorNMEA    $HCHDG,283.5,0.0,E,23.3,W*6E
 
3.51420         MSG_UDP              iDivisorNMEA    $GPHDT,260.21,T*02
 
3.52446         MSG_UDP              iDivisorNMEA    $TIROT,-1.19,A*2F
 
3.53470         MSG_UDP              iDivisorNMEA    $MXPGN,01F803,281C,0000000000008C27*1A
 
3.54497         MSG_UDP              iDivisorNMEA    $MXPGN,01F804,281C,000000AB55C18C27*6C
 
3.55540         MSG_UDP              iDivisorNMEA    $AGRSA,-0.96,A,,V*6D
 
3.55549         ANGULO_LEME          iDivisorNMEA    -0.96000     
3.56849         MSG_UDP              iDivisorNMEA    $GPGGA,133909.000,2254.75312,S,04309.53900,W,1,12,1.00,6.88,M,-5.60,M,,*7A
 
3.57678         MSG_UDP              iDivisorNMEA    $GPGLL,2254.75312,S,04309.53900,W,133909.000,A,A*55
 
3.58703         MSG_UDP              iDivisorNMEA    $GPRMC,133909.000,A,2254.75312,S,04309.53900,W,0.09,0.00,070323,23.30,W,A*15
 
3.59747         MSG_UDP              iDivisorNMEA    $GPVTG,0.00,T,,M,0.09,N,0.16,K,A*33
 
3.60774         MSG_UDP              iDivisorNMEA    $HCHDG,283.5,0.0,E,23.3,W*6E
 
3.61804         MSG_UDP              iDivisorNMEA    $GPHDT,260.21,T*02
 
3.62835         MSG_UDP              iDivisorNMEA    $TIROT,-1.19,A*2F
 
3.63854         MSG_UDP              iDivisorNMEA    $MXPGN,00FF00,280B,0002000005049913*19
 
3.64876         MSG_UDP              iDivisorNMEA    $MXPGN,01F803,281C,000000000000A028*1F
 
3.65902         MSG_UDP              iDivisorNMEA    $MXPGN,01F804,281C,000000AB55C1A028*69
 
3.66924         MSG_UDP              iDivisorNMEA    $AGRSA,-0.96,A,,V*6D
 
3.66932         ANGULO_LEME          iDivisorNMEA    -0.96000     
3.67953         MSG_UDP              iDivisorNMEA    $SDDPT,1.78,0.00,*75
 
3.68973         MSG_UDP              iDivisorNMEA    $MXPGN,01FF1A,782B,FFFAFF859F4105E0*6E
 
3.69992         MSG_UDP              iDivisorNMEA    !AIVDO,1,1,,,B:UOH3P00W>Vt?Lf>cCACwTUoP06,0*21
 
3.71019         MSG_UDP              iDivisorNMEA    $HCHDG,283.5,0.0,E,23.3,W*6E
 
3.72047         MSG_UDP              iDivisorNMEA    $GPHDT,260.21,T*02
 
3.73057         MSG_UDP              iDivisorNMEA    $TIROT,-1.29,A*2C
 
3.74080         MSG_UDP              iDivisorNMEA    $MXPGN,01FF1A,680B,FF022B849F4105A0*1D
 
3.75099         MSG_UDP              iDivisorNMEA    $MXPGN,01FF1A,782B,FF010B049F4105E0*13
 
3.76116         MSG_UDP              iDivisorNMEA    $MXPGN,01F803,281C,000000000000C82A*6C
 
3.77142         MSG_UDP              iDivisorNMEA    $MXPGN,01F804,281C,000000A205C1C82A*6F
 
3.78165         MSG_UDP              iDivisorNMEA    $AGRSA,-0.90,A,,V*6B
 
3.78175         ANGULO_LEME          iDivisorNMEA    -0.90000     
3.79196         MSG_UDP              iDivisorNMEA    $HCHDG,283.5,0.0,E,23.3,W*6E
 
3.80234         MSG_UDP              iDivisorNMEA    $GPHDT,260.20,T*03
 
3.81258         MSG_UDP              iDivisorNMEA    $TIROT,-1.59,A*2B
 
3.82284         MSG_UDP              iDivisorNMEA    $GPGSA,A,3,08,10,16,18,21,23,26,,,,,,2.16,1.79,1.79*06
 
3.83305         MSG_UDP              iDivisorNMEA    $GPGSV,2,1,07,08,40,238,44,10,38,152,34,16,10,315,41,18,17,070,00*7F
 
3.84330         MSG_UDP              iDivisorNMEA    $GPGSV,2,2,07,21,10,222,00,23,14,125,00,26,01,350,00*4F
 
3.85358         MSG_UDP              iDivisorNMEA    $MXPGN,01FA06,681C,9F00B800C82A0F40*63
 
3.86392         MSG_UDP              iDivisorNMEA    $MXPGN,01FA06,681C,00A300B4E5460041*6F
 
3.87425         MSG_UDP              iDivisorNMEA    $MXPGN,01FA06,681C,FFFFFFFFFF016842*15
 
3.88468         MSG_UDP              iDivisorNMEA    $MXPGN,01F803,281C,000000000000002A*17
 
3.89493         MSG_UDP              iDivisorNMEA    $MXPGN,01F804,281C,000000A205C1002A*14
 
3.90517         MSG_UDP              iDivisorNMEA    $GPGGA,133910.000,2254.75330,S,04309.53839,W,1,07,1.79,1.17,M,-5.00,M,,*74
 
3.91544         MSG_UDP              iDivisorNMEA    $GPGLL,2254.75330,S,04309.53839,W,133910.000,A,A*56
 
3.92563         MSG_UDP              iDivisorNMEA    $GPRMC,133910.000,A,2254.75330,S,04309.53839,W,0.03,251.30,070323,23.39,W,A*10
 
3.93587         MSG_UDP              iDivisorNMEA    $GPVTG,251.30,T,,M,0.03,N,0.05,K,A*3E
 
4.16734         MSG_UDP              iDivisorNMEA    $HCHDG,283.5,0.0,E,23.3,W*6E
 
4.16801         MSG_UDP              iDivisorNMEA    $GPHDT,260.19,T*09
 
4.17832         MSG_UDP              iDivisorNMEA    $TIROT,-1.29,A*2C
 
4.19633         MSG_UDP              iDivisorNMEA    $MXPGN,01F803,281C,000000000000642F*12
 
4.19957         MSG_UDP              iDivisorNMEA    $MXPGN,01F804,281C,00000045D1C1642F*13
 
4.21026         MSG_UDP              iDivisorNMEA    !AIVDM,1,1,,B,1:UPuT0P01LrKPQjpsAqLGUp2`69,0*35
 
4.22059         MSG_UDP              iDivisorNMEA    $AGRSA,-0.90,A,,V*6B
 
4.22069         ANGULO_LEME          iDivisorNMEA    -0.90000     
4.23092         MSG_UDP              iDivisorNMEA    $MXPGN,00FF16,7808,FF0000002B0A9F41*1B
 
4.24122         MSG_UDP              iDivisorNMEA    $MXPGN,00FF19,7808,0000000202009F41*15
 
4.26535         MSG_UDP              iDivisorNMEA    $MXPGN,00FF19,7808,0080000A0A009F41*1D
 
4.26732         MSG_UDP              iDivisorNMEA    $HCHDG,283.5,0.0,E,23.3,W*6E
 
4.27662         MSG_UDP              iDivisorNMEA    $GPHDT,260.20,T*03
 
4.28694         MSG_UDP              iDivisorNMEA    $TIROT,-1.29,A*2C
 
4.29724         MSG_UDP              iDivisorNMEA    $MXPGN,01F803,281C,0000000000007830*68
 
4.30757         MSG_UDP              iDivisorNMEA    $MXPGN,01F804,281C,00000045D1C17830*69
 
4.31789         MSG_UDP              iDivisorNMEA    $MXPGN,00FF8C,6808,FFF10695C9409F41*64
 
4.32822         MSG_UDP              iDivisorNMEA    $GPGGA,,2254.75319,S,04309.53959,W,1,,,,M,,M,,*56
 
4.33852         MSG_UDP              iDivisorNMEA    $GPGLL,2254.75319,S,04309.53959,W,,A,A*4D
 
4.34883         MSG_UDP              iDivisorNMEA    $GPVTG,334.80,T,,M,0.20,N,0.37,K,A*37
 
4.35909         MSG_UDP              iDivisorNMEA    $AGRSA,-0.90,A,,V*6B
 
4.35915         ANGULO_LEME          iDivisorNMEA    -0.90000     
4.36927         MSG_UDP              iDivisorNMEA    $MXPGN,00FF00,280B,0002000005049913*19
 
4.37940         MSG_UDP              iDivisorNMEA    $HCHDG,283.5,0.0,E,23.3,W*6E
 
4.38954         MSG_UDP              iDivisorNMEA    $GPHDT,260.18,T*08
 
4.39972         MSG_UDP              iDivisorNMEA    $TIROT,-1.39,A*2D
 
4.40989         MSG_UDP              iDivisorNMEA    $GPGSA,A,3,08,10,16,18,27,28,31,32,66,65,86,87,1.80,1.50,1.50*02
 
4.42007         MSG_UDP              iDivisorNMEA    $GPGSV,3,1,12,08,40,239,39,10,39,152,30,16,10,316,41,18,18,070,37*7C
 
4.43026         MSG_UDP              iDivisorNMEA    $GPGSV,3,2,12,27,62,289,35,28,19,029,39,31,14,019,43,32,77,105,44*71
 
4.44046         MSG_UDP              iDivisorNMEA    $GPGSV,3,3,12,66,16,312,44,65,62,262,40,86,30,048,40,87,70,142,44*72
 
4.45065         MSG_UDP              iDivisorNMEA    $MXPGN,01FF0D,780B,FF03000098900500*66
 
4.46098         MSG_UDP              iDivisorNMEA    $MXPGN,01F803,281C,0000000000008C31*1D
 
4.47118         MSG_UDP              iDivisorNMEA    $MXPGN,01F804,281C,00000045D1C18C31*1C
 
4.48135         MSG_UDP              iDivisorNMEA    $AGRSA,-0.90,A,,V*6B
 
4.48139         ANGULO_LEME          iDivisorNMEA    -0.90000     
4.49153         MSG_UDP              iDivisorNMEA    $GPZDA,133910.250,07,03,2023,,*5F
 
4.50172         MSG_UDP              iDivisorNMEA    $HCHDG,283.5,0.0,E,23.3,W*6E
 
4.51188         MSG_UDP              iDivisorNMEA    $GPHDT,260.18,T*08
 
4.52199         MSG_UDP              iDivisorNMEA    $TIROT,-1.39,A*2D
 
4.53218         MSG_UDP              iDivisorNMEA    $MXPGN,01F803,281C,0000000000008C31*1D
 
4.54238         MSG_UDP              iDivisorNMEA    $MXPGN,01F804,281C,000000BE69C18C31*60
 
4.55256         MSG_UDP              iDivisorNMEA    $AGRSA,-0.96,A,,V*6D
 
4.55260         ANGULO_LEME          iDivisorNMEA    -0.96000     
4.56842         MSG_UDP              iDivisorNMEA    $GPGGA,133910.000,2254.75301,S,04309.53869,W,1,12,1.00,6.75,M,-5.60,M,,*7C
 
4.57362         MSG_UDP              iDivisorNMEA    $GPGLL,2254.75301,S,04309.53869,W,133910.000,A,A*51
 
4.58382         MSG_UDP              iDivisorNMEA    $GPRMC,133910.000,A,2254.75301,S,04309.53869,W,0.09,0.00,070323,23.30,W,A*11
 
4.59398         MSG_UDP              iDivisorNMEA    $GPVTG,0.00,T,,M,0.09,N,0.16,K,A*33
 
4.60413         MSG_UDP              iDivisorNMEA    $HCHDG,283.5,0.0,E,23.3,W*6E
 
4.61431         MSG_UDP              iDivisorNMEA    $GPHDT,260.18,T*08
 
4.62445         MSG_UDP              iDivisorNMEA    $TIROT,-1.39,A*2D
 
4.63462         MSG_UDP              iDivisorNMEA    $MXPGN,00FF00,280B,0002000005049913*19
 
4.64477         MSG_UDP              iDivisorNMEA    $MXPGN,01F803,281C,000000000000A032*14
 
4.65501         MSG_UDP              iDivisorNMEA    $MXPGN,01F804,281C,000000BE69C1A032*69
 
4.66517         MSG_UDP              iDivisorNMEA    $AGRSA,-0.96,A,,V*6D
 
4.66520         ANGULO_LEME          iDivisorNMEA    -0.96000     
4.67536         MSG_UDP              iDivisorNMEA    $SDDPT,1.80,0.00,*72
 
4.68551         MSG_UDP              iDivisorNMEA    $HCHDG,283.5,0.0,E,23.3,W*6E
 
4.69569         MSG_UDP              iDivisorNMEA    $GPHDT,260.17,T*07
 
4.70586         MSG_UDP              iDivisorNMEA    $TIROT,-1.49,A*2A
 
4.71603         MSG_UDP              iDivisorNMEA    $MXPGN,01FF1A,680B,FF022B849F4105C0*1F
 
4.72634         MSG_UDP              iDivisorNMEA    $MXPGN,01FF1A,782B,FF010B049F410500*66
 
4.73651         MSG_UDP              iDivisorNMEA    $MXPGN,01F803,281C,000000000000A032*14
 
4.74669         MSG_UDP              iDivisorNMEA    $MXPGN,01F804,281C,000000BE69C1A032*69
 
4.75686         MSG_UDP              iDivisorNMEA    $AGRSA,-0.90,A,,V*6B
 
4.75692         ANGULO_LEME          iDivisorNMEA    -0.90000     
4.76731         MSG_UDP              iDivisorNMEA    $HCHDG,283.5,0.0,E,23.3,W*6E
 
4.77749         MSG_UDP              iDivisorNMEA    $GPHDT,260.17,T*07
 
4.78770         MSG_UDP              iDivisorNMEA    $TIROT,-1.49,A*2A
 
4.79784         MSG_UDP              iDivisorNMEA    $GPGSA,A,3,08,10,16,18,21,23,26,,,,,,2.16,1.79,1.79*06
 
4.80799         MSG_UDP              iDivisorNMEA    $GPGSV,2,1,07,08,40,238,44,10,38,152,34,16,10,315,41,18,17,070,00*7F
 
5.06516         MSG_UDP              iDivisorNMEA    $MXPGN,00FF3D,6808,0000FF0BFFFF9F41*19
 
5.06726         MSG_UDP              iDivisorNMEA    $HCHDG,283.5,0.0,E,23.3,W*6E
 
5.07590         MSG_UDP              iDivisorNMEA    $GPHDT,260.18,T*08
 
5.08624         MSG_UDP              iDivisorNMEA    $TIROT,-1.49,A*2A
 
5.09651         MSG_UDP              iDivisorNMEA    $MXPGN,00FF00,280B,0002000005049913*19
 
5.10679         MSG_UDP              iDivisorNMEA    $MXPGN,00FF3D,6808,FFFFFF0CFFFF9F41*18
 
5.11711         MSG_UDP              iDivisorNMEA    $MXPGN,01F803,281C,0000000000005037*65
 
5.12735         MSG_UDP              iDivisorNMEA    $MXPGN,01F804,281C,0000008E97C15037*63
 
5.13767         MSG_UDP              iDivisorNMEA    $MXPGN,00FF3D,6808,FFFFFF03FFFF9F41*68
 
5.14788         MSG_UDP              iDivisorNMEA    $MXPGN,00FF3C,3808,8000F8FE00009F41*1C
 
5.15808         MSG_UDP              iDivisorNMEA    $AGRSA,-0.96,A,,V*6D
 
5.15812         ANGULO_LEME          iDivisorNMEA    -0.96000     
5.16825         MSG_UDP              iDivisorNMEA    $MXPGN,00FF3D,6808,FFFFFF02FFFF9F41*69
 
5.17840         MSG_UDP              iDivisorNMEA    $HCHDG,283.5,0.0,E,23.3,W*6E
 
5.18859         MSG_UDP              iDivisorNMEA    $GPHDT,260.20,T*03
 
5.19878         MSG_UDP              iDivisorNMEA    $TIROT,-1.29,A*2C
 
5.20896         MSG_UDP              iDivisorNMEA    $MXPGN,01F803,281C,0000000000007839*61
 
5.21932         MSG_UDP              iDivisorNMEA    $MXPGN,01F804,281C,000000985AC17839*61
 
5.22950         MSG_UDP              iDivisorNMEA    !AIVDM,1,1,,B,1:U8RjPP00trUeIjqU`nKwvF2H6f,0*62
 
5.23968         MSG_UDP              iDivisorNMEA    $AGRSA,-0.96,A,,V*6D
 
5.23972         ANGULO_LEME          iDivisorNMEA    -0.96000     
5.24991         MSG_UDP              iDivisorNMEA    $MXPGN,00FF16,7808,FF0000002B0A9F41*1B
 
5.26009         MSG_UDP              iDivisorNMEA    $MXPGN,00FF19,7808,0000000202009F41*15
 
5.27024         MSG_UDP              iDivisorNMEA    $MXPGN,00FF19,7808,0080000A0A009F41*1D
 
5.28042         MSG_UDP              iDivisorNMEA    $HCHDG,283.5,0.0,E,23.3,W*6E
 
5.29055         MSG_UDP              iDivisorNMEA    $GPHDT,260.22,T*01
 
5.30077         MSG_UDP              iDivisorNMEA    $TIROT,-1.39,A*2D
 
5.31098         MSG_UDP              iDivisorNMEA    $MXPGN,01F803,281C,0000000000008D3A*6A
 
5.32119         MSG_UDP              iDivisorNMEA    $MXPGN,01F804,281C,000000985AC18D3A*6A
 
5.33138         MSG_UDP              iDivisorNMEA    $MXPGN,00FF8C,6808,FFF10695C9409F41*64
 
5.34158         MSG_UDP              iDivisorNMEA    $GPGGA,,2254.75319,S,04309.53959,W,1,,,,M,,M,,*56
 
5.35181         MSG_UDP              iDivisorNMEA    $GPGLL,2254.75319,S,04309.53959,W,,A,A*4D
 
5.36202         MSG_UDP              iDivisorNMEA    $GPVTG,334.80,T,,M,0.20,N,0.37,K,A*37
 
5.37221         MSG_UDP              iDivisorNMEA    $AGRSA,-0.96,A,,V*6D
 
5.37228         ANGULO_LEME          iDivisorNMEA    -0.96000     
5.38238         MSG_UDP              iDivisorNMEA    $MXPGN,00FF00,280B,0002000005049913*19
 
5.39259         MSG_UDP              iDivisorNMEA    $HCHDG,283.5,0.0,E,23.3,W*6E
 
5.40277         MSG_UDP              iDivisorNMEA    $GPHDT,260.22,T*01
 
5.41295         MSG_UDP              iDivisorNMEA    $TIROT,-1.09,A*2E
 
5.42317         MSG_UDP              iDivisorNMEA    !AIVDM,1,1,,A,3:U8l=P00wLrLtMjrfFuoK4B0TTS,0*03
 
5.43340         MSG_UDP              iDivisorNMEA    $MXPGN,01F803,281C,000000000000A03B*64
 
5.44355         MSG_UDP              iDivisorNMEA    $MXPGN,01F804,281C,000000985AC1A03B*64
 
5.45370         MSG_UDP              iDivisorNMEA    $AGRSA,-0.96,A,,V*6D
 
5.45372         ANGULO_LEME          iDivisorNMEA    -0.96000     
5.46385         MSG_UDP              iDivisorNMEA    $GPZDA,133911.250,07,03,2023,,*5E
 
5.47403         MSG_UDP              iDivisorNMEA    $GPGSA,A,3,08,10,16,18,27,28,31,32,66,65,86,87,1.80,1.50,1.50*02
 
5.48422         MSG_UDP              iDivisorNMEA    $GPGSV,3,1,12,08,40,239,39,10,39,152,30,16,10,316,41,18,18,070,37*7C
 
5.49439         MSG_UDP              iDivisorNMEA    $GPGSV,3,2,12,27,62,289,34,28,19,029,40,31,14,019,43,32,77,105,44*7E
 
5.50456         MSG_UDP              iDivisorNMEA    $GPGSV,3,3,12,66,16,312,44,65,62,262,40,86,30,048,40,87,70,142,44*72
 
5.51472         MSG_UDP              iDivisorNMEA    $MXPGN,01FF0D,780B,FF03000098900520*64
 
5.52488         MSG_UDP              iDivisorNMEA    $HCHDG,283.5,0.0,E,23.3,W*6E
 
5.53502         MSG_UDP              iDivisorNMEA    $GPHDT,260.23,T*00
 
5.54521         MSG_UDP              iDivisorNMEA    $TIROT,-1.09,A*2E
 
5.55535         MSG_UDP              iDivisorNMEA    $MXPGN,01F803,281C,000000000000B43C*62
 
5.56551         MSG_UDP              iDivisorNMEA    $MXPGN,01F804,281C,0000002386C1B43C*18
 
5.57596         MSG_UDP              iDivisorNMEA    $AGRSA,-0.90,A,,V*6B
 
5.57600         ANGULO_LEME          iDivisorNMEA    -0.90000     
5.58614         MSG_UDP              iDivisorNMEA    $GPGGA,133911.000,2254.75306,S,04309.53838,W,1,12,1.00,6.55,M,-5.60,M,,*7C
 
5.59636         MSG_UDP              iDivisorNMEA    $GPGLL,2254.75306,S,04309.53838,W,133911.000,A,A*53
 
5.60653         MSG_UDP              iDivisorNMEA    $GPRMC,133911.000,A,2254.75306,S,04309.53838,W,0.09,0.00,070323,23.30,W,A*13
 
5.61673         MSG_UDP              iDivisorNMEA    $GPVTG,0.00,T,,M,0.09,N,0.16,K,A*33
 
5.62689         MSG_UDP              iDivisorNMEA    $HCHDG,283.5,0.0,E,23.3,W*6E
 
5.63709         MSG_UDP              iDivisorNMEA    $GPHDT,260.21,T*02
 
5.64730         MSG_UDP              iDivisorNMEA    $TIROT,-1.19,A*2F
 
5.65749         MSG_UDP              iDivisorNMEA    $MXPGN,00FF00,280B,0002000005049913*19
 
5.66766         MSG_UDP              iDivisorNMEA    !AIVDM,1,1,,A,3:U8Qv061etrLlmjqi5:N`@B01vP,0*0A
 
5.67786         MSG_UDP              iDivisorNMEA    $MXPGN,01F803,281C,000000000000C83D*68
 
5.68803         MSG_UDP              iDivisorNMEA    $MXPGN,01F804,281C,0000002386C1C83D*12
 
5.69820         MSG_UDP              iDivisorNMEA    $AGRSA,-0.90,A,,V*6B
 
5.69823         ANGULO_LEME          iDivisorNMEA    -0.90000     
5.96712         MSG_UDP              iDivisorNMEA    $HCHDG,283.5,0.0,E,23.3,W*6E
 
5.96722         MSG_UDP              iDivisorNMEA    $GPHDT,260.23,T*00
 
5.97742         MSG_UDP              iDivisorNMEA    $TIROT,-1.39,A*2D
 
5.99610         MSG_UDP              iDivisorNMEA    $MXPGN,01F803,281C,0000000000003C41*11
 
5.99831         MSG_UDP              iDivisorNMEA    $MXPGN,01F804,281C,0000009DBDC13C41*1F
 
6.01502         MSG_UDP              iDivisorNMEA    $MXPGN,01FF2C,7808,FFFFFFFF9F411780*63
 
6.01925         MSG_UDP              iDivisorNMEA    $MXPGN,01FF2C,7808,FFFF7FFFFFFF7F81*1E
 
6.02944         MSG_UDP              iDivisorNMEA    $AGRSA,-0.90,A,,V*6B
 
6.02949         ANGULO_LEME          iDivisorNMEA    -0.90000     
6.03963         MSG_UDP              iDivisorNMEA    $MXPGN,01FF2C,7808,FF7FFFFFFFFFFF82*6C
 
6.04979         MSG_UDP              iDivisorNMEA    $MXPGN,01FF2C,7808,FFFFFFFF7FFFFF83*6D
 
6.06003         MSG_UDP              iDivisorNMEA    $MXPGN,00FF3D,6808,7FFFFF0DFFFF9F41*6E
 
6.07021         MSG_UDP              iDivisorNMEA    $HCHDG,283.5,0.0,E,23.3,W*6E
 
6.08058         MSG_UDP              iDivisorNMEA    $GPHDT,260.22,T*01
 
6.09078         MSG_UDP              iDivisorNMEA    $TIROT,-1.39,A*2D
 
6.10091         MSG_UDP              iDivisorNMEA    $MXPGN,01F803,281C,0000000000005042*67
 
6.11110         MSG_UDP              iDivisorNMEA    $MXPGN,01F804,281C,0000009DBDC15042*69
 
6.12130         MSG_UDP              iDivisorNMEA    $MXPGN,00FF3C,3808,8000F8FE00009F41*1C
 
6.13150         MSG_UDP              iDivisorNMEA    $AGRSA,-0.90,A,,V*6B
 
6.13157         ANGULO_LEME          iDivisorNMEA    -0.90000     
6.14172         MSG_UDP              iDivisorNMEA    $MXPGN,00FF00,280B,0002000005049913*19
 
6.16704         MSG_UDP              iDivisorNMEA    $HCHDG,283.5,0.0,E,23.3,W*6E
 
6.16717         MSG_UDP              iDivisorNMEA    $GPHDT,260.22,T*01
 
6.17730         MSG_UDP              iDivisorNMEA    $TIROT,-1.29,A*2C
 
6.19609         MSG_UDP              iDivisorNMEA    $MXPGN,01F803,281C,0000000000006443*61
 
6.19826         MSG_UDP              iDivisorNMEA    $MXPGN,01F804,281C,000000AD84C16443*1D
 
6.21613         MSG_UDP              iDivisorNMEA    $AGRSA,-0.90,A,,V*6B
 
6.21620         ANGULO_LEME          iDivisorNMEA    -0.90000     
6.21934         MSG_UDP              iDivisorNMEA    $MXPGN,00FF16,7808,FF0000002B0A9F41*1B
 
6.23988         MSG_UDP              iDivisorNMEA    $MXPGN,00FF19,7808,0000000202009F41*15
 
6.26487         MSG_UDP              iDivisorNMEA    $MXPGN,00FF19,7808,0080000A0A009F41*1D
 
6.26731         MSG_UDP              iDivisorNMEA    $HCHDG,283.5,0.0,E,23.3,W*6E
 
6.27549         MSG_UDP              iDivisorNMEA    $GPHDT,260.22,T*01
 
6.28563         MSG_UDP              iDivisorNMEA    $TIROT,-1.29,A*2C
 
6.29616         MSG_UDP              iDivisorNMEA    $MXPGN,01F803,281C,0000000000007844*6B
 
6.30637         MSG_UDP              iDivisorNMEA    $MXPGN,01F804,281C,000000AD84C17844*17
 
6.31656         MSG_UDP              iDivisorNMEA    $MXPGN,00FF8C,6808,FFF10695C9409F41*64
 
6.32674         MSG_UDP              iDivisorNMEA    $GPGGA,,2254.75279,S,04309.53989,W,1,,,,M,,M,,*5C
 
6.33693         MSG_UDP              iDivisorNMEA    $GPGLL,2254.75279,S,04309.53989,W,,A,A*47
 
6.34714         MSG_UDP              iDivisorNMEA    $GPVTG,334.80,T,,M,0.70,N,1.29,K,A*3C
 
6.35733         MSG_UDP              iDivisorNMEA    $AGRSA,-0.90,A,,V*6B
 
6.35736         ANGULO_LEME          iDivisorNMEA    -0.90000     
6.36749         MSG_UDP              iDivisorNMEA    $HCHDG,283.5,0.0,E,23.3,W*6E
 
6.37768         MSG_UDP              iDivisorNMEA    $GPHDT,260.24,T*07
 
6.38788         MSG_UDP              iDivisorNMEA    $TIROT,-1.39,A*2D
 
6.39809         MSG_UDP              iDivisorNMEA    $MXPGN,00FF00,280B,0002000005049913*19
 
6.40825         MSG_UDP              iDivisorNMEA    $MXPGN,01F803,281C,0000000000008C45*1E
 
6.41839         MSG_UDP              iDivisorNMEA    $MXPGN,01F804,281C,000000AD84C18C45*62
 
6.42858         MSG_UDP              iDivisorNMEA    $AGRSA,-0.90,A,,V*6B
 
6.42864         ANGULO_LEME          iDivisorNMEA    -0.90000     
6.43879         MSG_UDP              iDivisorNMEA    $GPZDA,133912.250,07,03,2023,,*5D
 
6.44897         MSG_UDP              iDivisorNMEA    $GPGSA,A,3,08,10,16,18,27,28,31,32,66,65,86,87,1.80,1.50,1.50*02
 
6.45920         MSG_UDP              iDivisorNMEA    $GPGSV,3,1,12,08,40,239,39,10,39,152,29,16,10,316,42,18,18,070,37*77
 
6.46943         MSG_UDP              iDivisorNMEA    $GPGSV,3,2,12,27,62,289,34,28,19,029,40,31,14,019,43,32,77,105,44*7E
 
6.47967         MSG_UDP              iDivisorNMEA    $GPGSV,3,3,12,66,16,312,44,65,62,262,40,86,29,048,40,87,70,142,44*7A
 
6.48987         MSG_UDP              iDivisorNMEA    $MXPGN,01FF0D,780B,FF03000098900540*62
 
6.50007         MSG_UDP              iDivisorNMEA    $HCHDG,283.6,0.0,E,23.3,W*6D
 
6.51023         MSG_UDP              iDivisorNMEA    $GPHDT,260.25,T*06
 
6.52043         MSG_UDP              iDivisorNMEA    $TIROT,-1.39,A*2D
 
6.53061         MSG_UDP              iDivisorNMEA    $MXPGN,01F803,281C,0000000000008C45*1E
 
6.54078         MSG_UDP              iDivisorNMEA    $MXPGN,01F804,281C,0000005CF9C18C45*62
 
6.55100         MSG_UDP              iDivisorNMEA    $AGRSA,-0.90,A,,V*6B
 
6.55105         ANGULO_LEME          iDivisorNMEA    -0.90000     
6.56904         MSG_UDP              iDivisorNMEA    $GPGGA,133912.000,2254.75321,S,04309.53763,W,1,12,1.00,5.96,M,-5.60,M,,*77
 
6.57220         MSG_UDP              iDivisorNMEA    $GPGLL,2254.75321,S,04309.53763,W,133912.000,A,A*54
 
6.58277         MSG_UDP              iDivisorNMEA    $GPRMC,133912.000,A,2254.75321,S,04309.53763,W,0.19,161.09,070323,23.30,W,A*1A
 
6.59291         MSG_UDP              iDivisorNMEA    $GPVTG,161.09,T,,M,0.19,N,0.35,K,A*3C
 
6.60305         MSG_UDP              iDivisorNMEA    $HCHDG,283.6,0.0,E,23.3,W*6D
 
6.61323         MSG_UDP              iDivisorNMEA    $GPHDT,260.25,T*06
 
6.62345         MSG_UDP              iDivisorNMEA    $TIROT,-1.39,A*2D
 
6.86710         MSG_UDP              iDivisorNMEA    $HCHDG,283.6,0.0,E,23.3,W*6D
 
6.86725         MSG_UDP              iDivisorNMEA    $GPHDT,260.27,T*04
 
6.87753         MSG_UDP              iDivisorNMEA    $TIROT,-1.39,A*2D
 
6.88779         MSG_UDP              iDivisorNMEA    $MXPGN,00FF00,280B,0002000005049913*19
 
6.89805         MSG_UDP              iDivisorNMEA    $MXPGN,01F803,281C,000000000000284A*1B
 
6.90832         MSG_UDP              iDivisorNMEA    $MXPGN,01F804,281C,000000570AC1284A*1D
 
6.91856         MSG_UDP              iDivisorNMEA    $MXPGN,00FF28,3808,FF08FFFDFC059F41*19
 
6.92888         MSG_UDP              iDivisorNMEA    $AGRSA,-0.90,A,,V*6B
 
6.92897         ANGULO_LEME          iDivisorNMEA    -0.90000     
6.96711         MSG_UDP              iDivisorNMEA    $HCHDG,283.6,0.0,E,23.3,W*6D
 
6.96723         MSG_UDP              iDivisorNMEA    $GPHDT,260.31,T*03
 
6.97752         MSG_UDP              iDivisorNMEA    $TIROT,-1.29,A*2C
 
6.99606         MSG_UDP              iDivisorNMEA    $MXPGN,01F803,281C,0000000000003C4B*62
 
6.99836         MSG_UDP              iDivisorNMEA    $MXPGN,01F804,281C,00000063DBC13C4B*14
 
7.01501         MSG_UDP              iDivisorNMEA    $MXPGN,01FF2C,7808,FFFFFFFF9F4117A0*1A
 
7.01930         MSG_UDP              iDivisorNMEA    $MXPGN,01FF2C,7808,FFFF7FFFFFFF7FA1*67
 
7.02954         MSG_UDP              iDivisorNMEA    $MXPGN,01FF2C,7808,FF7FFFFFFFFFFFA2*15
 
7.03996         MSG_UDP              iDivisorNMEA    $AGRSA,-0.90,A,,V*6B
 
7.04001         ANGULO_LEME          iDivisorNMEA    -0.90000     
7.05017         MSG_UDP              iDivisorNMEA    $MXPGN,01FF2C,7808,FFFFFFFF7FFFFFA3*14
 
7.06039         MSG_UDP              iDivisorNMEA    $MXPGN,00FF3D,6808,7FFFFF0DFFFF9F41*6E
 
7.07061         MSG_UDP              iDivisorNMEA    $HCHDG,283.6,0.0,E,23.3,W*6D
 
7.08089         MSG_UDP              iDivisorNMEA    $GPHDT,260.31,T*03
 
7.09149         MSG_UDP              iDivisorNMEA    $TIROT,-1.29,A*2C
 
7.10180         MSG_UDP              iDivisorNMEA    $MXPGN,01F803,281C,000000000000504C*16
 
7.11207         MSG_UDP              iDivisorNMEA    $MXPGN,01F804,281C,00000063DBC1504C*60
 
7.12239         MSG_UDP              iDivisorNMEA    $MXPGN,00FF3C,3808,8000F8FE00009F41*1C
 
7.13266         MSG_UDP              iDivisorNMEA    $AGRSA,-0.96,A,,V*6D
 
7.13272         ANGULO_LEME          iDivisorNMEA    -0.96000     
7.14292         MSG_UDP              iDivisorNMEA    $MXPGN,00FF00,280B,0002000005049913*19
 
7.16706         MSG_UDP              iDivisorNMEA    $HCHDG,283.6,0.0,E,23.3,W*6D
 
7.16722         MSG_UDP              iDivisorNMEA    $GPHDT,260.31,T*03
 
7.17748         MSG_UDP              iDivisorNMEA    $TIROT,-1.39,A*2D
 
7.19618         MSG_UDP              iDivisorNMEA    $MXPGN,01F803,281C,000000000000644D*16
 
7.19843         MSG_UDP              iDivisorNMEA    $MXPGN,01F804,281C,00000075C6C1644D*14
 
7.20868         MSG_UDP              iDivisorNMEA    !AIVDM,1,1,,B,1:U6vLPP00trHfQjpdgbOgvJ2L1v,0*58
 
7.21895         MSG_UDP              iDivisorNMEA    $AGRSA,-0.96,A,,V*6D
 
7.21905         ANGULO_LEME          iDivisorNMEA    -0.96000     
7.22926         MSG_UDP              iDivisorNMEA    $MXPGN,00FF16,7808,FF0000002B0A9F41*1B
 
7.23957         MSG_UDP              iDivisorNMEA    $MXPGN,00FF19,7808,0000000202009F41*15
 
7.26399         MSG_UDP              iDivisorNMEA    $MXPGN,00FF19,7808,0080000A0A009F41*1D
 
7.26705         MSG_UDP              iDivisorNMEA    $HCHDG,283.6,0.0,E,23.3,W*6D
 
7.27532         MSG_UDP              iDivisorNMEA    $GPHDT,260.32,T*00
 
7.28566         MSG_UDP              iDivisorNMEA    $TIROT,-1.39,A*2D
 
7.29609         MSG_UDP              iDivisorNMEA    $MXPGN,01F803,281C,000000000000784E*1A
 
7.30639         MSG_UDP              iDivisorNMEA    $MXPGN,01F804,281C,00000075C6C1784E*18
 
7.31667         MSG_UDP              iDivisorNMEA    $MXPGN,00FF8C,6808,FFF10695C9409F41*64
 
7.32691         MSG_UDP              iDivisorNMEA    $GPGGA,,2254.75279,S,04309.53989,W,1,,,,M,,M,,*5C
 
7.33721         MSG_UDP              iDivisorNMEA    $GPGLL,2254.75279,S,04309.53989,W,,A,A*47
 
7.34748         MSG_UDP              iDivisorNMEA    $GPVTG,334.80,T,,M,0.70,N,1.29,K,A*3C
 
7.35779         MSG_UDP              iDivisorNMEA    $AGRSA,-0.90,A,,V*6B
 
7.35787         ANGULO_LEME          iDivisorNMEA    -0.90000     
7.36806         MSG_UDP              iDivisorNMEA    $HCHDG,283.6,0.0,E,23.3,W*6D
 
7.37835         MSG_UDP              iDivisorNMEA    $GPHDT,260.31,T*03
 
7.38863         MSG_UDP              iDivisorNMEA    $TIROT,-1.39,A*2D
 
7.39895         MSG_UDP              iDivisorNMEA    $MXPGN,00FF00,280B,0002000005049913*19
 
7.40942         MSG_UDP              iDivisorNMEA    $MXPGN,01F803,281C,0000000000008C4F*6D
 
7.41974         MSG_UDP              iDivisorNMEA    $MXPGN,01F804,281C,00000075C6C18C4F*6F
 
7.43002         MSG_UDP              iDivisorNMEA    !AIVDM,1,1,,B,1:U7;pPP00LrGtejpjSanwvJ2@81,0*73
 
7.44030         MSG_UDP              iDivisorNMEA    $AGRSA,-0.90,A,,V*6B
 
7.44040         ANGULO_LEME          iDivisorNMEA    -0.90000     
7.45057         MSG_UDP              iDivisorNMEA    $GPZDA,133913.250,07,03,2023,,*5C
 
7.46090         MSG_UDP              iDivisorNMEA    $GPGSA,A,3,08,10,16,18,27,28,31,32,66,65,86,87,1.80,1.50,1.50*02
 
7.47118         MSG_UDP              iDivisorNMEA    $GPGSV,3,1,12,08,40,239,39,10,39,152,29,16,10,316,42,18,18,070,37*77
 
7.48142         MSG_UDP              iDivisorNMEA    $GPGSV,3,2,12,27,62,289,34,28,19,029,40,31,14,019,43,32,77,107,44*7C
 
7.49164         MSG_UDP              iDivisorNMEA    $GPGSV,3,3,12,66,16,312,44,65,62,262,40,86,29,048,40,87,70,142,44*7A
 
7.50186         MSG_UDP              iDivisorNMEA    $MXPGN,01FF0D,780B,FF03000098900560*60
 
7.51210         MSG_UDP              iDivisorNMEA    $HCHDG,283.6,0.0,E,23.3,W*6D
 
7.52234         MSG_UDP              iDivisorNMEA    $GPHDT,260.32,T*00
 
7.53263         MSG_UDP              iDivisorNMEA    $TIROT,-1.39,A*2D
 
7.76699         MSG_UDP              iDivisorNMEA    $HCHDG,283.6,0.0,E,23.3,W*6D
 
7.76710         MSG_UDP              iDivisorNMEA    $GPHDT,260.32,T*00
 
7.77787         MSG_UDP              iDivisorNMEA    $TIROT,-0.89,A*27
 
7.79090         MSG_UDP              iDivisorNMEA    $GPGSA,A,3,08,10,16,18,21,23,26,,,,,,2.16,1.79,1.79*06
 
7.79918         MSG_UDP              iDivisorNMEA    $GPGSV,2,1,07,08,40,238,44,10,38,152,35,16,10,315,42,18,17,070,00*7D
 
7.80944         MSG_UDP              iDivisorNMEA    $GPGSV,2,2,07,21,10,222,00,23,14,125,00,26,01,350,00*4F
 
7.81975         MSG_UDP              iDivisorNMEA    $MXPGN,01FA06,681C,9F00B800C8520FC0*60
 
7.82999         MSG_UDP              iDivisorNMEA    $MXPGN,01FA06,681C,00A300B4E56600C1*1A
 
7.84017         MSG_UDP              iDivisorNMEA    $MXPGN,01FA06,681C,FFFFFFFFFF0168C2*62
 
7.85038         MSG_UDP              iDivisorNMEA    $MXPGN,01F803,281C,0000000000000052*63
 
7.86051         MSG_UDP              iDivisorNMEA    $MXPGN,01F804,281C,000000BB42C10052*10
 
7.87064         MSG_UDP              iDivisorNMEA    $GPGGA,133914.000,2254.75330,S,04309.53839,W,1,07,1.79,1.17,M,-5.00,M,,*70
 
7.88090         MSG_UDP              iDivisorNMEA    $GPGLL,2254.75330,S,04309.53839,W,133914.000,A,A*52
 
7.89120         MSG_UDP              iDivisorNMEA    $GPRMC,133914.000,A,2254.75330,S,04309.53839,W,0.01,116.57,070323,23.39,W,A*17
 
7.90152         MSG_UDP              iDivisorNMEA    $GPVTG,116.57,T,,M,0.01,N,0.01,K,A*39
 
7.91179         MSG_UDP              iDivisorNMEA    $AGRSA,-0.96,A,,V*6D
 
7.91186         ANGULO_LEME          iDivisorNMEA    -0.96000     
7.92207         MSG_UDP              iDivisorNMEA    $HCHDG,283.6,0.0,E,23.3,W*6D
 
7.93228         MSG_UDP              iDivisorNMEA    $GPHDT,260.32,T*00
 
7.94255         MSG_UDP              iDivisorNMEA    $TIROT,-0.89,A*27
 
7.95279         MSG_UDP              iDivisorNMEA    $MXPGN,00FF00,280B,0002000005049913*19
 
7.96304         MSG_UDP              iDivisorNMEA    $MXPGN,01F803,281C,0000000000002854*6F
 
7.97323         MSG_UDP              iDivisorNMEA    $MXPGN,01F804,281C,000000BB42C12854*1C
 
7.98339         MSG_UDP              iDivisorNMEA    $MXPGN,00FF28,3808,FF08FFFDFC059F41*19
 
7.99355         MSG_UDP              iDivisorNMEA    $AGRSA,-0.96,A,,V*6D
 
7.99358         ANGULO_LEME          iDivisorNMEA    -0.96000     
8.00382         MSG_UDP              iDivisorNMEA    $HCHDG,283.6,0.0,E,23.3,W*6D
 
8.01394         MSG_UDP              iDivisorNMEA    $GPHDT,260.33,T*01
 
8.02410         MSG_UDP              iDivisorNMEA    $TIROT,-0.69,A*29
 
8.03435         MSG_UDP              iDivisorNMEA    $MXPGN,01F803,281C,0000000000003C55*14
 
8.04452         MSG_UDP              iDivisorNMEA    $MXPGN,01F804,281C,000000B233C13C55*11
 
8.05473         MSG_UDP              iDivisorNMEA    $MXPGN,01FF2C,7808,FFFFFFFF9F4117C0*18
 
8.06500         MSG_UDP              iDivisorNMEA    $MXPGN,01FF2C,7808,FFFF7FFFFFFF7FC1*65
 
8.07531         MSG_UDP              iDivisorNMEA    $MXPGN,01FF2C,7808,FF7FFFFFFFFFFFC2*17
 
8.08558         MSG_UDP              iDivisorNMEA    $AGRSA,-0.96,A,,V*6D
 
8.08563         ANGULO_LEME          iDivisorNMEA    -0.96000     
8.09586         MSG_UDP              iDivisorNMEA    $MXPGN,01FF2C,7808,FFFFFFFF7FFFFFC3*16
 
8.10617         MSG_UDP              iDivisorNMEA    $MXPGN,00FF3D,6808,7FFFFF0DFFFF9F41*6E
 
8.11647         MSG_UDP              iDivisorNMEA    $HCHDG,283.6,0.0,E,23.3,W*6D
 
8.12674         MSG_UDP              iDivisorNMEA    $GPHDT,260.31,T*03
 
8.13697         MSG_UDP              iDivisorNMEA    $TIROT,-0.69,A*29
 
8.14716         MSG_UDP              iDivisorNMEA    $MXPGN,01F803,281C,0000000000005056*62
 
8.15731         MSG_UDP              iDivisorNMEA    $MXPGN,01F804,281C,000000B233C15056*67
 
8.16754         MSG_UDP              iDivisorNMEA    $MXPGN,00FF3C,3808,8000F8FE00009F41*1C
 
8.17777         MSG_UDP              iDivisorNMEA    $AGRSA,-0.90,A,,V*6B
 
8.17779         ANGULO_LEME          iDivisorNMEA    -0.90000     
8.18792         MSG_UDP              iDivisorNMEA    $MXPGN,00FF00,280B,0002000005049913*19
 
8.19811         MSG_UDP              iDivisorNMEA    $HCHDG,283.6,0.0,E,23.3,W*6D
 
8.20835         MSG_UDP              iDivisorNMEA    $GPHDT,260.30,T*02
 
8.21866         MSG_UDP              iDivisorNMEA    $TIROT,-0.69,A*29
 
8.22894         MSG_UDP              iDivisorNMEA    $MXPGN,01F803,281C,0000000000006457*64
 
8.23924         MSG_UDP              iDivisorNMEA    $MXPGN,01F804,281C,000000A4F2C16457*10
 
8.24953         MSG_UDP              iDivisorNMEA    $AGRSA,-0.90,A,,V*6B
 
8.24968         ANGULO_LEME          iDivisorNMEA    -0.90000     
8.25998         MSG_UDP              iDivisorNMEA    $MXPGN,00FF16,7808,FF0000002B0A9F41*1B
 
8.27046         MSG_UDP              iDivisorNMEA    $MXPGN,00FF19,7808,0000000202009F41*15
 
8.28140         MSG_UDP              iDivisorNMEA    $MXPGN,00FF19,7808,0080000A0A009F41*1D
 
8.29175         MSG_UDP              iDivisorNMEA    $HCHDG,283.6,0.0,E,23.3,W*6D
 
8.30200         MSG_UDP              iDivisorNMEA    $GPHDT,260.31,T*03
 
8.31225         MSG_UDP              iDivisorNMEA    $TIROT,-0.69,A*29
 
8.32250         MSG_UDP              iDivisorNMEA    $MXPGN,01F803,281C,0000000000007858*66
 
8.33275         MSG_UDP              iDivisorNMEA    $MXPGN,01F804,281C,000000A4F2C17858*12
 
8.34303         MSG_UDP              iDivisorNMEA    $MXPGN,00FF8C,6808,FFF10695C9409F41*64
 
8.35331         MSG_UDP              iDivisorNMEA    $GPGGA,,2254.75259,S,04309.53979,W,1,,,,M,,M,,*51
 
8.36356         MSG_UDP              iDivisorNMEA    $GPGLL,2254.75259,S,04309.53979,W,,A,A*4A
 
8.37375         MSG_UDP              iDivisorNMEA    $GPVTG,334.80,T,,M,0.50,N,0.92,K,A*3F
 
8.38395         MSG_UDP              iDivisorNMEA    $AGRSA,-0.96,A,,V*6D
 
8.38400         ANGULO_LEME          iDivisorNMEA    -0.96000     
8.39414         MSG_UDP              iDivisorNMEA    $HCHDG,283.6,0.0,E,23.3,W*6D
 
8.40433         MSG_UDP              iDivisorNMEA    $GPHDT,260.31,T*03
 
8.66680         MSG_UDP              iDivisorNMEA    $HCHDG,283.6,0.0,E,23.3,W*6D
 
8.66701         MSG_UDP              iDivisorNMEA    $GPHDT,260.27,T*04
 
8.67720         MSG_UDP              iDivisorNMEA    $TIROT,-0.89,A*27
 
8.68740         MSG_UDP              iDivisorNMEA    $MXPGN,01FF1A,680B,FF022B849F410540*68
 
8.69760         MSG_UDP              iDivisorNMEA    $MXPGN,01FF1A,782B,FF010B049F410580*6E
 
8.70779         MSG_UDP              iDivisorNMEA    $MXPGN,01F803,281C,000000000000C85C*69
 
8.71800         MSG_UDP              iDivisorNMEA    $MXPGN,01F804,281C,000000F163C1C85C*6E
 
8.72823         MSG_UDP              iDivisorNMEA    $AGRSA,-0.90,A,,V*6B
 
8.72832         ANGULO_LEME          iDivisorNMEA    -0.90000     
8.76665         MSG_UDP              iDivisorNMEA    $HCHDG,283.6,0.0,E,23.3,W*6D
 
8.76685         MSG_UDP              iDivisorNMEA    $GPHDT,260.26,T*05
 
8.77711         MSG_UDP              iDivisorNMEA    $TIROT,-1.09,A*2E
 
8.79070         MSG_UDP              iDivisorNMEA    $GPGSA,A,3,08,10,16,18,21,23,26,,,,,,2.16,1.79,1.79*06
 
8.79804         MSG_UDP              iDivisorNMEA    $GPGSV,2,1,07,08,40,238,44,10,38,152,33,16,10,315,42,18,17,070,00*7B
 
8.80837         MSG_UDP              iDivisorNMEA    $GPGSV,2,2,07,21,10,222,00,23,14,125,00,26,01,350,00*4F
 
8.81860         MSG_UDP              iDivisorNMEA    $MXPGN,01FA06,681C,9F00B800C85C0FE0*17
 
8.82876         MSG_UDP              iDivisorNMEA    $MXPGN,01FA06,681C,00A300B4E56600E1*1C
 
8.83892         MSG_UDP              iDivisorNMEA    $MXPGN,01FA06,681C,FFFFFFFFFF0168E2*64
 
8.84905         MSG_UDP              iDivisorNMEA    $MXPGN,01F803,281C,000000000000005C*12
 
8.85924         MSG_UDP              iDivisorNMEA    $MXPGN,01F804,281C,000000F163C1005C*15
 
8.86942         MSG_UDP              iDivisorNMEA    !AIVDM,2,1,4,B,5:U8vhT2CPbM1G;WK21E20<u84j222222222221J1q86=76<0<4RCp11H2PC,0*39
 
8.87959         MSG_UDP              iDivisorNMEA    !AIVDM,2,2,4,B,QBDSp888880,2*6F
 
8.88971         MSG_UDP              iDivisorNMEA    $GPGGA,133915.000,2254.75330,S,04309.53839,W,1,07,1.79,1.17,M,-5.00,M,,*71
 
8.89986         MSG_UDP              iDivisorNMEA    $GPGLL,2254.75330,S,04309.53839,W,133915.000,A,A*53
 
8.90997         MSG_UDP              iDivisorNMEA    $GPRMC,133915.000,A,2254.75330,S,04309.53839,W,0.03,317.11,070323,23.39,W,A*15
 
8.92014         MSG_UDP              iDivisorNMEA    $GPVTG,317.11,T,,M,0.03,N,0.05,K,A*3E
 
8.93031         MSG_UDP              iDivisorNMEA    $AGRSA,-0.90,A,,V*6B
 
8.93034         ANGULO_LEME          iDivisorNMEA    -0.90000     
8.94044         MSG_UDP              iDivisorNMEA    !AIVDM,1,1,,A,3:U8M80P08trHnQjqCGJSgvN22p1,0*36
 
8.95062         MSG_UDP              iDivisorNMEA    $HCHDG,283.6,0.0,E,23.3,W*6D
 
8.96090         MSG_UDP              iDivisorNMEA    $GPHDT,260.26,T*05
 
8.97129         MSG_UDP              iDivisorNMEA    $TIROT,-1.09,A*2E
 
8.98165         MSG_UDP              iDivisorNMEA    $MXPGN,00FF00,280B,0002000005049913*19
 
8.99181         MSG_UDP              iDivisorNMEA    $MXPGN,01F803,281C,000000000000285E*1E
 
9.00197         MSG_UDP              iDivisorNMEA    $MXPGN,01F804,281C,000000F163C1285E*19
 
9.01212         MSG_UDP              iDivisorNMEA    $MXPGN,00FF28,3808,FF08FFFDFC059F41*19
 
9.02231         MSG_UDP              iDivisorNMEA    $AGRSA,-0.96,A,,V*6D
 
9.02235         ANGULO_LEME          iDivisorNMEA    -0.96000     
9.03250         MSG_UDP              iDivisorNMEA    $HCHDG,283.5,0.0,E,23.3,W*6E
 
9.04268         MSG_UDP              iDivisorNMEA    $GPHDT,260.24,T*07
 
9.05282         MSG_UDP              iDivisorNMEA    $TIROT,-1.19,A*2F
 
9.06303         MSG_UDP              iDivisorNMEA    $MXPGN,01F803,281C,0000000000003C5F*67
 
