%%%%%%%%%%%%%%%%%%%%%%%%%%%%%%%%%%%%%%%%%%%%%%%%%%%%%%%%%%%
%% LOG FILE:       /home/moos-ivp-douglas/log/teste_7_3_2023_____10_16_32/teste_7_3_2023_____10_16_32.alog
%% FILE OPENED ON  Wed Dec 31 21:00:00 1969
%% LOGSTART           1678194992.190063
%%%%%%%%%%%%%%%%%%%%%%%%%%%%%%%%%%%%%%%%%%%%%%%%%%%%%%%%%%%
-0.04023        MOOS_DEBUG           pHelmIvP        pHelmIvP AllStop: ManualOverride 
-0.04023        DESIRED_SPEED        pHelmIvP        0.00000      
-0.04023        DESIRED_HEADING      pHelmIvP        0.00000      
0.16158         DESIRED_RUDDER       pMarinePIDV22   0.00000      
0.16159         DESIRED_THRUST       pMarinePIDV22   0.00000      
0.72758         ANGULO_LEME          iDivisorNMEA    -0.90000     
0.73790         MSG_UDP              iDivisorNMEA    $MXPGN,01F804,281C,0000000554C18C17*68
 
0.77866         MSG_UDP              iDivisorNMEA    $HCHDG,284.1,0.0,E,23.3,W*6D
 
0.77874         MSG_UDP              iDivisorNMEA    $GPHDT,260.76,T*00
 
0.78891         MSG_UDP              iDivisorNMEA    $TIROT,0.39,A*01
 
0.82754         MSG_UDP              iDivisorNMEA    $AGRSA,-0.90,A,,V*6B
 
0.82760         ANGULO_LEME          iDivisorNMEA    -0.90000     
0.82854         MSG_UDP              iDivisorNMEA    $SDDPT,1.76,0.00,*7B
 
0.83870         MSG_UDP              iDivisorNMEA    $MXPGN,01F803,281C,FFFDA8000000B419*61
 
0.84888         MSG_UDP              iDivisorNMEA    $MXPGN,01F804,281C,0000000554C1B419*6B
 
0.87860         MSG_UDP              iDivisorNMEA    $HCHDG,284.1,0.0,E,23.3,W*6D
 
0.87893         MSG_UDP              iDivisorNMEA    $GPHDT,260.77,T*01
 
0.88906         MSG_UDP              iDivisorNMEA    $TIROT,0.39,A*01
 
0.90669         MSG_UDP              iDivisorNMEA    $MXPGN,01FF2C,7808,FFFFFFFF9F4117A0*1A
 
0.90984         MSG_UDP              iDivisorNMEA    $MXPGN,01FF2C,7808,FFFF7FFFFFFF7FA1*67
 
0.91996         MSG_UDP              iDivisorNMEA    $MXPGN,01FF2C,7808,FF7FFFFFFFFFFFA2*15
 
0.93009         MSG_UDP              iDivisorNMEA    $MXPGN,01FF2C,7808,FFFFFFFF7FFFFFA3*14
 
0.94018         MSG_UDP              iDivisorNMEA    $MXPGN,00FF00,280B,0002000005049913*19
 
0.95027         MSG_UDP              iDivisorNMEA    $GPGGA,131632.000,2254.75192,S,04309.53661,W,1,12,0.90,6.68,M,-5.60,M,,*7B
 
0.96041         MSG_UDP              iDivisorNMEA    $GPGLL,2254.75192,S,04309.53661,W,131632.000,A,A*52
 
1.12771         MSG_UDP              iDivisorNMEA    $AGRSA,-0.90,A,,V*6B
 
1.12773         ANGULO_LEME          iDivisorNMEA    -0.90000     
1.13176         MSG_UDP              iDivisorNMEA    $MXPGN,00FF19,7808,0000000202009F41*15
 
1.13816         MSG_UDP              iDivisorNMEA    $MXPGN,01F803,281C,000000000000141B*12
 
1.14827         MSG_UDP              iDivisorNMEA    $MXPGN,01F804,281C,00000065CBC1141B*65
 
1.15837         MSG_UDP              iDivisorNMEA    $MXPGN,00FF19,7808,0080000A0A009F41*1D
 
1.17285         MSG_UDP              iDivisorNMEA    $MXPGN,00FF00,280B,0002000005049913*19
 
1.17898         MSG_UDP              iDivisorNMEA    $HCHDG,284.1,0.0,E,23.3,W*6D
 
1.18908         MSG_UDP              iDivisorNMEA    $GPHDT,260.79,T*0F
 
1.19919         MSG_UDP              iDivisorNMEA    $TIROT,0.69,A*04
 
1.20931         MSG_UDP              iDivisorNMEA    !AIVDM,1,1,,A,3:U8RjPP2GtrKk9jqGmC0Ow021fi,0*56
 
1.21941         MSG_UDP              iDivisorNMEA    $MXPGN,00FF8C,6808,FFF10695C9409F41*64
 
1.22955         MSG_UDP              iDivisorNMEA    $MXPGN,00FF28,3808,FF08FFFDFC059F41*19
 
1.23968         MSG_UDP              iDivisorNMEA    $AGRSA,-0.90,A,,V*6B
 
1.23972         ANGULO_LEME          iDivisorNMEA    -0.90000     
1.24982         MSG_UDP              iDivisorNMEA    $MXPGN,01F803,281C,0000000000003C1D*61
 
1.25993         MSG_UDP              iDivisorNMEA    $MXPGN,01F804,281C,00000070DCC13C1D*14
 
1.27900         MSG_UDP              iDivisorNMEA    $HCHDG,284.1,0.0,E,23.3,W*6D
 
1.28017         MSG_UDP              iDivisorNMEA    $GPHDT,260.79,T*0F
 
1.29027         MSG_UDP              iDivisorNMEA    $TIROT,0.69,A*04
 
1.30040         MSG_UDP              iDivisorNMEA    $MXPGN,01FF1A,680B,FF022B849F410540*68
 
1.31680         MSG_UDP              iDivisorNMEA    $MXPGN,01FF1A,782B,FF010B049F4105E0*13
 
1.32773         MSG_UDP              iDivisorNMEA    $AGRSA,-0.90,A,,V*6B
 
1.32778         ANGULO_LEME          iDivisorNMEA    -0.90000     
1.33593         MSG_UDP              iDivisorNMEA    $MXPGN,01F803,281C,0000000000003C1D*61
 
1.34214         MSG_UDP              iDivisorNMEA    $MXPGN,01F804,281C,00000070DCC13C1D*14
 
1.37879         MSG_UDP              iDivisorNMEA    $HCHDG,284.1,0.0,E,23.3,W*6D
 
1.37901         MSG_UDP              iDivisorNMEA    $GPHDT,260.78,T*0E
 
1.38918         MSG_UDP              iDivisorNMEA    $TIROT,0.59,A*07
 
1.40785         MSG_UDP              iDivisorNMEA    $MXPGN,00FF3C,3808,8000F8FE00009F41*1C
 
1.42287         MSG_UDP              iDivisorNMEA    $MXPGN,00FF00,280B,0002000005049913*19
 
1.42366         MSG_UDP              iDivisorNMEA    $MXPGN,01FF0D,780B,FF030000989005A0*17
 
1.43385         MSG_UDP              iDivisorNMEA    $AGRSA,-0.90,A,,V*6B
 
1.43388         ANGULO_LEME          iDivisorNMEA    -0.90000     
1.44402         MSG_UDP              iDivisorNMEA    $MXPGN,01F803,281C,000000000000641F*11
 
1.45417         MSG_UDP              iDivisorNMEA    $MXPGN,01F804,281C,00000070DCC1641F*64
 
1.46431         MSG_UDP              iDivisorNMEA    !AIVDM,2,1,4,A,5:U8RjT000000000000ThP60M84p@D000000000u0Hn372wI03T0DEAE0@00,0*09
 
1.47443         MSG_UDP              iDivisorNMEA    !AIVDM,2,2,4,A,00000000000,2*20
 
1.48454         MSG_UDP              iDivisorNMEA    $HCHDG,284.1,0.0,E,23.3,W*6D
 
1.49468         MSG_UDP              iDivisorNMEA    $GPHDT,260.79,T*0F
 
1.50481         MSG_UDP              iDivisorNMEA    $TIROT,0.59,A*07
 
1.51501         MSG_UDP              iDivisorNMEA    $MXPGN,00FF16,7808,FF0000002B0A9F41*1B
 
1.52907         MSG_UDP              iDivisorNMEA    $GPGGA,,2254.75539,S,04309.53619,W,1,,,,M,,M,,*59
 
1.53530         MSG_UDP              iDivisorNMEA    $GPGLL,2254.75539,S,04309.53619,W,,A,A*42
 
1.54549         MSG_UDP              iDivisorNMEA    $GPVTG,281.40,T,,M,0.20,N,0.37,K,A*34
 
1.55569         MSG_UDP              iDivisorNMEA    $AGRSA,-0.90,A,,V*6B
 
1.55573         ANGULO_LEME          iDivisorNMEA    -0.90000     
1.56584         MSG_UDP              iDivisorNMEA    $MXPGN,01F803,281C,000000000000641F*11
 
1.57602         MSG_UDP              iDivisorNMEA    $MXPGN,01F804,281C,00000089B2C1641F*15
 
1.58623         MSG_UDP              iDivisorNMEA    $HCHDG,284.1,0.0,E,23.3,W*6D
 
1.59636         MSG_UDP              iDivisorNMEA    $GPHDT,260.78,T*0E
 
1.60656         MSG_UDP              iDivisorNMEA    $TIROT,0.59,A*07
 
1.62796         MSG_UDP              iDivisorNMEA    $AGRSA,-0.90,A,,V*6B
 
1.62801         ANGULO_LEME          iDivisorNMEA    -0.90000     
1.62893         MSG_UDP              iDivisorNMEA    $GPZDA,131632.810,07,03,2023,,*5C
 
1.63830         MSG_UDP              iDivisorNMEA    $MXPGN,01F803,281C,0000000000008C21*1C
 
1.64845         MSG_UDP              iDivisorNMEA    $MXPGN,01F804,281C,00000089B2C18C21*18
 
1.67294         MSG_UDP              iDivisorNMEA    $MXPGN,00FF00,280B,0002000005049913*19
 
1.67906         MSG_UDP              iDivisorNMEA    $HCHDG,284.1,0.0,E,23.3,W*6D
 
1.68326         MSG_UDP              iDivisorNMEA    $GPHDT,260.79,T*0F
 
1.69345         MSG_UDP              iDivisorNMEA    $TIROT,0.59,A*07
 
1.72810         MSG_UDP              iDivisorNMEA    $AGRSA,-0.90,A,,V*6B
 
1.72814         ANGULO_LEME          iDivisorNMEA    -0.90000     
1.73716         MSG_UDP              iDivisorNMEA    $MXPGN,01F803,281C,0000000000008C21*1C
 
1.73834         MSG_UDP              iDivisorNMEA    $MXPGN,01F804,281C,0000008D41C18C21*10
 
1.77914         MSG_UDP              iDivisorNMEA    $HCHDG,284.1,0.0,E,23.3,W*6D
 
1.77922         MSG_UDP              iDivisorNMEA    $GPHDT,260.79,T*0F
 
1.78941         MSG_UDP              iDivisorNMEA    $TIROT,0.59,A*07
 
1.82812         MSG_UDP              iDivisorNMEA    $AGRSA,-0.90,A,,V*6B
 
1.82817         ANGULO_LEME          iDivisorNMEA    -0.90000     
1.82913         MSG_UDP              iDivisorNMEA    $SDDPT,1.76,0.00,*7B
 
1.83933         MSG_UDP              iDivisorNMEA    $MXPGN,01F803,281C,0000000000008C21*1C
 
1.97902         MSG_UDP              iDivisorNMEA    $HCHDG,284.1,0.0,E,23.3,W*6D
 
1.97924         MSG_UDP              iDivisorNMEA    $GPHDT,260.77,T*01
 
1.98957         MSG_UDP              iDivisorNMEA    $TIROT,0.29,A*00
 
2.00122         MSG_UDP              iDivisorNMEA    $GPGSA,A,3,08,10,16,18,26,27,28,31,32,66,65,86,1.60,1.40,1.40*07
 
2.01055         MSG_UDP              iDivisorNMEA    $GPGSV,3,1,12,08,34,229,40,10,44,163,34,16,15,307,38,18,23,080,37*70
 
2.02072         MSG_UDP              iDivisorNMEA    $GPGSV,3,2,12,26,06,343,37,27,63,260,43,28,13,021,41,31,08,012,39*77
 
2.03092         MSG_UDP              iDivisorNMEA    $GPGSV,3,3,12,32,76,048,48,66,08,320,46,65,58,290,36,86,37,061,42*7A
 
2.04119         MSG_UDP              iDivisorNMEA    $GPGSA,A,3,08,10,16,18,21,23,24,26,27,,,,1.88,1.60,1.60*01
 
2.05142         MSG_UDP              iDivisorNMEA    $GPGSV,3,1,09,08,33,228,43,10,44,163,44,16,15,306,40,18,23,080,45*73
 
2.06165         MSG_UDP              iDivisorNMEA    $GPGSV,3,2,09,21,03,228,00,23,20,133,00,24,01,124,00,26,05,342,36*7A
 
2.07196         MSG_UDP              iDivisorNMEA    $GPGSV,3,3,09,27,63,260,50*41
 
2.08227         MSG_UDP              iDivisorNMEA    $GPGGA,131634.000,2254.75309,S,04309.53839,W,1,09,1.60,0.98,M,-5.00,M,,*75
 
2.09257         MSG_UDP              iDivisorNMEA    $GPGLL,2254.75309,S,04309.53839,W,131634.000,A,A*57
 
2.10287         MSG_UDP              iDivisorNMEA    $GPRMC,131634.000,A,2254.75309,S,04309.53839,W,0.01,207.18,070323,23.39,W,A*1A
 
2.11309         MSG_UDP              iDivisorNMEA    $GPVTG,207.18,T,,M,0.01,N,0.01,K,A*31
 
2.12333         MSG_UDP              iDivisorNMEA    $AGRSA,-0.90,A,,V*6B
 
2.12341         ANGULO_LEME          iDivisorNMEA    -0.90000     
2.13367         MSG_UDP              iDivisorNMEA    $MXPGN,01FA06,681C,8300A800C8240FC0*16
 
2.14393         MSG_UDP              iDivisorNMEA    $MXPGN,01FA06,681C,008400A7EE5000C1*11
 
2.15419         MSG_UDP              iDivisorNMEA    $MXPGN,01FA06,681C,FFFFFFFFFF0143C2*6B
 
2.16440         MSG_UDP              iDivisorNMEA    $MXPGN,01F803,281C,0000000000000024*62
 
2.17469         MSG_UDP              iDivisorNMEA    $MXPGN,01F804,281C,000000A573C10024*67
 
2.18500         MSG_UDP              iDivisorNMEA    !AIVDO,1,1,,,B:UOH3P007>VtPLf>avgswhUoP06,0*33
 
2.19519         MSG_UDP              iDivisorNMEA    $HCHDG,284.1,0.0,E,23.3,W*6D
 
2.20548         MSG_UDP              iDivisorNMEA    $GPHDT,260.77,T*01
 
2.21580         MSG_UDP              iDivisorNMEA    $TIROT,0.29,A*00
 
2.22609         MSG_UDP              iDivisorNMEA    $AGRSA,-0.90,A,,V*6B
 
2.22618         ANGULO_LEME          iDivisorNMEA    -0.90000     
2.23637         MSG_UDP              iDivisorNMEA    $MXPGN,00FF19,7808,0000000202009F41*15
 
2.24663         MSG_UDP              iDivisorNMEA    $MXPGN,01F803,281C,0000000000001425*66
 
2.25691         MSG_UDP              iDivisorNMEA    $MXPGN,01F804,281C,000000A573C11425*63
 
2.26715         MSG_UDP              iDivisorNMEA    $MXPGN,00FF19,7808,0080000A0A009F41*1D
 
2.27757         MSG_UDP              iDivisorNMEA    $MXPGN,00FF00,280B,0002000005049913*19
 
2.28781         MSG_UDP              iDivisorNMEA    $HCHDG,284.1,0.0,E,23.3,W*6D
 
2.29805         MSG_UDP              iDivisorNMEA    $GPHDT,260.78,T*0E
 
2.30834         MSG_UDP              iDivisorNMEA    $TIROT,0.49,A*06
 
2.31856         MSG_UDP              iDivisorNMEA    $MXPGN,00FF8C,6808,FFF10695C9409F41*64
 
2.32873         MSG_UDP              iDivisorNMEA    $MXPGN,00FF28,3808,FF08FFFDFC059F41*19
 
2.33906         MSG_UDP              iDivisorNMEA    !AIVDM,1,1,,A,1:U8U8PP13LrLG=jqs5aH?wp0PSP,0*08
 
2.34940         MSG_UDP              iDivisorNMEA    $AGRSA,-0.90,A,,V*6B
 
2.34942         ANGULO_LEME          iDivisorNMEA    -0.90000     
2.35952         MSG_UDP              iDivisorNMEA    $MXPGN,01F803,281C,0000000000002826*6A
 
2.36977         MSG_UDP              iDivisorNMEA    $MXPGN,01F804,281C,000000AA7BC12826*6A
 
2.38003         MSG_UDP              iDivisorNMEA    !AIVDM,1,1,,A,16:>J;?P00LrE9ajr;4mW?w605a0,0*1F
 
2.39027         MSG_UDP              iDivisorNMEA    $HCHDG,284.1,0.0,E,23.3,W*6D
 
2.40050         MSG_UDP              iDivisorNMEA    $GPHDT,260.78,T*0E
 
2.41075         MSG_UDP              iDivisorNMEA    $TIROT,0.49,A*06
 
2.42102         MSG_UDP              iDivisorNMEA    $MXPGN,01FF1A,680B,FF022B849F410560*6A
 
2.43128         MSG_UDP              iDivisorNMEA    $MXPGN,01FF1A,782B,FF010B049F410500*66
 
2.44157         MSG_UDP              iDivisorNMEA    $AGRSA,-0.90,A,,V*6B
 
2.44165         ANGULO_LEME          iDivisorNMEA    -0.90000     
2.45191         MSG_UDP              iDivisorNMEA    $MXPGN,01F803,281C,0000000000003C27*11
 
2.46219         MSG_UDP              iDivisorNMEA    $MXPGN,01F804,281C,000000AA7BC13C27*11
 
2.47244         MSG_UDP              iDivisorNMEA    !AIVDM,1,1,,B,1:U6vLPP01trHf=jpdq9Rgw42@D9,0*2C
 
2.48274         MSG_UDP              iDivisorNMEA    $HCHDG,284.1,0.0,E,23.3,W*6D
 
2.49354         MSG_UDP              iDivisorNMEA    $GPHDT,260.79,T*0F
 
2.50380         MSG_UDP              iDivisorNMEA    $TIROT,0.49,A*06
 
2.51400         MSG_UDP              iDivisorNMEA    $MXPGN,00FF3C,3808,8000F8FE00009F41*1C
 
2.52424         MSG_UDP              iDivisorNMEA    $MXPGN,00FF00,280B,0002000005049913*19
 
2.53446         MSG_UDP              iDivisorNMEA    $MXPGN,01FF0D,780B,FF030000989005C0*15
 
2.54488         MSG_UDP              iDivisorNMEA    $AGRSA,-0.90,A,,V*6B
 
2.54510         ANGULO_LEME          iDivisorNMEA    -0.90000     
2.55531         MSG_UDP              iDivisorNMEA    $MXPGN,01F803,281C,0000000000005028*6B
 
2.56569         MSG_UDP              iDivisorNMEA    $MXPGN,01F804,281C,000000AA7BC15028*6B
 
2.57596         MSG_UDP              iDivisorNMEA    $HCHDG,284.1,0.0,E,23.3,W*6D
 
2.58624         MSG_UDP              iDivisorNMEA    $GPHDT,260.80,T*09
 
2.59653         MSG_UDP              iDivisorNMEA    $TIROT,0.49,A*06
 
2.60680         MSG_UDP              iDivisorNMEA    $MXPGN,00FF16,7808,FF0000002B0A9F41*1B
 
2.61706         MSG_UDP              iDivisorNMEA    $GPGGA,,2254.75529,S,04309.53599,W,1,,,,M,,M,,*53
 
2.87970         MSG_UDP              iDivisorNMEA    $HCHDG,284.1,0.0,E,23.3,W*6D
 
2.87987         MSG_UDP              iDivisorNMEA    $GPHDT,260.79,T*0F
 
2.89012         MSG_UDP              iDivisorNMEA    $TIROT,0.19,A*03
 
2.90796         MSG_UDP              iDivisorNMEA    $MXPGN,01FF2C,7808,FFFFFFFF9F4117E0*1E
 
2.91131         MSG_UDP              iDivisorNMEA    $MXPGN,01FF2C,7808,FFFF7FFFFFFF7FE1*63
 
2.92158         MSG_UDP              iDivisorNMEA    $MXPGN,01FF2C,7808,FF7FFFFFFFFFFFE2*11
 
2.93184         MSG_UDP              iDivisorNMEA    $MXPGN,01FF2C,7808,FFFFFFFF7FFFFFE3*10
 
2.94208         MSG_UDP              iDivisorNMEA    $MXPGN,00FF00,280B,0002000005049913*19
 
2.95232         MSG_UDP              iDivisorNMEA    $GPGGA,131634.000,2254.75169,S,04309.53685,W,1,12,0.90,6.55,M,-5.60,M,,*7D
 
2.96256         MSG_UDP              iDivisorNMEA    $GPGLL,2254.75169,S,04309.53685,W,131634.000,A,A*5A
 
2.97291         MSG_UDP              iDivisorNMEA    $GPRMC,131634.000,A,2254.75169,S,04309.53685,W,0.19,0.00,070323,23.30,W,A*1B
 
2.98319         MSG_UDP              iDivisorNMEA    $GPVTG,0.00,T,,M,0.19,N,0.35,K,A*33
 
2.99366         MSG_UDP              iDivisorNMEA    $AGRSA,-0.90,A,,V*6B
 
2.99370         ANGULO_LEME          iDivisorNMEA    -0.90000     
3.00382         MSG_UDP              iDivisorNMEA    $MXPGN,00FF3D,6808,7FFFFF0DFFFF9F41*6E
 
3.01396         MSG_UDP              iDivisorNMEA    $MXPGN,01F803,281C,000000000000A02C*64
 
3.02412         MSG_UDP              iDivisorNMEA    $MXPGN,01F804,281C,000000B6F2C1A02C*11
 
3.03429         MSG_UDP              iDivisorNMEA    $HCHDG,284.1,0.0,E,23.3,W*6D
 
3.04444         MSG_UDP              iDivisorNMEA    $GPHDT,260.79,T*0F
 
3.05480         MSG_UDP              iDivisorNMEA    $TIROT,0.19,A*03
 
3.06524         MSG_UDP              iDivisorNMEA    $GPGSA,A,3,08,10,16,18,26,27,28,31,32,66,65,86,1.60,1.40,1.40*07
 
3.07564         MSG_UDP              iDivisorNMEA    $GPGSV,3,1,12,08,34,229,41,10,44,163,34,16,15,307,38,18,23,080,36*70
 
3.08578         MSG_UDP              iDivisorNMEA    $GPGSV,3,2,12,26,06,343,37,27,63,260,43,28,13,021,41,31,08,012,39*77
 
3.09611         MSG_UDP              iDivisorNMEA    $GPGSV,3,3,12,32,76,048,48,66,08,320,46,65,58,290,37,86,37,061,43*7A
 
3.10637         MSG_UDP              iDivisorNMEA    $MXPGN,01FF06,380B,090001FF99130F00*62
 
3.11661         MSG_UDP              iDivisorNMEA    $MXPGN,01FF06,380B,00001C12FC000001*6B
 
3.12682         MSG_UDP              iDivisorNMEA    $MXPGN,01FF06,380B,FFFFFFFFFFDE6F02*6D
 
3.13703         MSG_UDP              iDivisorNMEA    $GPGSA,A,3,08,10,16,18,21,23,24,26,27,,,,1.88,1.60,1.60*01
 
3.14730         MSG_UDP              iDivisorNMEA    $GPGSV,3,1,09,08,33,228,43,10,44,163,44,16,15,306,40,18,23,080,45*73
 
3.15757         MSG_UDP              iDivisorNMEA    $GPGSV,3,2,09,21,03,228,00,23,20,133,00,24,01,124,00,26,05,342,36*7A
 
3.16803         MSG_UDP              iDivisorNMEA    $GPGSV,3,3,09,27,63,260,50*41
 
3.17833         MSG_UDP              iDivisorNMEA    $GPGGA,131634.900,2254.75309,S,04309.53839,W,1,09,1.60,0.98,M,-5.00,M,,*7C
 
3.18867         MSG_UDP              iDivisorNMEA    $GPGLL,2254.75309,S,04309.53839,W,131634.900,A,A*5E
 
3.19893         MSG_UDP              iDivisorNMEA    $GPRMC,131634.900,A,2254.75309,S,04309.53839,W,0.01,268.33,070323,23.39,W,A*13
 
3.20925         MSG_UDP              iDivisorNMEA    $GPVTG,268.33,T,,M,0.01,N,0.01,K,A*31
 
3.21952         MSG_UDP              iDivisorNMEA    $AGRSA,-0.90,A,,V*6B
 
3.21962         ANGULO_LEME          iDivisorNMEA    -0.90000     
3.22984         MSG_UDP              iDivisorNMEA    $MXPGN,01FA06,681C,8300A800C82D0FE0*60
 
3.24010         MSG_UDP              iDivisorNMEA    $MXPGN,01FA06,681C,008400A7EE5600E1*11
 
3.25046         MSG_UDP              iDivisorNMEA    $MXPGN,01FA06,681C,FFFFFFFFFF0143E2*6D
 
3.26096         MSG_UDP              iDivisorNMEA    $MXPGN,01F803,281C,000000000000002D*12
 
3.27124         MSG_UDP              iDivisorNMEA    $MXPGN,01F804,281C,000000B6F2C1002D*67
 
3.28155         MSG_UDP              iDivisorNMEA    $HCHDG,284.1,0.0,E,23.3,W*6D
 
3.29186         MSG_UDP              iDivisorNMEA    $GPHDT,260.78,T*0E
 
3.30208         MSG_UDP              iDivisorNMEA    $TIROT,0.19,A*03
 
3.31232         MSG_UDP              iDivisorNMEA    $AGRSA,-0.90,A,,V*6B
 
3.31238         ANGULO_LEME          iDivisorNMEA    -0.90000     
3.32256         MSG_UDP              iDivisorNMEA    $MXPGN,00FF19,7808,0000000202009F41*15
 
3.33276         MSG_UDP              iDivisorNMEA    $MXPGN,01F803,281C,000000000000142E*16
 
3.34296         MSG_UDP              iDivisorNMEA    $MXPGN,01F804,281C,0000002592C1142E*6F
 
3.35321         MSG_UDP              iDivisorNMEA    $MXPGN,00FF19,7808,0080000A0A009F41*1D
 
3.36344         MSG_UDP              iDivisorNMEA    $MXPGN,00FF00,280B,0002000005049913*19
 
3.37369         MSG_UDP              iDivisorNMEA    $HCHDG,284.1,0.0,E,23.3,W*6D
 
3.38395         MSG_UDP              iDivisorNMEA    $GPHDT,260.78,T*0E
 
3.39422         MSG_UDP              iDivisorNMEA    $TIROT,0.00,A*0B
 
3.40445         MSG_UDP              iDivisorNMEA    $MXPGN,00FF8C,6808,FFF10695C9409F41*64
 
3.41472         MSG_UDP              iDivisorNMEA    $MXPGN,00FF28,3808,FF08FFFDFC059F41*19
 
3.42498         MSG_UDP              iDivisorNMEA    $AGRSA,-0.90,A,,V*6B
 
3.42504         ANGULO_LEME          iDivisorNMEA    -0.90000     
3.43526         MSG_UDP              iDivisorNMEA    $MXPGN,01F803,281C,000000000000142E*16
 
3.44548         MSG_UDP              iDivisorNMEA    $MXPGN,01F804,281C,0000002592C1142E*6F
 
3.45578         MSG_UDP              iDivisorNMEA    $MXPGN,01FF06,380B,800001FF99130F20*61
 
3.46600         MSG_UDP              iDivisorNMEA    $MXPGN,01FF06,380B,00000E12FC000021*6E
 
3.47624         MSG_UDP              iDivisorNMEA    $MXPGN,01FF06,380B,FFFFFFFFFFA27C22*19
 
3.48644         MSG_UDP              iDivisorNMEA    $HCHDG,284.1,0.0,E,23.3,W*6D
 
3.49708         MSG_UDP              iDivisorNMEA    $GPHDT,260.78,T*0E
 
3.50737         MSG_UDP              iDivisorNMEA    $TIROT,0.00,A*0B
 
3.51761         MSG_UDP              iDivisorNMEA    $MXPGN,01FF1A,680B,FF022B849F410580*64
 
3.77405         MSG_UDP              iDivisorNMEA    $MXPGN,01FF06,380B,801101FF99130F60*65
 
3.77496         MSG_UDP              iDivisorNMEA    $MXPGN,01FF06,380B,0001B112FC000061*6D
 
3.78520         MSG_UDP              iDivisorNMEA    $MXPGN,01FF06,380B,FFFFFFFFFFBE8E62*60
 
3.79539         MSG_UDP              iDivisorNMEA    $HCHDG,284.0,0.0,E,23.3,W*6C
 
3.80567         MSG_UDP              iDivisorNMEA    $GPHDT,260.74,T*02
 
3.81595         MSG_UDP              iDivisorNMEA    $TIROT,-0.39,A*2C
 
3.82999         MSG_UDP              iDivisorNMEA    $AGRSA,-0.90,A,,V*6B
 
3.83007         ANGULO_LEME          iDivisorNMEA    -0.90000     
3.83721         MSG_UDP              iDivisorNMEA    $SDDPT,1.77,0.00,*7A
 
3.84741         MSG_UDP              iDivisorNMEA    $MXPGN,01F803,281C,000000000000C837*1B
 
3.85758         MSG_UDP              iDivisorNMEA    $MXPGN,01F804,281C,0000008E90C1C837*1A
 
3.88011         MSG_UDP              iDivisorNMEA    $HCHDG,284.0,0.0,E,23.3,W*6C
 
3.88024         MSG_UDP              iDivisorNMEA    $GPHDT,260.74,T*02
 
3.89047         MSG_UDP              iDivisorNMEA    $TIROT,-0.39,A*2C
 
3.90820         MSG_UDP              iDivisorNMEA    $MXPGN,01FF2C,7808,FFFFFFFF9F411700*6B
 
3.91145         MSG_UDP              iDivisorNMEA    $MXPGN,01FF2C,7808,FFFF7FFFFFFF7F01*16
 
3.92167         MSG_UDP              iDivisorNMEA    $MXPGN,01FF2C,7808,FF7FFFFFFFFFFF02*64
 
3.93196         MSG_UDP              iDivisorNMEA    $MXPGN,01FF2C,7808,FFFFFFFF7FFFFF03*65
 
3.94222         MSG_UDP              iDivisorNMEA    $MXPGN,00FF00,280B,0002000005049913*19
 
3.95263         MSG_UDP              iDivisorNMEA    $GPGGA,131635.000,2254.75178,S,04309.53694,W,1,12,0.90,6.61,M,-5.60,M,,*7B
 
3.96303         MSG_UDP              iDivisorNMEA    $GPGLL,2254.75178,S,04309.53694,W,131635.000,A,A*5B
 
3.97332         MSG_UDP              iDivisorNMEA    $GPRMC,131635.000,A,2254.75178,S,04309.53694,W,0.09,0.00,070323,23.30,W,A*1B
 
3.98360         MSG_UDP              iDivisorNMEA    $GPVTG,0.00,T,,M,0.09,N,0.16,K,A*33
 
3.99406         MSG_UDP              iDivisorNMEA    $AGRSA,-0.90,A,,V*6B
 
3.99415         ANGULO_LEME          iDivisorNMEA    -0.90000     
4.00480         MSG_UDP              iDivisorNMEA    $MXPGN,00FF3D,6808,7FFFFF0DFFFF9F41*6E
 
4.01501         MSG_UDP              iDivisorNMEA    $MXPGN,01F803,281C,000000000000C837*1B
 
4.02524         MSG_UDP              iDivisorNMEA    $MXPGN,01F804,281C,0000008E90C1C837*1A
 
4.03545         MSG_UDP              iDivisorNMEA    $HCHDG,284.1,0.0,E,23.3,W*6D
 
4.04571         MSG_UDP              iDivisorNMEA    $GPHDT,260.75,T*03
 
4.05596         MSG_UDP              iDivisorNMEA    $TIROT,-0.29,A*2D
 
4.06622         MSG_UDP              iDivisorNMEA    $GPGSA,A,3,08,10,16,18,26,27,28,31,32,66,65,86,1.60,1.40,1.40*07
 
4.07655         MSG_UDP              iDivisorNMEA    $GPGSV,3,1,12,08,34,229,41,10,44,163,35,16,15,307,38,18,23,080,37*70
 
4.08686         MSG_UDP              iDivisorNMEA    $GPGSV,3,2,12,26,06,343,37,27,63,260,43,28,13,021,42,31,08,012,39*74
 
4.09717         MSG_UDP              iDivisorNMEA    $GPGSV,3,3,12,32,76,048,48,66,08,320,46,65,58,290,37,86,37,061,43*7A
 
4.10748         MSG_UDP              iDivisorNMEA    $MXPGN,01FF06,380B,800401FF99130F80*6F
 
4.11772         MSG_UDP              iDivisorNMEA    $MXPGN,01FF06,380B,0000500200000081*10
 
4.12796         MSG_UDP              iDivisorNMEA    $MXPGN,01FF06,380B,FFFFFFFFFF2E3B82*12
 
4.13813         MSG_UDP              iDivisorNMEA    $GPGSA,A,3,08,10,16,18,21,23,24,26,27,,,,1.88,1.60,1.60*01
 
4.14828         MSG_UDP              iDivisorNMEA    $GPGSV,3,1,09,08,33,228,43,10,44,163,44,16,15,306,40,18,23,080,45*73
 
4.15847         MSG_UDP              iDivisorNMEA    $GPGSV,3,2,09,21,03,227,00,23,20,133,00,24,01,124,00,26,05,342,36*75
 
4.16860         MSG_UDP              iDivisorNMEA    $GPGSV,3,3,09,27,63,260,50*41
 
4.17873         MSG_UDP              iDivisorNMEA    $GPGGA,131636.000,2254.75309,S,04309.53829,W,1,09,1.60,0.98,M,-5.00,M,,*76
 
4.18894         MSG_UDP              iDivisorNMEA    $GPGLL,2254.75309,S,04309.53829,W,131636.000,A,A*54
 
4.19913         MSG_UDP              iDivisorNMEA    $GPRMC,131636.000,A,2254.75309,S,04309.53829,W,0.00,209.10,070323,23.39,W,A*1E
 
4.20929         MSG_UDP              iDivisorNMEA    $GPVTG,209.10,T,,M,0.00,N,0.00,K,A*37
 
4.21945         MSG_UDP              iDivisorNMEA    $AGRSA,-0.90,A,,V*6B
 
4.21947         ANGULO_LEME          iDivisorNMEA    -0.90000     
4.22960         MSG_UDP              iDivisorNMEA    $MXPGN,01FA06,681C,8300A800C8380F00*68
 
4.23977         MSG_UDP              iDivisorNMEA    $MXPGN,01FA06,681C,008400A7EE560001*64
 
4.24992         MSG_UDP              iDivisorNMEA    $MXPGN,01FA06,681C,FFFFFFFFFF014302*18
 
4.26008         MSG_UDP              iDivisorNMEA    $MXPGN,01F803,281C,0000000000000038*6F
 
4.27027         MSG_UDP              iDivisorNMEA    $MXPGN,01F804,281C,0000004294C10038*11
 
4.28043         MSG_UDP              iDivisorNMEA    $HCHDG,284.1,0.0,E,23.3,W*6D
 
4.29060         MSG_UDP              iDivisorNMEA    $GPHDT,260.75,T*03
 
4.30078         MSG_UDP              iDivisorNMEA    $TIROT,-0.29,A*2D
 
4.31094         MSG_UDP              iDivisorNMEA    !AIVDO,1,1,,,B:UOH3P00W>VtQLf>b2gswj5oP06,0*77
 
4.32109         MSG_UDP              iDivisorNMEA    $AGRSA,-0.90,A,,V*6B
 
4.32112         ANGULO_LEME          iDivisorNMEA    -0.90000     
4.33128         MSG_UDP              iDivisorNMEA    $MXPGN,00FF19,7808,0000000202009F41*15
 
4.34146         MSG_UDP              iDivisorNMEA    $MXPGN,01F803,281C,0000000000001439*6B
 
4.35162         MSG_UDP              iDivisorNMEA    $MXPGN,01F804,281C,0000004294C11439*15
 
4.36175         MSG_UDP              iDivisorNMEA    $MXPGN,00FF19,7808,0080000A0A009F41*1D
 
4.37192         MSG_UDP              iDivisorNMEA    $MXPGN,00FF00,280B,0002000005049913*19
 
4.38208         MSG_UDP              iDivisorNMEA    $HCHDG,284.0,0.0,E,23.3,W*6C
 
4.39223         MSG_UDP              iDivisorNMEA    $GPHDT,260.73,T*05
 
4.40238         MSG_UDP              iDivisorNMEA    $TIROT,-0.39,A*2C
 
4.41250         MSG_UDP              iDivisorNMEA    !AIVDM,1,1,,A,1:U8vhSwP0LrNMejsGqHu1qp0t2E,0*53
 
4.67450         MSG_UDP              iDivisorNMEA    $MXPGN,00FF00,280B,0002000005049913*19
 
4.68061         MSG_UDP              iDivisorNMEA    $HCHDG,284.0,0.0,E,23.3,W*6C
 
4.68513         MSG_UDP              iDivisorNMEA    $GPHDT,260.72,T*04
 
4.69542         MSG_UDP              iDivisorNMEA    $TIROT,-0.29,A*2D
 
4.73045         MSG_UDP              iDivisorNMEA    $AGRSA,-0.90,A,,V*6B
 
4.73052         ANGULO_LEME          iDivisorNMEA    -0.90000     
4.73854         MSG_UDP              iDivisorNMEA    $MXPGN,01F803,281C,FFFDA80000008C3F*11
 
4.74081         MSG_UDP              iDivisorNMEA    $MXPGN,01F804,281C,0000002D51C18C3F*6D
 
4.78058         MSG_UDP              iDivisorNMEA    $HCHDG,284.0,0.0,E,23.3,W*6C
 
4.78070         MSG_UDP              iDivisorNMEA    $GPHDT,260.72,T*04
 
4.79095         MSG_UDP              iDivisorNMEA    $TIROT,-0.29,A*2D
 
4.83066         MSG_UDP              iDivisorNMEA    $AGRSA,-0.90,A,,V*6B
 
4.83077         ANGULO_LEME          iDivisorNMEA    -0.90000     
4.83082         MSG_UDP              iDivisorNMEA    $SDDPT,1.79,0.00,*74
 
4.84107         MSG_UDP              iDivisorNMEA    $MXPGN,01F803,281C,FFFDA80000008C3F*11
 
4.85129         MSG_UDP              iDivisorNMEA    $MXPGN,01F804,281C,0000002D51C18C3F*6D
 
4.88065         MSG_UDP              iDivisorNMEA    $MXPGN,01FF1A,782B,FFFAFF859F410560*1D
 
4.88072         MSG_UDP              iDivisorNMEA    $HCHDG,284.0,0.0,E,23.3,W*6C
 
4.89088         MSG_UDP              iDivisorNMEA    $GPHDT,260.71,T*07
 
4.90103         MSG_UDP              iDivisorNMEA    $TIROT,-0.49,A*2B
 
4.91119         MSG_UDP              iDivisorNMEA    $MXPGN,00EA06,630B,00EE00*15
 
4.92137         MSG_UDP              iDivisorNMEA    $MXPGN,01FF2C,7808,FFFFFFFF9F411720*69
 
4.93158         MSG_UDP              iDivisorNMEA    $MXPGN,01FF2C,7808,FFFF7FFFFFFF7F21*14
 
4.94171         MSG_UDP              iDivisorNMEA    $MXPGN,01FF2C,7808,FF7FFFFFFFFFFF22*66
 
4.95190         MSG_UDP              iDivisorNMEA    $MXPGN,01FF2C,7808,FFFFFFFF7FFFFF23*67
 
4.96207         MSG_UDP              iDivisorNMEA    $PSMDNC,R,C0508C00E8388F9B,6*31
 
4.97226         MSG_UDP              iDivisorNMEA    $MXPGN,00FF00,280B,0002000005049913*19
 
4.98246         MSG_UDP              iDivisorNMEA    $GPGGA,131636.000,2254.75184,S,04309.53694,W,1,12,0.90,6.55,M,-5.60,M,,*7C
 
4.99264         MSG_UDP              iDivisorNMEA    $GPGLL,2254.75184,S,04309.53694,W,131636.000,A,A*5B
 
5.00281         MSG_UDP              iDivisorNMEA    $GPRMC,131636.000,A,2254.75184,S,04309.53694,W,0.19,86.49,070323,23.30,W,A*29
 
5.01296         MSG_UDP              iDivisorNMEA    $GPVTG,86.49,T,,M,0.19,N,0.35,K,A*00
 
5.02313         MSG_UDP              iDivisorNMEA    $AGRSA,-0.90,A,,V*6B
 
5.02317         ANGULO_LEME          iDivisorNMEA    -0.90000     
5.03331         MSG_UDP              iDivisorNMEA    $MXPGN,00FF3D,6808,7FFFFF0DFFFF9F41*6E
 
5.04350         MSG_UDP              iDivisorNMEA    $MXPGN,01F803,281C,FFFDA8000000B441*6C
 
5.05364         MSG_UDP              iDivisorNMEA    $MXPGN,01F804,281C,0000002D51C1B441*10
 
5.06381         MSG_UDP              iDivisorNMEA    $MXPGN,01FF1A,782B,FF010B049F410560*60
 
5.07401         MSG_UDP              iDivisorNMEA    $HCHDG,284.0,0.0,E,23.3,W*6C
 
5.08421         MSG_UDP              iDivisorNMEA    $GPHDT,260.72,T*04
 
5.09440         MSG_UDP              iDivisorNMEA    $TIROT,-0.59,A*2A
 
5.10459         MSG_UDP              iDivisorNMEA    $GPGSA,A,3,08,10,16,18,26,27,28,31,32,66,65,86,1.60,1.40,1.40*07
 
5.11475         MSG_UDP              iDivisorNMEA    $GPGSV,3,1,12,08,34,229,41,10,44,163,35,16,15,307,38,18,23,080,37*70
 
5.12487         MSG_UDP              iDivisorNMEA    $GPGSV,3,2,12,26,06,343,37,27,63,260,43,28,13,021,42,31,08,012,39*74
 
5.13507         MSG_UDP              iDivisorNMEA    $GPGSV,3,3,12,32,76,048,48,66,08,320,46,65,58,290,37,86,37,061,43*7A
 
5.14527         MSG_UDP              iDivisorNMEA    $MXPGN,00EA00,630B,00EE00*13
 
5.15540         MSG_UDP              iDivisorNMEA    $MXPGN,00EA01,630B,00EE00*12
 
5.16562         MSG_UDP              iDivisorNMEA    $GPGSA,A,3,08,10,16,18,21,23,24,26,27,,,,1.88,1.60,1.60*01
 
5.17582         MSG_UDP              iDivisorNMEA    $GPGSV,3,1,09,08,33,228,43,10,44,163,44,16,15,306,41,18,23,080,45*72
 
5.18632         MSG_UDP              iDivisorNMEA    $GPGSV,3,2,09,21,03,227,00,23,20,133,00,24,01,124,00,26,05,342,36*75
 
5.19654         MSG_UDP              iDivisorNMEA    $GPGSV,3,3,09,27,63,260,50*41
 
5.20673         MSG_UDP              iDivisorNMEA    $GPGGA,131637.000,2254.75309,S,04309.53839,W,1,09,1.60,0.98,M,-5.00,M,,*76
 
5.21695         MSG_UDP              iDivisorNMEA    $GPGLL,2254.75309,S,04309.53839,W,131637.000,A,A*54
 
5.22713         MSG_UDP              iDivisorNMEA    $GPRMC,131637.000,A,2254.75309,S,04309.53839,W,0.03,66.46,070323,23.39,W,A*25
 
5.23729         MSG_UDP              iDivisorNMEA    $GPVTG,66.46,T,,M,0.03,N,0.05,K,A*09
 
5.24749         MSG_UDP              iDivisorNMEA    $AGRSA,-0.90,A,,V*6B
 
5.24754         ANGULO_LEME          iDivisorNMEA    -0.90000     
5.25767         MSG_UDP              iDivisorNMEA    $MXPGN,01FA06,681C,8300A800C8420F20*67
 
5.26786         MSG_UDP              iDivisorNMEA    $MXPGN,01FA06,681C,008400A7EE560021*66
 
5.27805         MSG_UDP              iDivisorNMEA    $MXPGN,01FA06,681C,FFFFFFFFFF014322*1A
 
5.28821         MSG_UDP              iDivisorNMEA    $MXPGN,01F803,281C,0000000000000042*62
 
5.29840         MSG_UDP              iDivisorNMEA    $MXPGN,01F804,281C,00000054A7C10042*60
 
5.30861         MSG_UDP              iDivisorNMEA    $MXPGN,00EA02,630B,00EE00*11
 
5.31886         MSG_UDP              iDivisorNMEA    $MXPGN,01FF1A,680B,FF022B849F410500*6C
 
5.32908         MSG_UDP              iDivisorNMEA    $MXPGN,01FF1A,782B,FF010B049F410580*6E
 
5.33929         MSG_UDP              iDivisorNMEA    $HCHDG,284.0,0.0,E,23.3,W*6C
 
5.34949         MSG_UDP              iDivisorNMEA    $GPHDT,260.72,T*04
 
5.35966         MSG_UDP              iDivisorNMEA    $TIROT,-0.59,A*2A
 
5.36979         MSG_UDP              iDivisorNMEA    $MXPGN,00EA03,630B,00EE00*10
 
5.58079         MSG_UDP              iDivisorNMEA    $HCHDG,284.0,0.0,E,23.3,W*6C
 
5.58094         MSG_UDP              iDivisorNMEA    $GPHDT,260.71,T*07
 
5.59108         MSG_UDP              iDivisorNMEA    $TIROT,-0.99,A*26
 
5.63084         MSG_UDP              iDivisorNMEA    $AGRSA,-0.90,A,,V*6B
 
5.63089         ANGULO_LEME          iDivisorNMEA    -0.90000     
5.63090         MSG_UDP              iDivisorNMEA    $GPZDA,131636.810,07,03,2023,,*58
 
5.64110         MSG_UDP              iDivisorNMEA    $MXPGN,01F803,281C,0000000000008C49*12
 
5.65127         MSG_UDP              iDivisorNMEA    $MXPGN,01F804,281C,00000090E7C18C49*1C
 
5.66140         MSG_UDP              iDivisorNMEA    $MXPGN,01FF06,380B,080001FF99130F00*63
 
5.67159         MSG_UDP              iDivisorNMEA    $MXPGN,01FF06,380B,000B7A0202850501*13
 
5.68183         MSG_UDP              iDivisorNMEA    $MXPGN,01FF06,380B,FFFFFFFFFF467802*11
 
5.69224         MSG_UDP              iDivisorNMEA    $HCHDG,284.0,0.0,E,23.3,W*6C
 
5.70245         MSG_UDP              iDivisorNMEA    $GPHDT,260.72,T*04
 
5.71264         MSG_UDP              iDivisorNMEA    $TIROT,-0.99,A*26
 
5.72286         MSG_UDP              iDivisorNMEA    $MXPGN,00FF00,280B,0002000005049913*19
 
5.73302         MSG_UDP              iDivisorNMEA    $AGRSA,-0.90,A,,V*6B
 
5.73304         ANGULO_LEME          iDivisorNMEA    -0.90000     
5.74319         MSG_UDP              iDivisorNMEA    $MXPGN,01F803,281C,0000000000008C49*12
 
5.75335         MSG_UDP              iDivisorNMEA    $MXPGN,01F804,281C,0000005163C18C49*66
 
5.78099         MSG_UDP              iDivisorNMEA    $HCHDG,284.0,0.0,E,23.3,W*6C
 
5.78105         MSG_UDP              iDivisorNMEA    $GPHDT,260.71,T*07
 
5.79123         MSG_UDP              iDivisorNMEA    $TIROT,-0.79,A*28
 
5.80141         MSG_UDP              iDivisorNMEA    !AIVDM,1,1,,B,1:U8JFPP0fLrHLejqBJjo?w<0L2B,0*28
 
5.83092         MSG_UDP              iDivisorNMEA    $AGRSA,-0.84,A,,V*6E
 
5.83098         ANGULO_LEME          iDivisorNMEA    -0.84000     
5.83099         MSG_UDP              iDivisorNMEA    $SDDPT,1.79,0.00,*74
 
5.84115         MSG_UDP              iDivisorNMEA    $MXPGN,01F803,281C,000000000000B44B*64
 
5.85135         MSG_UDP              iDivisorNMEA    $MXPGN,01F804,281C,0000005163C1B44B*10
 
5.88108         MSG_UDP              iDivisorNMEA    $HCHDG,284.0,0.0,E,23.3,W*6C
 
5.88114         MSG_UDP              iDivisorNMEA    $GPHDT,260.72,T*04
 
5.89132         MSG_UDP              iDivisorNMEA    $TIROT,-0.79,A*28
 
5.90897         MSG_UDP              iDivisorNMEA    $MXPGN,01FF2C,7808,FFFFFFFF9F411740*6F
 
5.91214         MSG_UDP              iDivisorNMEA    $MXPGN,01FF2C,7808,FFFF7FFFFFFF7F41*12
 
5.92228         MSG_UDP              iDivisorNMEA    $MXPGN,01FF2C,7808,FF7FFFFFFFFFFF42*60
 
5.93240         MSG_UDP              iDivisorNMEA    $MXPGN,01FF2C,7808,FFFFFFFF7FFFFF43*61
 
5.94252         MSG_UDP              iDivisorNMEA    $AGRSA,-0.84,A,,V*6E
 
5.94255         ANGULO_LEME          iDivisorNMEA    -0.84000     
5.95266         MSG_UDP              iDivisorNMEA    $MXPGN,01FF06,380B,030001FF99130F20*6A
 
5.96280         MSG_UDP              iDivisorNMEA    $MXPGN,01FF06,380B,00007C02000D0021*1F
 
5.97294         MSG_UDP              iDivisorNMEA    $MXPGN,00FF3D,6808,7FFFFF0DFFFF9F41*6E
 
5.98305         MSG_UDP              iDivisorNMEA    $MXPGN,01FF06,380B,FFFFFFFFFF31DA22*19
 
5.99319         MSG_UDP              iDivisorNMEA    $MXPGN,01F803,281C,000000000000B44B*64
 
6.00335         MSG_UDP              iDivisorNMEA    $MXPGN,01F804,281C,0000005163C1B44B*10
 
6.01346         MSG_UDP              iDivisorNMEA    $MXPGN,00FF3D,6808,0000FF0BFFFF9F41*19
 
6.02363         MSG_UDP              iDivisorNMEA    $GPGGA,131637.000,2254.75201,S,04309.53700,W,1,12,1.40,6.55,M,-5.60,M,,*73
 
6.03379         MSG_UDP              iDivisorNMEA    $GPGLL,2254.75201,S,04309.53700,W,131637.000,A,A*58
 
6.04393         MSG_UDP              iDivisorNMEA    $GPRMC,131637.000,A,2254.75201,S,04309.53700,W,0.09,0.00,070323,23.30,W,A*18
 
6.05410         MSG_UDP              iDivisorNMEA    $GPVTG,0.00,T,,M,0.09,N,0.16,K,A*33
 
6.06423         MSG_UDP              iDivisorNMEA    $HCHDG,284.0,0.0,E,23.3,W*6C
 
6.07441         MSG_UDP              iDivisorNMEA    $GPHDT,260.73,T*05
 
6.08457         MSG_UDP              iDivisorNMEA    $TIROT,-0.79,A*28
 
6.09477         MSG_UDP              iDivisorNMEA    $MXPGN,00FF3D,6808,FFFFFF0CFFFF9F41*18
 
6.10494         MSG_UDP              iDivisorNMEA    $MXPGN,00FF3D,6808,FFFFFF03FFFF9F41*68
 
6.11513         MSG_UDP              iDivisorNMEA    $GPGSA,A,3,08,10,16,18,26,27,28,31,32,66,65,86,1.60,1.40,1.40*07
 
6.12528         MSG_UDP              iDivisorNMEA    $GPGSV,3,1,12,08,34,229,41,10,44,163,34,16,15,307,38,18,23,080,37*71
 
6.13542         MSG_UDP              iDivisorNMEA    $GPGSV,3,2,12,26,05,343,37,27,63,260,43,28,13,021,42,31,08,012,39*77
 
6.14554         MSG_UDP              iDivisorNMEA    $GPGSV,3,3,12,32,76,048,48,66,08,320,46,65,58,290,37,86,37,061,43*7A
 
6.15567         MSG_UDP              iDivisorNMEA    $MXPGN,00FF00,280B,0002000005049913*19
 
6.16580         MSG_UDP              iDivisorNMEA    $GPGGA,131638.000,2254.75309,S,04309.53839,W,1,09,1.60,0.98,M,-5.00,M,,*79
 
6.17597         MSG_UDP              iDivisorNMEA    $GPGLL,2254.75309,S,04309.53839,W,131638.000,A,A*5B
 
6.18613         MSG_UDP              iDivisorNMEA    $GPRMC,131638.000,A,2254.75309,S,04309.53839,W,0.01,119.37,070323,23.39,W,A*17
 
6.19678         MSG_UDP              iDivisorNMEA    $GPVTG,119.37,T,,M,0.01,N,0.01,K,A*30
 
6.20692         MSG_UDP              iDivisorNMEA    $AGRSA,-0.90,A,,V*6B
 
6.20694         ANGULO_LEME          iDivisorNMEA    -0.90000     
6.21704         MSG_UDP              iDivisorNMEA    $GPGSA,A,3,08,10,16,18,21,23,24,26,27,,,,1.88,1.60,1.60*01
 
6.22718         MSG_UDP              iDivisorNMEA    $GPGSV,3,1,09,08,33,228,43,10,44,163,44,16,15,306,40,18,23,080,45*73
 
6.23732         MSG_UDP              iDivisorNMEA    $GPGSV,3,2,09,21,03,227,00,23,20,133,00,24,01,124,00,26,05,342,36*75
 
6.24746         MSG_UDP              iDivisorNMEA    $GPGSV,3,3,09,27,63,260,50*41
 
6.25761         MSG_UDP              iDivisorNMEA    $MXPGN,01FA06,681C,8300A900C84C0F40*11
 
6.45835         MSG_UDP              iDivisorNMEA    $MXPGN,00FF00,280B,0002000005049913*19
 
6.48135         MSG_UDP              iDivisorNMEA    $HCHDG,284.0,0.0,E,23.3,W*6C
 
6.48141         MSG_UDP              iDivisorNMEA    $GPHDT,260.73,T*05
 
6.49158         MSG_UDP              iDivisorNMEA    $TIROT,-0.69,A*29
 
6.50172         MSG_UDP              iDivisorNMEA    !AIVDM,1,1,,A,3:U8l=PP0oLrGiAjqhskbBk80PpP,0*45
 
6.51191         MSG_UDP              iDivisorNMEA    $MXPGN,00FF16,7808,FF0000002B0A9F41*1B
 
6.53219         MSG_UDP              iDivisorNMEA    $GPGGA,,2254.75489,S,04309.53569,W,1,,,,M,,M,,*57
 
6.53346         MSG_UDP              iDivisorNMEA    $GPGLL,2254.75489,S,04309.53569,W,,A,A*4C
 
6.54264         MSG_UDP              iDivisorNMEA    $GPVTG,281.40,T,,M,0.20,N,0.37,K,A*34
 
6.55278         MSG_UDP              iDivisorNMEA    $AGRSA,-0.84,A,,V*6E
 
6.55282         ANGULO_LEME          iDivisorNMEA    -0.84000     
6.56294         MSG_UDP              iDivisorNMEA    $MXPGN,01F803,281C,0000000000006451*62
 
6.57308         MSG_UDP              iDivisorNMEA    $MXPGN,01F804,281C,000000609BC16451*6A
 
6.58321         MSG_UDP              iDivisorNMEA    $HCHDG,284.0,0.0,E,23.3,W*6C
 
6.59336         MSG_UDP              iDivisorNMEA    $GPHDT,260.73,T*05
 
6.60349         MSG_UDP              iDivisorNMEA    $TIROT,-0.69,A*29
 
6.63122         MSG_UDP              iDivisorNMEA    $AGRSA,-0.90,A,,V*6B
 
6.63128         ANGULO_LEME          iDivisorNMEA    -0.90000     
6.63155         MSG_UDP              iDivisorNMEA    $GPZDA,131637.800,07,03,2023,,*58
 
6.64165         MSG_UDP              iDivisorNMEA    $MXPGN,01F803,281C,0000000000008C53*19
 
6.65176         MSG_UDP              iDivisorNMEA    $MXPGN,01F804,281C,000000609BC18C53*11
 
6.66189         MSG_UDP              iDivisorNMEA    $MXPGN,01FF1A,680B,FF022B849F410520*6E
 
6.67206         MSG_UDP              iDivisorNMEA    $MXPGN,01FF1A,782B,FF010B049F410540*62
 
6.68233         MSG_UDP              iDivisorNMEA    $HCHDG,284.0,0.0,E,23.3,W*6C
 
6.69251         MSG_UDP              iDivisorNMEA    $GPHDT,260.74,T*02
 
6.70289         MSG_UDP              iDivisorNMEA    $TIROT,-0.69,A*29
 
6.71306         MSG_UDP              iDivisorNMEA    $MXPGN,01FF06,380B,060001FF99130F80*65
 
6.72335         MSG_UDP              iDivisorNMEA    $MXPGN,01FF06,380B,0001B502002D0181*14
 
6.73362         MSG_UDP              iDivisorNMEA    $MXPGN,01FF06,380B,FFFFFFFFFFF53C82*17
 
6.74387         MSG_UDP              iDivisorNMEA    $MXPGN,00FF00,280B,0002000005049913*19
 
6.75405         MSG_UDP              iDivisorNMEA    $AGRSA,-0.90,A,,V*6B
 
6.75411         ANGULO_LEME          iDivisorNMEA    -0.90000     
6.76427         MSG_UDP              iDivisorNMEA    $MXPGN,01F803,281C,0000000000008C53*19
 
6.77445         MSG_UDP              iDivisorNMEA    $MXPGN,01F804,281C,000000BC68C18C53*63
 
6.78469         MSG_UDP              iDivisorNMEA    $HCHDG,284.0,0.0,E,23.3,W*6C
 
6.79489         MSG_UDP              iDivisorNMEA    $GPHDT,260.73,T*05
 
6.80510         MSG_UDP              iDivisorNMEA    $TIROT,-0.99,A*26
 
6.83141         MSG_UDP              iDivisorNMEA    $AGRSA,-0.84,A,,V*6E
 
6.83149         ANGULO_LEME          iDivisorNMEA    -0.84000     
6.83154         MSG_UDP              iDivisorNMEA    $SDDPT,1.79,0.00,*74
 
6.84177         MSG_UDP              iDivisorNMEA    $MXPGN,01F803,281C,000000000000B455*12
 
6.85207         MSG_UDP              iDivisorNMEA    $MXPGN,01F804,281C,000000BC68C1B455*68
 
6.88138         MSG_UDP              iDivisorNMEA    $HCHDG,284.0,0.0,E,23.3,W*6C
 
6.88161         MSG_UDP              iDivisorNMEA    $GPHDT,260.74,T*02
 
6.89177         MSG_UDP              iDivisorNMEA    $TIROT,-0.99,A*26
 
6.90937         MSG_UDP              iDivisorNMEA    $MXPGN,01FF2C,7808,FFFFFFFF9F411760*6D
 
6.91253         MSG_UDP              iDivisorNMEA    $MXPGN,01FF2C,7808,FFFF7FFFFFFF7F61*10
 
6.92267         MSG_UDP              iDivisorNMEA    $MXPGN,01FF2C,7808,FF7FFFFFFFFFFF62*62
 
6.93298         MSG_UDP              iDivisorNMEA    $MXPGN,01FF2C,7808,FFFFFFFF7FFFFF63*63
 
6.94329         MSG_UDP              iDivisorNMEA    $AGRSA,-0.84,A,,V*6E
 
6.94330         ANGULO_LEME          iDivisorNMEA    -0.84000     
6.95360         MSG_UDP              iDivisorNMEA    $MXPGN,00FF3D,6808,7FFFFF0DFFFF9F41*6E
 
6.96391         MSG_UDP              iDivisorNMEA    $MXPGN,01F803,281C,000000000000B455*12
 
6.97403         MSG_UDP              iDivisorNMEA    $MXPGN,01F804,281C,000000BC68C1B455*68
 
6.98420         MSG_UDP              iDivisorNMEA    !AIVDM,1,1,,A,1:U8?kPP1:LrJ05jqIl9AOwp0`Fn,0*18
 
6.99442         MSG_UDP              iDivisorNMEA    $GPGGA,131638.000,2254.75195,S,04309.53709,W,1,12,1.40,6.35,M,-5.60,M,,*7D
 
7.00467         MSG_UDP              iDivisorNMEA    $GPGLL,2254.75195,S,04309.53709,W,131638.000,A,A*50
 
7.01499         MSG_UDP              iDivisorNMEA    $GPRMC,131638.000,A,2254.75195,S,04309.53709,W,0.09,0.00,070323,23.30,W,A*10
 
7.02534         MSG_UDP              iDivisorNMEA    $GPVTG,0.00,T,,M,0.09,N,0.16,K,A*33
 
7.03564         MSG_UDP              iDivisorNMEA    $HCHDG,284.1,0.0,E,23.3,W*6D
 
7.04587         MSG_UDP              iDivisorNMEA    $GPHDT,260.75,T*03
 
7.05614         MSG_UDP              iDivisorNMEA    $TIROT,-0.79,A*28
 
7.06640         MSG_UDP              iDivisorNMEA    $GPGSA,A,3,08,10,16,18,26,27,28,31,32,66,65,86,1.60,1.40,1.40*07
 
7.07673         MSG_UDP              iDivisorNMEA    $GPGSV,3,1,12,08,34,229,41,10,44,163,34,16,15,307,38,18,23,080,37*71
 
7.08703         MSG_UDP              iDivisorNMEA    $GPGSV,3,2,12,26,05,343,36,27,63,260,43,28,13,021,42,31,08,012,39*76
 
7.09734         MSG_UDP              iDivisorNMEA    $GPGSV,3,3,12,32,76,048,48,66,08,320,46,65,58,290,37,86,37,061,43*7A
 
7.10763         MSG_UDP              iDivisorNMEA    $MXPGN,00FF00,280B,0002000005049913*19
 
7.11788         MSG_UDP              iDivisorNMEA    !AIVDM,1,1,,B,1:U8RjPP2EtrKsQjqH2k3Ow<2@Fp,0*1A
 
7.12811         MSG_UDP              iDivisorNMEA    $GPGGA,131639.000,2254.75309,S,04309.53839,W,1,09,1.60,0.98,M,-5.00,M,,*78
 
7.38164         MSG_UDP              iDivisorNMEA    $HCHDG,284.1,0.0,E,23.3,W*6D
 
7.38183         MSG_UDP              iDivisorNMEA    $GPHDT,260.78,T*0E
 
7.39259         MSG_UDP              iDivisorNMEA    $TIROT,-0.59,A*2A
 
7.41056         MSG_UDP              iDivisorNMEA    $MXPGN,00FF3C,3808,8000F8FE00009F41*1C
 
7.43057         MSG_UDP              iDivisorNMEA    !AIVDM,1,1,,A,1539a0000wtrLp=jrPk@203>2`G7,0*77
 
7.43146         MSG_UDP              iDivisorNMEA    $AGRSA,-0.84,A,,V*6E
 
7.43155         ANGULO_LEME          iDivisorNMEA    -0.84000     
7.44171         MSG_UDP              iDivisorNMEA    $MXPGN,01FF0D,780B,FF03000098900560*60
 
7.45197         MSG_UDP              iDivisorNMEA    $MXPGN,01F803,281C,000000000000645B*11
 
7.46219         MSG_UDP              iDivisorNMEA    $MXPGN,01F804,281C,00000050C8C1645B*1A
 
7.47250         MSG_UDP              iDivisorNMEA    $MXPGN,00FF00,280B,0002000005049913*19
 
7.48283         MSG_UDP              iDivisorNMEA    !AIVDM,1,1,,A,13a0JR0000LrT4=jrVJ5?qM@0@G9,0*72
 
7.49308         MSG_UDP              iDivisorNMEA    $HCHDG,284.1,0.0,E,23.3,W*6D
 
7.50329         MSG_UDP              iDivisorNMEA    $GPHDT,260.78,T*0E
 
7.51359         MSG_UDP              iDivisorNMEA    $TIROT,-0.59,A*2A
 
7.52387         MSG_UDP              iDivisorNMEA    $MXPGN,00FF16,7808,FF0000002B0A9F41*1B
 
7.53417         MSG_UDP              iDivisorNMEA    $GPGGA,,2254.75489,S,04309.53569,W,1,,,,M,,M,,*57
 
7.54451         MSG_UDP              iDivisorNMEA    $GPGLL,2254.75489,S,04309.53569,W,,A,A*4C
 
7.55493         MSG_UDP              iDivisorNMEA    $GPVTG,281.40,T,,M,0.20,N,0.37,K,A*34
 
7.56524         MSG_UDP              iDivisorNMEA    $AGRSA,-0.84,A,,V*6E
 
7.56530         ANGULO_LEME          iDivisorNMEA    -0.84000     
7.57552         MSG_UDP              iDivisorNMEA    $MXPGN,01F803,281C,000000000000645B*11
 
7.58577         MSG_UDP              iDivisorNMEA    $MXPGN,01F804,281C,0000002DABC1645B*11
 
7.59611         MSG_UDP              iDivisorNMEA    $MXPGN,01FF1A,680B,FF022B849F410540*68
 
7.60640         MSG_UDP              iDivisorNMEA    $MXPGN,01FF1A,782B,FF010B049F410560*60
 
7.61666         MSG_UDP              iDivisorNMEA    $HCHDG,284.1,0.0,E,23.3,W*6D
 
7.62686         MSG_UDP              iDivisorNMEA    $GPHDT,260.78,T*0E
 
7.63713         MSG_UDP              iDivisorNMEA    $TIROT,-0.59,A*2A
 
7.64740         MSG_UDP              iDivisorNMEA    $AGRSA,-0.84,A,,V*6E
 
7.64748         ANGULO_LEME          iDivisorNMEA    -0.84000     
7.65760         MSG_UDP              iDivisorNMEA    $GPZDA,131638.800,07,03,2023,,*57
 
7.66788         MSG_UDP              iDivisorNMEA    $MXPGN,01F803,281C,0000000000008C5D*6E
 
7.67816         MSG_UDP              iDivisorNMEA    $MXPGN,01F804,281C,0000002DABC18C5D*6E
 
7.68840         MSG_UDP              iDivisorNMEA    $HCHDG,284.1,0.0,E,23.3,W*6D
 
7.69871         MSG_UDP              iDivisorNMEA    $GPHDT,260.80,T*09
 
7.70900         MSG_UDP              iDivisorNMEA    $TIROT,-0.59,A*2A
 
7.71930         MSG_UDP              iDivisorNMEA    $MXPGN,00FF00,280B,0002000005049913*19
 
7.73183         MSG_UDP              iDivisorNMEA    $AGRSA,-0.84,A,,V*6E
 
7.73193         ANGULO_LEME          iDivisorNMEA    -0.84000     
7.74016         MSG_UDP              iDivisorNMEA    $MXPGN,01F803,281C,0000000000008C5D*6E
 
7.75043         MSG_UDP              iDivisorNMEA    $MXPGN,01F804,281C,000000DED9C18C5D*67
 
7.78186         MSG_UDP              iDivisorNMEA    $HCHDG,284.1,0.0,E,23.3,W*6D
 
7.78201         MSG_UDP              iDivisorNMEA    $GPHDT,260.80,T*09
 
7.79228         MSG_UDP              iDivisorNMEA    $TIROT,-0.59,A*2A
 
7.83190         MSG_UDP              iDivisorNMEA    $AGRSA,-0.84,A,,V*6E
 
7.83197         ANGULO_LEME          iDivisorNMEA    -0.84000     
7.83203         MSG_UDP              iDivisorNMEA    $SDDPT,1.80,0.00,*72
 
7.84229         MSG_UDP              iDivisorNMEA    $MXPGN,01F803,281C,0000000000008C5D*6E
 
7.85256         MSG_UDP              iDivisorNMEA    $MXPGN,01F804,281C,000000DED9C18C5D*67
 
7.88192         MSG_UDP              iDivisorNMEA    $MXPGN,01FF1A,782B,FFFAFF859F410580*13
 
7.88220         MSG_UDP              iDivisorNMEA    $HCHDG,284.1,0.0,E,23.3,W*6D
 
7.89323         MSG_UDP              iDivisorNMEA    $GPHDT,260.79,T*0F
 
7.90357         MSG_UDP              iDivisorNMEA    $TIROT,-0.19,A*2E
 
7.91384         MSG_UDP              iDivisorNMEA    $MXPGN,01FF2C,7808,FFFFFFFF9F411780*63
 
7.92414         MSG_UDP              iDivisorNMEA    $MXPGN,01FF2C,7808,FFFF7FFFFFFF7F81*1E
 
7.93446         MSG_UDP              iDivisorNMEA    $MXPGN,01FF2C,7808,FF7FFFFFFFFFFF82*6C
 
7.94469         MSG_UDP              iDivisorNMEA    $MXPGN,01FF2C,7808,FFFFFFFF7FFFFF83*6D
 
7.95495         MSG_UDP              iDivisorNMEA    $AGRSA,-0.84,A,,V*6E
 
7.95501         ANGULO_LEME          iDivisorNMEA    -0.84000     
7.96520         MSG_UDP              iDivisorNMEA    $MXPGN,00FF3D,6808,7FFFFF0DFFFF9F41*6E
 
7.97549         MSG_UDP              iDivisorNMEA    $MXPGN,01F803,281C,000000000000B45F*61
 
7.98575         MSG_UDP              iDivisorNMEA    $MXPGN,01F804,281C,000000DED9C1B45F*68
 
7.99599         MSG_UDP              iDivisorNMEA    $GPGGA,131639.000,2254.75183,S,04309.53745,W,1,12,1.40,6.09,M,-5.60,M,,*7C
 
8.00616         MSG_UDP              iDivisorNMEA    $GPGLL,2254.75183,S,04309.53745,W,131639.000,A,A*5E
 
8.01634         MSG_UDP              iDivisorNMEA    $GPRMC,131639.000,A,2254.75183,S,04309.53745,W,0.09,0.00,070323,23.30,W,A*1E
 
8.02652         MSG_UDP              iDivisorNMEA    $GPVTG,0.00,T,,M,0.09,N,0.16,K,A*33
 
8.03671         MSG_UDP              iDivisorNMEA    $HCHDG,284.1,0.0,E,23.3,W*6D
 
8.04692         MSG_UDP              iDivisorNMEA    $GPHDT,260.77,T*01
 
8.05715         MSG_UDP              iDivisorNMEA    $TIROT,-0.39,A*2C
 
8.06744         MSG_UDP              iDivisorNMEA    $GPGSA,A,3,08,10,16,18,26,27,28,31,32,66,65,86,1.60,1.40,1.40*07
 
8.28104         MSG_UDP              iDivisorNMEA    !AIVDM,1,1,,B,1:U7@T0000LrNm1jsQMTVAEB0@GW,0*55
 
8.28216         MSG_UDP              iDivisorNMEA    $HCHDG,284.1,0.0,E,23.3,W*6D
 
8.29146         MSG_UDP              iDivisorNMEA    $GPHDT,260.79,T*0F
 
8.30170         MSG_UDP              iDivisorNMEA    $TIROT,-0.39,A*2C
 
8.31195         MSG_UDP              iDivisorNMEA    $MXPGN,01FF22,2808,FF01FFFF9F410CE0*1E
 
8.32225         MSG_UDP              iDivisorNMEA    $MXPGN,01FF22,2808,FFFF00000A0039E1*6C
 
8.33256         MSG_UDP              iDivisorNMEA    $AGRSA,-0.84,A,,V*6E
 
8.33261         ANGULO_LEME          iDivisorNMEA    -0.84000     
8.34279         MSG_UDP              iDivisorNMEA    $MXPGN,01F803,281C,0000000000003C63*11
 
8.35308         MSG_UDP              iDivisorNMEA    $MXPGN,01F804,281C,000000EC54C13C63*63
 
8.38227         MSG_UDP              iDivisorNMEA    $HCHDG,284.1,0.0,E,23.3,W*6D
 
8.38239         MSG_UDP              iDivisorNMEA    $GPHDT,260.79,T*0F
 
8.39326         MSG_UDP              iDivisorNMEA    $TIROT,-0.49,A*2B
 
8.41114         MSG_UDP              iDivisorNMEA    $MXPGN,00FF3C,3808,8000F8FE00009F41*1C
 
8.43198         MSG_UDP              iDivisorNMEA    $AGRSA,-0.84,A,,V*6E
 
8.43207         ANGULO_LEME          iDivisorNMEA    -0.84000     
8.43502         MSG_UDP              iDivisorNMEA    $MXPGN,01FF0D,780B,FF03000098900580*6E
 
8.44228         MSG_UDP              iDivisorNMEA    $MXPGN,01F803,281C,0000000000006465*65
 
8.45247         MSG_UDP              iDivisorNMEA    $MXPGN,01F804,281C,000000EC54C16465*17
 
8.46271         MSG_UDP              iDivisorNMEA    $MXPGN,00FF00,280B,0002000005049913*19
 
8.48215         MSG_UDP              iDivisorNMEA    $HCHDG,284.1,0.0,E,23.3,W*6D
 
8.48348         MSG_UDP              iDivisorNMEA    $GPHDT,260.80,T*09
 
8.49376         MSG_UDP              iDivisorNMEA    $TIROT,-0.49,A*2B
 
8.51109         MSG_UDP              iDivisorNMEA    $MXPGN,00FF16,7808,FF0000002B0A9F41*1B
 
8.53307         MSG_UDP              iDivisorNMEA    $GPGGA,,2254.75489,S,04309.53559,W,1,,,,M,,M,,*54
 
8.53405         MSG_UDP              iDivisorNMEA    $GPGLL,2254.75489,S,04309.53559,W,,A,A*4F
 
8.54419         MSG_UDP              iDivisorNMEA    $GPVTG,281.40,T,,M,0.10,N,0.18,K,A*3A
 
8.55436         MSG_UDP              iDivisorNMEA    $AGRSA,-0.84,A,,V*6E
 
8.55439         ANGULO_LEME          iDivisorNMEA    -0.84000     
8.56450         MSG_UDP              iDivisorNMEA    $MXPGN,01F803,281C,0000000000006465*65
 
8.57464         MSG_UDP              iDivisorNMEA    $MXPGN,01F804,281C,0000008A1CC16465*1B
 
8.58495         MSG_UDP              iDivisorNMEA    $HCHDG,284.1,0.0,E,23.3,W*6D
 
8.59510         MSG_UDP              iDivisorNMEA    $GPHDT,260.79,T*0F
 
8.60524         MSG_UDP              iDivisorNMEA    $TIROT,-0.49,A*2B
 
8.63219         MSG_UDP              iDivisorNMEA    $AGRSA,-0.90,A,,V*6B
 
8.63227         ANGULO_LEME          iDivisorNMEA    -0.90000     
8.63306         MSG_UDP              iDivisorNMEA    $GPZDA,131639.800,07,03,2023,,*56
 
8.64321         MSG_UDP              iDivisorNMEA    $MXPGN,01FF1A,680B,FF022B849F410560*6A
 
8.65336         MSG_UDP              iDivisorNMEA    $MXPGN,01F803,281C,0000000000008C67*1E
 
8.66352         MSG_UDP              iDivisorNMEA    $MXPGN,01F804,281C,0000008A1CC18C67*60
 
8.67370         MSG_UDP              iDivisorNMEA    $MXPGN,01FF1A,782B,FF010B049F410580*6E
 
8.68404         MSG_UDP              iDivisorNMEA    $HCHDG,284.1,0.0,E,23.3,W*6D
 
8.69428         MSG_UDP              iDivisorNMEA    $GPHDT,260.78,T*0E
 
8.70461         MSG_UDP              iDivisorNMEA    $TIROT,-0.49,A*2B
 
8.71496         MSG_UDP              iDivisorNMEA    $MXPGN,00FF00,280B,0002000005049913*19
 
8.73218         MSG_UDP              iDivisorNMEA    $AGRSA,-0.90,A,,V*6B
 
8.73227         ANGULO_LEME          iDivisorNMEA    -0.90000     
8.73922         MSG_UDP              iDivisorNMEA    $MXPGN,01F803,281C,0000000000008C67*1E
 
8.74650         MSG_UDP              iDivisorNMEA    $MXPGN,01F804,281C,0000005520C18C67*69
 
8.75683         MSG_UDP              iDivisorNMEA    !AIVDM,1,1,,A,1:U8RjPP2GtrKvEjqH7C6?w@2000,0*68
 
8.78227         MSG_UDP              iDivisorNMEA    $HCHDG,284.1,0.0,E,23.3,W*6D
 
8.78249         MSG_UDP              iDivisorNMEA    $GPHDT,260.78,T*0E
 
8.79279         MSG_UDP              iDivisorNMEA    $TIROT,-0.49,A*2B
 
8.83225         MSG_UDP              iDivisorNMEA    $AGRSA,-0.84,A,,V*6E
 
8.83247         ANGULO_LEME          iDivisorNMEA    -0.84000     
8.83253         MSG_UDP              iDivisorNMEA    $SDDPT,1.79,0.00,*74
 
8.84276         MSG_UDP              iDivisorNMEA    $MXPGN,01F803,281C,000000000000A068*1B
 
8.85304         MSG_UDP              iDivisorNMEA    $MXPGN,01F804,281C,0000005520C1A068*6C
 
8.88225         MSG_UDP              iDivisorNMEA    $HCHDG,284.1,0.0,E,23.3,W*6D
 
8.88247         MSG_UDP              iDivisorNMEA    $GPHDT,260.79,T*0F
 
8.89264         MSG_UDP              iDivisorNMEA    $TIROT,-0.49,A*2B
 
8.91040         MSG_UDP              iDivisorNMEA    $MXPGN,01FF2C,7808,FFFFFFFF9F4117A0*1A
 
8.91355         MSG_UDP              iDivisorNMEA    $MXPGN,01FF2C,7808,FFFF7FFFFFFF7FA1*67
 
8.92370         MSG_UDP              iDivisorNMEA    $MXPGN,01FF2C,7808,FF7FFFFFFFFFFFA2*15
 
8.93384         MSG_UDP              iDivisorNMEA    $MXPGN,01FF2C,7808,FFFFFFFF7FFFFFA3*14
 
8.94395         MSG_UDP              iDivisorNMEA    $AGRSA,-0.84,A,,V*6E
 
8.94398         ANGULO_LEME          iDivisorNMEA    -0.84000     
8.95411         MSG_UDP              iDivisorNMEA    $MXPGN,00FF3D,6808,7FFFFF0DFFFF9F41*6E
 
8.96427         MSG_UDP              iDivisorNMEA    $MXPGN,01F803,281C,000000000000A068*1B
 
8.97441         MSG_UDP              iDivisorNMEA    $MXPGN,01F804,281C,0000005520C1A068*6C
 
8.98455         MSG_UDP              iDivisorNMEA    $GPGGA,131640.000,2254.75183,S,04309.53754,W,1,12,1.40,5.89,M,-5.60,M,,*79
 
9.14047         MSG_UDP              iDivisorNMEA    $MXPGN,01F803,281C,000000000000146A*16
 
9.14134         MSG_UDP              iDivisorNMEA    $MXPGN,01F804,281C,0000002012C1146A*62
 
9.16063         MSG_UDP              iDivisorNMEA    $MXPGN,00FF19,7808,0080000A0A009F41*1D
 
9.18257         MSG_UDP              iDivisorNMEA    $HCHDG,284.1,0.0,E,23.3,W*6D
 
9.18339         MSG_UDP              iDivisorNMEA    $GPHDT,260.77,T*01
 
9.19371         MSG_UDP              iDivisorNMEA    $TIROT,-0.69,A*29
 
9.20951         MSG_UDP              iDivisorNMEA    $MXPGN,00FF00,280B,0002000005049913*19
 
9.21471         MSG_UDP              iDivisorNMEA    $MXPGN,00FF8C,6808,FFF10695C9409F41*64
 
9.22488         MSG_UDP              iDivisorNMEA    $MXPGN,00FF28,3808,FF08FFFDFC059F41*19
 
9.23503         MSG_UDP              iDivisorNMEA    $AGRSA,-0.84,A,,V*6E
 
9.23507         ANGULO_LEME          iDivisorNMEA    -0.84000     
9.24520         MSG_UDP              iDivisorNMEA    $MXPGN,01F803,281C,000000000000146A*16
 
