%%%%%%%%%%%%%%%%%%%%%%%%%%%%%%%%%%%%%%%%%%%%%%%%%%%%%%%%%%%
%% LOG FILE:       /home/moos-ivp-douglas/log/teste_7_3_2023_____10_20_13/teste_7_3_2023_____10_20_13.alog
%% FILE OPENED ON  Wed Dec 31 21:00:00 1969
%% LOGSTART           1678195213.017131
%%%%%%%%%%%%%%%%%%%%%%%%%%%%%%%%%%%%%%%%%%%%%%%%%%%%%%%%%%%
-0.03963        MOOS_DEBUG           pHelmIvP        pHelmIvP AllStop: ManualOverride 
-0.03963        DESIRED_SPEED        pHelmIvP        0.00000      
-0.03963        DESIRED_HEADING      pHelmIvP        0.00000      
0.15966         DESIRED_RUDDER       pMarinePIDV22   0.00000      
0.15967         DESIRED_THRUST       pMarinePIDV22   0.00000      
0.71883         ANGULO_LEME          iDivisorNMEA    -0.84000     
0.74937         MSG_UDP              iDivisorNMEA    $MXPGN,00FF19,7808,0080000A0A009F41*1D
 
0.75951         MSG_UDP              iDivisorNMEA    $HCHDG,284.8,0.0,E,23.3,W*64
 
0.76971         MSG_UDP              iDivisorNMEA    $GPHDT,261.52,T*07
 
0.77991         MSG_UDP              iDivisorNMEA    $TIROT,0.59,A*07
 
0.79004         MSG_UDP              iDivisorNMEA    $MXPGN,00FF00,280B,0002000005049913*19
 
0.80021         MSG_UDP              iDivisorNMEA    $MXPGN,00FF8C,6808,FFF10695C9409F41*64
 
0.81045         MSG_UDP              iDivisorNMEA    $AGRSA,-0.84,A,,V*6E
 
0.81048         ANGULO_LEME          iDivisorNMEA    -0.84000     
0.82065         MSG_UDP              iDivisorNMEA    $GPZDA,132013.270,07,03,2023,,*56
 
0.83081         MSG_UDP              iDivisorNMEA    $MXPGN,01F803,281C,0000000000008CE1*6B
 
0.84100         MSG_UDP              iDivisorNMEA    $MXPGN,01F804,281C,0000003396C18CE1*11
 
0.85115         MSG_UDP              iDivisorNMEA    $HCHDG,284.8,0.0,E,23.3,W*64
 
0.86133         MSG_UDP              iDivisorNMEA    $GPHDT,261.51,T*04
 
0.87148         MSG_UDP              iDivisorNMEA    $TIROT,0.59,A*07
 
0.90120         MSG_UDP              iDivisorNMEA    $AGRSA,-0.84,A,,V*6E
 
0.90126         ANGULO_LEME          iDivisorNMEA    -0.84000     
0.90428         MSG_UDP              iDivisorNMEA    $MXPGN,01F803,281C,000000000000A0E2*62
 
0.91146         MSG_UDP              iDivisorNMEA    $MXPGN,01F804,281C,0000002435C1A0E2*17
 
0.93405         MSG_UDP              iDivisorNMEA    $MXPGN,01FF0D,780B,FF03000098900500*66
 
0.95241         MSG_UDP              iDivisorNMEA    $HCHDG,284.8,0.0,E,23.3,W*64
 
0.95246         MSG_UDP              iDivisorNMEA    $GPHDT,261.52,T*07
 
0.96264         MSG_UDP              iDivisorNMEA    $TIROT,0.69,A*04
 
1.00235         MSG_UDP              iDivisorNMEA    $AGRSA,-0.84,A,,V*6E
 
1.00238         ANGULO_LEME          iDivisorNMEA    -0.84000     
1.00334         MSG_UDP              iDivisorNMEA    $SDDPT,1.81,0.00,*73
 
1.01258         MSG_UDP              iDivisorNMEA    $MXPGN,01F803,281C,000000000000B4E3*64
 
1.02273         MSG_UDP              iDivisorNMEA    $MXPGN,01F804,281C,0000002435C1B4E3*11
 
1.03292         MSG_UDP              iDivisorNMEA    $MXPGN,00FF00,280B,0002000005049913*19
 
1.05431         MSG_UDP              iDivisorNMEA    $HCHDG,284.8,0.0,E,23.3,W*64
 
1.05438         MSG_UDP              iDivisorNMEA    $GPHDT,261.52,T*07
 
1.25797         MSG_UDP              iDivisorNMEA    $HCHDG,284.8,0.0,E,23.3,W*64
 
1.25822         MSG_UDP              iDivisorNMEA    $GPHDT,261.53,T*06
 
1.26838         MSG_UDP              iDivisorNMEA    $TIROT,0.99,A*0B
 
1.27860         MSG_UDP              iDivisorNMEA    $MXPGN,00FF00,280B,0002000005049913*19
 
1.30779         MSG_UDP              iDivisorNMEA    $AGRSA,-0.78,A,,V*6D
 
1.30785         ANGULO_LEME          iDivisorNMEA    -0.78000     
1.31192         MSG_UDP              iDivisorNMEA    $MXPGN,01F803,281C,00000000000014E5*11
 
1.31812         MSG_UDP              iDivisorNMEA    $MXPGN,01F804,281C,0000008261C114E5*69
 
1.35971         MSG_UDP              iDivisorNMEA    $HCHDG,284.8,0.0,E,23.3,W*64
 
1.35988         MSG_UDP              iDivisorNMEA    $GPHDT,261.53,T*06
 
1.37008         MSG_UDP              iDivisorNMEA    $TIROT,0.99,A*0B
 
1.38023         MSG_UDP              iDivisorNMEA    $MXPGN,00FF28,3808,FF08FFFDFC059F41*19
 
1.41060         MSG_UDP              iDivisorNMEA    $AGRSA,-0.84,A,,V*6E
 
1.41063         ANGULO_LEME          iDivisorNMEA    -0.84000     
1.41375         MSG_UDP              iDivisorNMEA    $MXPGN,01F803,281C,0000000000003CE7*66
 
1.42096         MSG_UDP              iDivisorNMEA    $MXPGN,01F804,281C,0000003828C13CE7*12
 
1.43209         MSG_UDP              iDivisorNMEA    !AIVDM,1,1,,B,1:U8?M0P00trH>mjq@f8cOvJ288G,0*2C
 
1.46153         MSG_UDP              iDivisorNMEA    $HCHDG,284.8,0.0,E,23.3,W*64
 
1.46174         MSG_UDP              iDivisorNMEA    $GPHDT,261.53,T*06
 
1.47197         MSG_UDP              iDivisorNMEA    $TIROT,0.99,A*0B
 
1.48217         MSG_UDP              iDivisorNMEA    $MXPGN,01FF2C,7808,FFFFFFFF9F411740*6F
 
1.49237         MSG_UDP              iDivisorNMEA    $MXPGN,01FF2C,7808,FFFF7FFFFFFF7F41*12
 
1.50256         MSG_UDP              iDivisorNMEA    $MXPGN,01FF2C,7808,FF7FFFFFFFFFFF42*60
 
1.51275         MSG_UDP              iDivisorNMEA    $MXPGN,01FF2C,7808,FFFFFFFF7FFFFF43*61
 
1.52293         MSG_UDP              iDivisorNMEA    $MXPGN,00FF3D,6808,7FFFFF0DFFFF9F41*6E
 
1.53313         MSG_UDP              iDivisorNMEA    $AGRSA,-0.84,A,,V*6E
 
1.53315         ANGULO_LEME          iDivisorNMEA    -0.84000     
1.54330         MSG_UDP              iDivisorNMEA    $MXPGN,01F803,281C,00000000000050E8*1C
 
1.55349         MSG_UDP              iDivisorNMEA    $MXPGN,01F804,281C,0000003828C150E8*68
 
1.56364         MSG_UDP              iDivisorNMEA    $MXPGN,00FF00,280B,0002000005049913*19
 
1.57384         MSG_UDP              iDivisorNMEA    $MXPGN,01FF1A,680B,FF022B849F4105A0*1D
 
1.58425         MSG_UDP              iDivisorNMEA    $MXPGN,01FF1A,782B,FF010B049F4105A0*17
 
1.59446         MSG_UDP              iDivisorNMEA    $HCHDG,284.8,0.0,E,23.3,W*64
 
1.60462         MSG_UDP              iDivisorNMEA    $GPHDT,261.53,T*06
 
1.61478         MSG_UDP              iDivisorNMEA    $TIROT,1.19,A*02
 
1.62502         MSG_UDP              iDivisorNMEA    $MXPGN,00FF3C,3808,8000F8FE00009F41*1C
 
1.63521         MSG_UDP              iDivisorNMEA    $AGRSA,-0.84,A,,V*6E
 
1.63523         ANGULO_LEME          iDivisorNMEA    -0.84000     
1.64534         MSG_UDP              iDivisorNMEA    $MXPGN,01F803,281C,00000000000064E9*1A
 
1.65548         MSG_UDP              iDivisorNMEA    $MXPGN,01F804,281C,0000003828C164E9*6E
 
1.66572         MSG_UDP              iDivisorNMEA    $HCHDG,284.8,0.0,E,23.3,W*64
 
1.67585         MSG_UDP              iDivisorNMEA    $GPHDT,261.53,T*06
 
1.68610         MSG_UDP              iDivisorNMEA    $TIROT,1.19,A*02
 
1.69635         MSG_UDP              iDivisorNMEA    $MXPGN,00FF16,7808,FF0000002B0A9F41*1B
 
1.70665         MSG_UDP              iDivisorNMEA    $MXPGN,00FF19,7808,0000000202009F41*15
 
1.71688         MSG_UDP              iDivisorNMEA    $GPGGA,,2254.75639,S,04309.53719,W,1,,,,M,,M,,*5B
 
1.72714         MSG_UDP              iDivisorNMEA    $GPGLL,2254.75639,S,04309.53719,W,,A,A*40
 
1.73737         MSG_UDP              iDivisorNMEA    $GPVTG,281.40,T,,M,1.20,N,2.22,K,A*33
 
1.74763         MSG_UDP              iDivisorNMEA    $AGRSA,-0.84,A,,V*6E
 
1.74766         ANGULO_LEME          iDivisorNMEA    -0.84000     
1.75786         MSG_UDP              iDivisorNMEA    $MXPGN,01F803,281C,00000000000078EA*6F
 
1.76806         MSG_UDP              iDivisorNMEA    $MXPGN,01F804,281C,000000EC38C178EA*17
 
1.77825         MSG_UDP              iDivisorNMEA    $MXPGN,00FF19,7808,0080000A0A009F41*1D
 
1.78848         MSG_UDP              iDivisorNMEA    $HCHDG,284.8,0.0,E,23.3,W*64
 
1.79861         MSG_UDP              iDivisorNMEA    $GPHDT,261.52,T*07
 
1.80889         MSG_UDP              iDivisorNMEA    $TIROT,1.09,A*03
 
1.81909         MSG_UDP              iDivisorNMEA    $MXPGN,00FF00,280B,0002000005049913*19
 
1.82936         MSG_UDP              iDivisorNMEA    $MXPGN,00FF8C,6808,FFF10695C9409F41*64
 
1.83959         MSG_UDP              iDivisorNMEA    $AGRSA,-0.84,A,,V*6E
 
1.83963         ANGULO_LEME          iDivisorNMEA    -0.84000     
1.84987         MSG_UDP              iDivisorNMEA    $GPZDA,132014.270,07,03,2023,,*51
 
1.86009         MSG_UDP              iDivisorNMEA    $MXPGN,01F803,281C,0000000000008CEB*18
 
1.87034         MSG_UDP              iDivisorNMEA    $MXPGN,01F804,281C,000000EC38C18CEB*60
 
1.88057         MSG_UDP              iDivisorNMEA    $HCHDG,284.8,0.0,E,23.3,W*64
 
1.89074         MSG_UDP              iDivisorNMEA    $GPHDT,261.51,T*04
 
1.90095         MSG_UDP              iDivisorNMEA    $TIROT,1.09,A*03
 
1.91967         MSG_UDP              iDivisorNMEA    $AGRSA,-0.84,A,,V*6E
 
1.91972         ANGULO_LEME          iDivisorNMEA    -0.84000     
1.92272         MSG_UDP              iDivisorNMEA    $MXPGN,01F803,281C,000000000000A0EC*13
 
1.93289         MSG_UDP              iDivisorNMEA    $MXPGN,01F804,281C,00000087FCC1A0EC*6C
 
2.17517         MSG_UDP              iDivisorNMEA    $GPGGA,132014.000,2254.75048,S,04309.53799,W,1,12,0.90,9.04,M,-5.60,M,,*7F
 
2.17699         MSG_UDP              iDivisorNMEA    $GPGLL,2254.75048,S,04309.53799,W,132014.000,A,A*53
 
2.18551         MSG_UDP              iDivisorNMEA    $GPRMC,132014.000,A,2254.75048,S,04309.53799,W,0.09,0.00,070323,23.30,W,A*13
 
2.19572         MSG_UDP              iDivisorNMEA    $GPVTG,0.00,T,,M,0.09,N,0.16,K,A*33
 
2.20591         MSG_UDP              iDivisorNMEA    $HCHDG,284.8,0.0,E,23.3,W*64
 
2.21609         MSG_UDP              iDivisorNMEA    $GPHDT,261.51,T*04
 
2.22633         MSG_UDP              iDivisorNMEA    $TIROT,1.09,A*03
 
2.23672         MSG_UDP              iDivisorNMEA    !AIVDO,1,1,,,B:UOH3P00W>VtHLf>aJgswW5oP06,0*28
 
2.24683         MSG_UDP              iDivisorNMEA    $GPGSA,A,3,08,10,16,18,21,23,24,26,27,,,,1.88,1.60,1.60*01
 
2.25747         MSG_UDP              iDivisorNMEA    $GPGSV,3,1,09,08,35,230,43,10,43,161,40,16,14,308,41,18,22,078,45*75
 
2.26767         MSG_UDP              iDivisorNMEA    $GPGSV,3,2,09,21,04,227,00,23,19,132,00,24,01,125,00,26,04,343,40*79
 
2.27806         MSG_UDP              iDivisorNMEA    $GPGSV,3,3,09,27,63,265,50*44
 
2.28833         MSG_UDP              iDivisorNMEA    $GPGGA,132015.000,2254.75319,S,04309.53829,W,1,09,1.60,0.85,M,-5.00,M,,*7F
 
2.29861         MSG_UDP              iDivisorNMEA    $GPGLL,2254.75319,S,04309.53829,W,132015.000,A,A*51
 
2.30909         MSG_UDP              iDivisorNMEA    $GPRMC,132015.000,A,2254.75319,S,04309.53829,W,0.01,199.45,070323,23.39,W,A*10
 
2.31939         MSG_UDP              iDivisorNMEA    $GPVTG,199.45,T,,M,0.01,N,0.01,K,A*3D
 
2.32966         MSG_UDP              iDivisorNMEA    $AGRSA,-0.84,A,,V*6E
 
2.32973         ANGULO_LEME          iDivisorNMEA    -0.84000     
2.33997         MSG_UDP              iDivisorNMEA    $MXPGN,01FA06,681C,8300AA00C8EE0F60*1C
 
2.35024         MSG_UDP              iDivisorNMEA    $MXPGN,01FA06,681C,008400A9F0040061*1D
 
2.36053         MSG_UDP              iDivisorNMEA    $MXPGN,01FA06,681C,FFFFFFFFFF014462*19
 
2.37077         MSG_UDP              iDivisorNMEA    !AIVDM,1,1,,B,1:U8RjPP2GtrPbejqO3CbwvL288k,0*0D
 
2.38100         MSG_UDP              iDivisorNMEA    $MXPGN,01F803,281C,00000000000000EE*64
 
2.39128         MSG_UDP              iDivisorNMEA    $MXPGN,01F804,281C,0000000A31C100EE*62
 
2.40151         MSG_UDP              iDivisorNMEA    $GPGSA,A,3,08,10,16,18,26,27,28,31,32,66,65,86,1.60,1.40,1.40*07
 
2.41181         MSG_UDP              iDivisorNMEA    $GPGSV,3,1,12,08,35,230,38,10,44,161,30,16,15,309,41,18,22,078,34*75
 
2.42216         MSG_UDP              iDivisorNMEA    $GPGSV,3,2,12,26,05,344,37,27,63,266,44,28,14,022,43,31,09,013,37*7A
 
2.43247         MSG_UDP              iDivisorNMEA    $GPGSV,3,3,12,32,77,057,47,66,09,319,41,65,59,286,40,86,36,059,42*7B
 
2.44274         MSG_UDP              iDivisorNMEA    $HCHDG,284.8,0.0,E,23.3,W*64
 
2.45305         MSG_UDP              iDivisorNMEA    $GPHDT,261.51,T*04
 
2.46336         MSG_UDP              iDivisorNMEA    $TIROT,1.09,A*03
 
2.47367         MSG_UDP              iDivisorNMEA    $MXPGN,00FF00,280B,0002000005049913*19
 
2.48388         MSG_UDP              iDivisorNMEA    $AGRSA,-0.84,A,,V*6E
 
2.48397         ANGULO_LEME          iDivisorNMEA    -0.84000     
2.49423         MSG_UDP              iDivisorNMEA    !AIVDM,1,1,,A,1:U8U8PP14LrJEijqlC9e?wp0`8p,0*38
 
2.50450         MSG_UDP              iDivisorNMEA    $MXPGN,01F803,281C,00000000000014EF*62
 
2.51488         MSG_UDP              iDivisorNMEA    $MXPGN,01F804,281C,0000000A31C114EF*64
 
2.52527         MSG_UDP              iDivisorNMEA    $HCHDG,284.8,0.0,E,23.3,W*64
 
2.53559         MSG_UDP              iDivisorNMEA    $GPHDT,261.49,T*0D
 
2.54610         MSG_UDP              iDivisorNMEA    $TIROT,0.89,A*0A
 
2.55644         MSG_UDP              iDivisorNMEA    $MXPGN,00FF28,3808,FF08FFFDFC059F41*19
 
2.56677         MSG_UDP              iDivisorNMEA    $AGRSA,-0.84,A,,V*6E
 
2.56683         ANGULO_LEME          iDivisorNMEA    -0.84000     
2.57702         MSG_UDP              iDivisorNMEA    $MXPGN,01F803,281C,0000000000003CF1*63
 
2.58724         MSG_UDP              iDivisorNMEA    $MXPGN,01F804,281C,000000BB3DC13CF1*61
 
2.59754         MSG_UDP              iDivisorNMEA    $HCHDG,284.8,0.0,E,23.3,W*64
 
2.60778         MSG_UDP              iDivisorNMEA    $GPHDT,261.50,T*05
 
2.61805         MSG_UDP              iDivisorNMEA    $TIROT,0.89,A*0A
 
2.62834         MSG_UDP              iDivisorNMEA    $MXPGN,01FF2C,7808,FFFFFFFF9F411760*6D
 
2.63861         MSG_UDP              iDivisorNMEA    $MXPGN,01FF2C,7808,FFFF7FFFFFFF7F61*10
 
2.64893         MSG_UDP              iDivisorNMEA    $MXPGN,01FF2C,7808,FF7FFFFFFFFFFF62*62
 
2.65918         MSG_UDP              iDivisorNMEA    $MXPGN,01FF2C,7808,FFFFFFFF7FFFFF63*63
 
2.66952         MSG_UDP              iDivisorNMEA    $MXPGN,00FF3D,6808,7FFFFF0DFFFF9F41*6E
 
2.67980         MSG_UDP              iDivisorNMEA    $AGRSA,-0.84,A,,V*6E
 
2.67986         ANGULO_LEME          iDivisorNMEA    -0.84000     
2.69030         MSG_UDP              iDivisorNMEA    $MXPGN,01F803,281C,00000000000050F2*15
 
2.70065         MSG_UDP              iDivisorNMEA    $MXPGN,01F804,281C,000000BB3DC150F2*17
 
2.71091         MSG_UDP              iDivisorNMEA    $MXPGN,00FF00,280B,0002000005049913*19
 
2.72123         MSG_UDP              iDivisorNMEA    $MXPGN,01FF1A,680B,FF022B849F4105C0*1F
 
2.73153         MSG_UDP              iDivisorNMEA    $MXPGN,01FF1A,782B,FF010B049F4105C0*15
 
2.74185         MSG_UDP              iDivisorNMEA    $HCHDG,284.8,0.0,E,23.3,W*64
 
2.75214         MSG_UDP              iDivisorNMEA    $GPHDT,261.48,T*0C
 
2.76249         MSG_UDP              iDivisorNMEA    $TIROT,0.69,A*04
 
2.77284         MSG_UDP              iDivisorNMEA    $MXPGN,00FF3C,3808,8000F8FE00009F41*1C
 
2.78311         MSG_UDP              iDivisorNMEA    $AGRSA,-0.84,A,,V*6E
 
2.78317         ANGULO_LEME          iDivisorNMEA    -0.84000     
2.79346         MSG_UDP              iDivisorNMEA    $MXPGN,01F803,281C,00000000000064F3*13
 
2.80376         MSG_UDP              iDivisorNMEA    $MXPGN,01F804,281C,000000BB3DC164F3*11
 
2.81407         MSG_UDP              iDivisorNMEA    $HCHDG,284.8,0.0,E,23.3,W*64
 
3.08025         MSG_UDP              iDivisorNMEA    $MXPGN,01FF1A,782B,FFFAFF859F4105E0*6E
 
3.08814         MSG_UDP              iDivisorNMEA    $HCHDG,284.8,0.0,E,23.3,W*64
 
3.09143         MSG_UDP              iDivisorNMEA    $GPHDT,261.45,T*01
 
3.10174         MSG_UDP              iDivisorNMEA    $TIROT,0.39,A*01
 
3.13879         MSG_UDP              iDivisorNMEA    $AGRSA,-0.78,A,,V*6D
 
3.13889         ANGULO_LEME          iDivisorNMEA    -0.78000     
3.14194         MSG_UDP              iDivisorNMEA    $MXPGN,01F803,281C,000000000000B4F7*63
 
3.14925         MSG_UDP              iDivisorNMEA    $MXPGN,01F804,281C,000000DA93C1B4F7*19
 
3.19062         MSG_UDP              iDivisorNMEA    $GPGGA,132015.000,2254.75039,S,04309.53785,W,1,12,0.90,8.91,M,-5.60,M,,*78
 
3.19266         MSG_UDP              iDivisorNMEA    $GPGLL,2254.75039,S,04309.53785,W,132015.000,A,A*59
 
3.20167         MSG_UDP              iDivisorNMEA    $GPRMC,132015.000,A,2254.75039,S,04309.53785,W,0.09,0.00,070323,23.30,W,A*19
 
3.21209         MSG_UDP              iDivisorNMEA    $GPVTG,0.00,T,,M,0.09,N,0.16,K,A*33
 
3.22235         MSG_UDP              iDivisorNMEA    $HCHDG,284.8,0.0,E,23.3,W*64
 
3.23269         MSG_UDP              iDivisorNMEA    $GPHDT,261.46,T*02
 
3.24295         MSG_UDP              iDivisorNMEA    $TIROT,0.49,A*06
 
3.25338         MSG_UDP              iDivisorNMEA    $GPGSA,A,3,08,10,16,18,21,23,24,26,27,,,,1.88,1.60,1.60*01
 
3.26372         MSG_UDP              iDivisorNMEA    $GPGSV,3,1,09,08,35,230,43,10,43,161,41,16,14,308,41,18,22,078,44*75
 
3.27406         MSG_UDP              iDivisorNMEA    $GPGSV,3,2,09,21,04,227,00,23,19,132,00,24,01,125,00,26,04,343,39*77
 
3.28434         MSG_UDP              iDivisorNMEA    $GPGSV,3,3,09,27,63,265,50*44
 
3.29459         MSG_UDP              iDivisorNMEA    $GPGGA,132016.000,2254.75319,S,04309.53829,W,1,09,1.60,0.85,M,-5.00,M,,*7C
 
3.30487         MSG_UDP              iDivisorNMEA    $GPGLL,2254.75319,S,04309.53829,W,132016.000,A,A*52
 
3.31517         MSG_UDP              iDivisorNMEA    $GPRMC,132016.000,A,2254.75319,S,04309.53829,W,0.00,320.59,070323,23.39,W,A*1F
 
3.32552         MSG_UDP              iDivisorNMEA    $GPVTG,320.59,T,,M,0.00,N,0.00,K,A*30
 
3.33578         MSG_UDP              iDivisorNMEA    $AGRSA,-0.84,A,,V*6E
 
3.33584         ANGULO_LEME          iDivisorNMEA    -0.84000     
3.34606         MSG_UDP              iDivisorNMEA    $MXPGN,01FA06,681C,8300AA00C8F80F80*6C
 
3.35637         MSG_UDP              iDivisorNMEA    $MXPGN,01FA06,681C,008400A9F0040081*13
 
3.36660         MSG_UDP              iDivisorNMEA    $MXPGN,01FA06,681C,FFFFFFFFFF014482*17
 
3.37689         MSG_UDP              iDivisorNMEA    $MXPGN,01F803,281C,00000000000000F8*1A
 
3.38716         MSG_UDP              iDivisorNMEA    $MXPGN,01F804,281C,0000005055C100F8*6A
 
3.39767         MSG_UDP              iDivisorNMEA    $GPGSA,A,3,08,10,16,18,26,27,28,31,32,66,65,86,1.60,1.40,1.40*07
 
3.40793         MSG_UDP              iDivisorNMEA    $GPGSV,3,1,12,08,35,230,38,10,44,161,30,16,15,309,41,18,22,078,34*75
 
3.41833         MSG_UDP              iDivisorNMEA    $GPGSV,3,2,12,26,05,344,37,27,63,266,44,28,14,022,43,31,09,013,37*7A
 
3.42875         MSG_UDP              iDivisorNMEA    $GPGSV,3,3,12,32,77,057,47,66,09,319,41,65,59,286,40,86,36,059,42*7B
 
3.43904         MSG_UDP              iDivisorNMEA    $HCHDG,284.8,0.0,E,23.3,W*64
 
3.44936         MSG_UDP              iDivisorNMEA    $GPHDT,261.46,T*02
 
3.45966         MSG_UDP              iDivisorNMEA    $TIROT,0.49,A*06
 
3.46989         MSG_UDP              iDivisorNMEA    $MXPGN,00FF00,280B,0002000005049913*19
 
3.48018         MSG_UDP              iDivisorNMEA    $AGRSA,-0.84,A,,V*6E
 
3.48023         ANGULO_LEME          iDivisorNMEA    -0.84000     
3.49079         MSG_UDP              iDivisorNMEA    $MXPGN,01F803,281C,00000000000014F9*1E
 
3.50108         MSG_UDP              iDivisorNMEA    $MXPGN,01F804,281C,0000005055C114F9*6E
 
3.51143         MSG_UDP              iDivisorNMEA    $HCHDG,284.8,0.0,E,23.3,W*64
 
3.52171         MSG_UDP              iDivisorNMEA    $GPHDT,261.47,T*03
 
3.53198         MSG_UDP              iDivisorNMEA    $TIROT,0.79,A*05
 
3.54256         MSG_UDP              iDivisorNMEA    $MXPGN,00FF28,3808,FF08FFFDFC059F41*19
 
3.55285         MSG_UDP              iDivisorNMEA    $AGRSA,-0.84,A,,V*6E
 
3.55294         ANGULO_LEME          iDivisorNMEA    -0.84000     
3.56316         MSG_UDP              iDivisorNMEA    $MXPGN,01F803,281C,0000000000003C00*14
 
3.57345         MSG_UDP              iDivisorNMEA    $MXPGN,01F804,281C,0000007B2CC13C00*65
 
3.58372         MSG_UDP              iDivisorNMEA    $HCHDG,284.8,0.0,E,23.3,W*64
 
3.59401         MSG_UDP              iDivisorNMEA    $GPHDT,261.46,T*02
 
3.60430         MSG_UDP              iDivisorNMEA    $TIROT,0.79,A*05
 
3.61458         MSG_UDP              iDivisorNMEA    $MXPGN,01FF2C,7808,FFFFFFFF9F411780*63
 
3.62490         MSG_UDP              iDivisorNMEA    $MXPGN,01FF2C,7808,FFFF7FFFFFFF7F81*1E
 
3.63517         MSG_UDP              iDivisorNMEA    $MXPGN,01FF2C,7808,FF7FFFFFFFFFFF82*6C
 
3.64543         MSG_UDP              iDivisorNMEA    $MXPGN,01FF2C,7808,FFFFFFFF7FFFFF83*6D
 
3.65571         MSG_UDP              iDivisorNMEA    $MXPGN,00FF3D,6808,7FFFFF0DFFFF9F41*6E
 
3.66604         MSG_UDP              iDivisorNMEA    $AGRSA,-0.84,A,,V*6E
 
3.66611         ANGULO_LEME          iDivisorNMEA    -0.84000     
3.67630         MSG_UDP              iDivisorNMEA    $MXPGN,01F803,281C,0000000000005001*60
 
3.68665         MSG_UDP              iDivisorNMEA    $MXPGN,01F804,281C,0000007B2CC15001*11
 
3.69693         MSG_UDP              iDivisorNMEA    $MXPGN,00FF00,280B,0002000005049913*19
 
3.70774         MSG_UDP              iDivisorNMEA    $MXPGN,01FF1A,680B,FF022B849F4105E0*19
 
3.71804         MSG_UDP              iDivisorNMEA    $MXPGN,00FF3D,6808,0000FF0BFFFF9F41*19
 
3.72834         MSG_UDP              iDivisorNMEA    $MXPGN,01FF1A,782B,FF010B049F4105E0*13
 
3.73864         MSG_UDP              iDivisorNMEA    $MXPGN,00FF3D,6808,FFFFFF0CFFFF9F41*18
 
3.74893         MSG_UDP              iDivisorNMEA    $HCHDG,284.8,0.0,E,23.3,W*64
 
3.75917         MSG_UDP              iDivisorNMEA    $GPHDT,261.47,T*03
 
3.98366         MSG_UDP              iDivisorNMEA    $MXPGN,01FF0D,780B,FF03000098900560*60
 
4.00081         MSG_UDP              iDivisorNMEA    $HCHDG,284.8,0.0,E,23.3,W*64
 
4.00100         MSG_UDP              iDivisorNMEA    $GPHDT,261.47,T*03
 
4.01125         MSG_UDP              iDivisorNMEA    $TIROT,0.89,A*0A
 
4.05131         MSG_UDP              iDivisorNMEA    $AGRSA,-0.84,A,,V*6E
 
4.05140         ANGULO_LEME          iDivisorNMEA    -0.84000     
4.05146         MSG_UDP              iDivisorNMEA    $SDDPT,1.77,0.00,*7A
 
4.06174         MSG_UDP              iDivisorNMEA    $MXPGN,01F803,281C,000000000000A005*10
 
4.07201         MSG_UDP              iDivisorNMEA    $MXPGN,01F804,281C,000000D7EFC1A005*15
 
4.08227         MSG_UDP              iDivisorNMEA    $MXPGN,00FF00,280B,0002000005049913*19
 
4.10209         MSG_UDP              iDivisorNMEA    $HCHDG,284.8,0.0,E,23.3,W*64
 
4.10335         MSG_UDP              iDivisorNMEA    $GPHDT,261.47,T*03
 
4.11366         MSG_UDP              iDivisorNMEA    $TIROT,0.99,A*0B
 
4.15249         MSG_UDP              iDivisorNMEA    $AGRSA,-0.84,A,,V*6E
 
4.15265         ANGULO_LEME          iDivisorNMEA    -0.84000     
4.15574         MSG_UDP              iDivisorNMEA    $MXPGN,01F803,281C,000000000000A005*10
 
4.16302         MSG_UDP              iDivisorNMEA    $MXPGN,01F804,281C,000000D7EFC1A005*15
 
4.20522         MSG_UDP              iDivisorNMEA    $GPGGA,132016.000,2254.75033,S,04309.53783,W,1,12,0.90,8.78,M,-5.60,M,,*70
 
4.20631         MSG_UDP              iDivisorNMEA    $GPGLL,2254.75033,S,04309.53783,W,132016.000,A,A*56
 
4.21610         MSG_UDP              iDivisorNMEA    $GPRMC,132016.000,A,2254.75033,S,04309.53783,W,0.09,0.00,070323,23.30,W,A*16
 
4.22631         MSG_UDP              iDivisorNMEA    $GPVTG,0.00,T,,M,0.09,N,0.16,K,A*33
 
4.23645         MSG_UDP              iDivisorNMEA    $HCHDG,284.8,0.0,E,23.3,W*64
 
4.24652         MSG_UDP              iDivisorNMEA    $GPHDT,261.47,T*03
 
4.25669         MSG_UDP              iDivisorNMEA    $TIROT,0.99,A*0B
 
4.26686         MSG_UDP              iDivisorNMEA    !AIVDO,1,1,,,B:UOH3P00G>VtFLf>aNgsw`5oP06,0*05
 
4.27706         MSG_UDP              iDivisorNMEA    $GPGSA,A,3,08,10,16,18,21,23,24,26,27,,,,1.88,1.60,1.60*01
 
4.28721         MSG_UDP              iDivisorNMEA    $GPGSV,3,1,09,08,35,230,43,10,43,161,41,16,14,308,41,18,22,078,44*75
 
4.29742         MSG_UDP              iDivisorNMEA    $GPGSV,3,2,09,21,04,227,00,23,19,132,00,24,01,125,00,26,04,343,39*77
 
4.30760         MSG_UDP              iDivisorNMEA    $GPGSV,3,3,09,27,63,265,50*44
 
4.31785         MSG_UDP              iDivisorNMEA    $GPGGA,132016.900,2254.75319,S,04309.53829,W,1,09,1.60,0.85,M,-5.00,M,,*75
 
4.32807         MSG_UDP              iDivisorNMEA    $GPGLL,2254.75319,S,04309.53829,W,132016.900,A,A*5B
 
4.33833         MSG_UDP              iDivisorNMEA    $GPRMC,132016.900,A,2254.75319,S,04309.53829,W,0.07,316.72,070323,23.39,W,A*1D
 
4.34851         MSG_UDP              iDivisorNMEA    $GPVTG,316.72,T,,M,0.07,N,0.12,K,A*38
 
4.35870         MSG_UDP              iDivisorNMEA    $AGRSA,-0.84,A,,V*6E
 
4.35873         ANGULO_LEME          iDivisorNMEA    -0.84000     
4.36891         MSG_UDP              iDivisorNMEA    $MXPGN,01FA06,681C,8300AA00C8060FA0*6D
 
4.37912         MSG_UDP              iDivisorNMEA    $MXPGN,01FA06,681C,008400A9F00A00A1*1F
 
4.38931         MSG_UDP              iDivisorNMEA    $MXPGN,01FA06,681C,FFFFFFFFFF0144A2*6E
 
4.39948         MSG_UDP              iDivisorNMEA    $MXPGN,01F803,281C,0000000000000006*62
 
4.40967         MSG_UDP              iDivisorNMEA    $MXPGN,01F804,281C,000000D7EFC10006*67
 
4.41982         MSG_UDP              iDivisorNMEA    $GPGSA,A,3,08,10,16,18,26,27,28,31,32,66,65,86,1.60,1.40,1.40*07
 
4.43006         MSG_UDP              iDivisorNMEA    $GPGSV,3,1,12,08,35,230,38,10,44,161,30,16,15,309,41,18,22,078,34*75
 
4.44029         MSG_UDP              iDivisorNMEA    $GPGSV,3,2,12,26,05,344,37,27,63,266,44,28,14,022,43,31,09,013,37*7A
 
4.45054         MSG_UDP              iDivisorNMEA    $GPGSV,3,3,12,32,77,057,47,66,09,319,41,65,59,286,40,86,36,059,42*7B
 
4.46078         MSG_UDP              iDivisorNMEA    $HCHDG,284.8,0.0,E,23.3,W*64
 
4.47094         MSG_UDP              iDivisorNMEA    $GPHDT,261.46,T*02
 
4.48116         MSG_UDP              iDivisorNMEA    $TIROT,0.99,A*0B
 
4.49134         MSG_UDP              iDivisorNMEA    $MXPGN,00FF00,280B,0002000005049913*19
 
4.50152         MSG_UDP              iDivisorNMEA    !AIVDM,1,1,,A,B:U7Lr00h?>WlCLfCuiusw`Ql8:3,0*7B
 
4.51168         MSG_UDP              iDivisorNMEA    $AGRSA,-0.84,A,,V*6E
 
4.51174         ANGULO_LEME          iDivisorNMEA    -0.84000     
4.52193         MSG_UDP              iDivisorNMEA    $MXPGN,01F803,281C,0000000000001407*66
 
4.53214         MSG_UDP              iDivisorNMEA    $MXPGN,01F804,281C,0000003CD2C11407*15
 
4.54238         MSG_UDP              iDivisorNMEA    $HCHDG,284.8,0.0,E,23.3,W*64
 
4.55261         MSG_UDP              iDivisorNMEA    $GPHDT,261.47,T*03
 
4.56275         MSG_UDP              iDivisorNMEA    $TIROT,0.89,A*0A
 
4.57307         MSG_UDP              iDivisorNMEA    $MXPGN,00FF28,3808,FF08FFFDFC059F41*19
 
4.58328         MSG_UDP              iDivisorNMEA    $AGRSA,-0.84,A,,V*6E
 
4.58331         ANGULO_LEME          iDivisorNMEA    -0.84000     
4.59348         MSG_UDP              iDivisorNMEA    $MXPGN,01F803,281C,0000000000001407*66
 
4.60367         MSG_UDP              iDivisorNMEA    $MXPGN,01F804,281C,0000003CD2C11407*15
 
4.61392         MSG_UDP              iDivisorNMEA    $HCHDG,284.8,0.0,E,23.3,W*64
 
4.62408         MSG_UDP              iDivisorNMEA    $GPHDT,261.47,T*03
 
4.63425         MSG_UDP              iDivisorNMEA    $TIROT,0.89,A*0A
 
4.64447         MSG_UDP              iDivisorNMEA    $MXPGN,01FF2C,7808,FFFFFFFF9F4117A0*1A
 
4.65461         MSG_UDP              iDivisorNMEA    $MXPGN,01FF2C,7808,FFFF7FFFFFFF7FA1*67
 
4.66478         MSG_UDP              iDivisorNMEA    $MXPGN,01FF2C,7808,FF7FFFFFFFFFFFA2*15
 
4.67494         MSG_UDP              iDivisorNMEA    $MXPGN,01FF2C,7808,FFFFFFFF7FFFFFA3*14
 
4.68510         MSG_UDP              iDivisorNMEA    $MXPGN,00FF3D,6808,7FFFFF0DFFFF9F41*6E
 
4.91204         MSG_UDP              iDivisorNMEA    $HCHDG,284.8,0.0,E,23.3,W*64
 
4.91218         MSG_UDP              iDivisorNMEA    $GPHDT,261.48,T*0C
 
4.92300         MSG_UDP              iDivisorNMEA    $TIROT,0.99,A*0B
 
4.96251         MSG_UDP              iDivisorNMEA    $AGRSA,-0.84,A,,V*6E
 
4.96258         ANGULO_LEME          iDivisorNMEA    -0.84000     
4.96563         MSG_UDP              iDivisorNMEA    $MXPGN,01F803,281C,000000000000B40F*64
 
4.97290         MSG_UDP              iDivisorNMEA    $MXPGN,01F804,281C,0000004ED0C1B40F*14
 
5.01322         MSG_UDP              iDivisorNMEA    $HCHDG,284.8,0.0,E,23.3,W*64
 
5.01326         MSG_UDP              iDivisorNMEA    $GPHDT,261.49,T*0D
 
5.02342         MSG_UDP              iDivisorNMEA    $TIROT,1.19,A*02
 
5.04651         MSG_UDP              iDivisorNMEA    $MXPGN,01FF0D,780B,FF03000098900580*6E
 
5.05471         MSG_UDP              iDivisorNMEA    !AIVDM,1,1,,B,1:U8JFPP1ULrK8MjqGpk7?vT08:M,0*39
 
5.06355         MSG_UDP              iDivisorNMEA    $AGRSA,-0.84,A,,V*6E
 
5.06360         ANGULO_LEME          iDivisorNMEA    -0.84000     
5.06779         MSG_UDP              iDivisorNMEA    $SDDPT,1.77,0.00,*7A
 
5.07800         MSG_UDP              iDivisorNMEA    $MXPGN,01F803,281C,000000000000C810*1E
 
5.08819         MSG_UDP              iDivisorNMEA    $MXPGN,01F804,281C,0000004ED0C1C810*6E
 
5.09839         MSG_UDP              iDivisorNMEA    $MXPGN,00FF00,280B,0002000005049913*19
 
5.11432         MSG_UDP              iDivisorNMEA    $HCHDG,284.8,0.0,E,23.3,W*64
 
5.11950         MSG_UDP              iDivisorNMEA    $GPHDT,261.48,T*0C
 
5.12973         MSG_UDP              iDivisorNMEA    $TIROT,1.19,A*02
 
5.16462         MSG_UDP              iDivisorNMEA    $AGRSA,-0.84,A,,V*6E
 
5.16469         ANGULO_LEME          iDivisorNMEA    -0.84000     
5.16790         MSG_UDP              iDivisorNMEA    $MXPGN,01F803,281C,000000000000C810*1E
 
5.17512         MSG_UDP              iDivisorNMEA    $MXPGN,01F804,281C,0000004ED0C1C810*6E
 
5.21553         MSG_UDP              iDivisorNMEA    $HCHDG,284.8,0.0,E,23.3,W*64
 
5.21561         MSG_UDP              iDivisorNMEA    $GPHDT,261.49,T*0D
 
5.22578         MSG_UDP              iDivisorNMEA    $TIROT,1.19,A*02
 
5.26488         MSG_UDP              iDivisorNMEA    $GPGSA,A,3,08,10,16,18,21,23,24,26,27,,,,1.88,1.60,1.60*01
 
5.26730         MSG_UDP              iDivisorNMEA    $GPGSV,3,1,09,08,35,230,43,10,43,161,41,16,14,308,41,18,22,078,45*74
 
5.27548         MSG_UDP              iDivisorNMEA    $GPGSV,3,2,09,21,04,227,00,23,19,132,00,24,01,125,00,26,04,343,40*79
 
5.28565         MSG_UDP              iDivisorNMEA    $GPGSV,3,3,09,27,63,265,50*44
 
5.29584         MSG_UDP              iDivisorNMEA    $GPGGA,132017.000,2254.75027,S,04309.53778,W,1,12,0.90,8.71,M,-5.60,M,,*79
 
5.30611         MSG_UDP              iDivisorNMEA    $GPGLL,2254.75027,S,04309.53778,W,132017.000,A,A*56
 
5.31637         MSG_UDP              iDivisorNMEA    $GPRMC,132017.000,A,2254.75027,S,04309.53778,W,0.09,0.00,070323,23.30,W,A*16
 
5.32668         MSG_UDP              iDivisorNMEA    $GPVTG,0.00,T,,M,0.09,N,0.16,K,A*33
 
5.33689         MSG_UDP              iDivisorNMEA    $GPGGA,132018.000,2254.75319,S,04309.53829,W,1,09,1.60,0.85,M,-5.00,M,,*72
 
5.34706         MSG_UDP              iDivisorNMEA    $GPGLL,2254.75319,S,04309.53829,W,132018.000,A,A*5C
 
5.35724         MSG_UDP              iDivisorNMEA    $GPRMC,132018.000,A,2254.75319,S,04309.53829,W,0.00,115.59,070323,23.39,W,A*15
 
5.36744         MSG_UDP              iDivisorNMEA    $GPVTG,115.59,T,,M,0.00,N,0.00,K,A*34
 
5.37767         MSG_UDP              iDivisorNMEA    $AGRSA,-0.84,A,,V*6E
 
5.37769         ANGULO_LEME          iDivisorNMEA    -0.84000     
5.38784         MSG_UDP              iDivisorNMEA    $MXPGN,01FA06,681C,8300AA00C8110FC0*69
 
5.39808         MSG_UDP              iDivisorNMEA    $MXPGN,01FA06,681C,008400A9F00A00C1*1D
 
5.40826         MSG_UDP              iDivisorNMEA    $MXPGN,01FA06,681C,FFFFFFFFFF0144C2*6C
 
5.41847         MSG_UDP              iDivisorNMEA    $MXPGN,01F803,281C,0000000000000011*64
 
5.42887         MSG_UDP              iDivisorNMEA    $MXPGN,01F804,281C,000000D45FC10011*12
 
5.43905         MSG_UDP              iDivisorNMEA    $HCHDG,284.8,0.0,E,23.3,W*64
 
5.44927         MSG_UDP              iDivisorNMEA    $GPHDT,261.49,T*0D
 
5.45943         MSG_UDP              iDivisorNMEA    $TIROT,1.19,A*02
 
5.46963         MSG_UDP              iDivisorNMEA    $GPGSA,A,3,08,10,16,18,26,27,28,31,32,66,65,86,1.60,1.40,1.40*07
 
5.47985         MSG_UDP              iDivisorNMEA    $GPGSV,3,1,12,08,35,231,38,10,44,161,30,16,15,309,41,18,22,078,34*74
 
5.49006         MSG_UDP              iDivisorNMEA    $GPGSV,3,2,12,26,05,344,37,27,63,266,44,28,14,022,43,31,09,013,37*7A
 
5.50026         MSG_UDP              iDivisorNMEA    $GPGSV,3,3,12,32,77,057,47,66,09,319,41,65,59,286,40,86,36,059,42*7B
 
5.51043         MSG_UDP              iDivisorNMEA    $MXPGN,00FF00,280B,0002000005049913*19
 
5.52064         MSG_UDP              iDivisorNMEA    $AGRSA,-0.84,A,,V*6E
 
5.52068         ANGULO_LEME          iDivisorNMEA    -0.84000     
5.53082         MSG_UDP              iDivisorNMEA    $MXPGN,01F803,281C,0000000000001412*62
 
5.54103         MSG_UDP              iDivisorNMEA    $MXPGN,01F804,281C,000000D45FC11412*14
 
5.55120         MSG_UDP              iDivisorNMEA    $HCHDG,284.8,0.0,E,23.3,W*64
 
5.56138         MSG_UDP              iDivisorNMEA    $GPHDT,261.48,T*0C
 
5.57159         MSG_UDP              iDivisorNMEA    $TIROT,1.19,A*02
 
5.58180         MSG_UDP              iDivisorNMEA    $MXPGN,00FF28,3808,FF08FFFDFC059F41*19
 
5.59200         MSG_UDP              iDivisorNMEA    $AGRSA,-0.84,A,,V*6E
 
5.59203         ANGULO_LEME          iDivisorNMEA    -0.84000     
5.60221         MSG_UDP              iDivisorNMEA    $MXPGN,01F803,281C,0000000000003C14*11
 
5.61234         MSG_UDP              iDivisorNMEA    $MXPGN,01F804,281C,0000007950C13C14*6F
 
5.62254         MSG_UDP              iDivisorNMEA    $HCHDG,284.8,0.0,E,23.3,W*64
 
5.63277         MSG_UDP              iDivisorNMEA    $GPHDT,261.49,T*0D
 
5.64289         MSG_UDP              iDivisorNMEA    $TIROT,1.19,A*02
 
5.82185         MSG_UDP              iDivisorNMEA    $HCHDG,284.8,0.0,E,23.3,W*64
 
5.82191         MSG_UDP              iDivisorNMEA    $GPHDT,261.48,T*0C
 
5.83210         MSG_UDP              iDivisorNMEA    $TIROT,1.09,A*03
 
5.84231         MSG_UDP              iDivisorNMEA    $MXPGN,00FF00,280B,0002000005049913*19
 
5.85251         MSG_UDP              iDivisorNMEA    $MXPGN,00FF8C,6808,FFF10695C9409F41*64
 
5.87232         MSG_UDP              iDivisorNMEA    $AGRSA,-0.84,A,,V*6E
 
5.87238         ANGULO_LEME          iDivisorNMEA    -0.84000     
5.87353         MSG_UDP              iDivisorNMEA    $GPZDA,132018.270,07,03,2023,,*5D
 
5.88374         MSG_UDP              iDivisorNMEA    $MXPGN,01F803,281C,0000000000008C18*16
 
5.89391         MSG_UDP              iDivisorNMEA    $MXPGN,01F804,281C,0000002336C18C18*67
 
5.92292         MSG_UDP              iDivisorNMEA    $HCHDG,284.8,0.0,E,23.3,W*64
 
5.92299         MSG_UDP              iDivisorNMEA    $GPHDT,261.48,T*0C
 
5.93332         MSG_UDP              iDivisorNMEA    $TIROT,1.09,A*03
 
5.97327         MSG_UDP              iDivisorNMEA    $AGRSA,-0.84,A,,V*6E
 
5.97329         ANGULO_LEME          iDivisorNMEA    -0.84000     
5.97663         MSG_UDP              iDivisorNMEA    $MXPGN,01F803,281C,0000000000008C18*16
 
5.98383         MSG_UDP              iDivisorNMEA    $MXPGN,01F804,281C,0000000104C18C18*66
 
6.02395         MSG_UDP              iDivisorNMEA    $HCHDG,284.8,0.0,E,23.3,W*64
 
6.02404         MSG_UDP              iDivisorNMEA    $GPHDT,261.48,T*0C
 
6.03421         MSG_UDP              iDivisorNMEA    $TIROT,1.09,A*03
 
6.05629         MSG_UDP              iDivisorNMEA    $MXPGN,01FF0D,780B,FF030000989005A0*17
 
6.07433         MSG_UDP              iDivisorNMEA    $AGRSA,-0.84,A,,V*6E
 
6.07438         ANGULO_LEME          iDivisorNMEA    -0.84000     
6.07444         MSG_UDP              iDivisorNMEA    $SDDPT,1.76,0.00,*7B
 
6.08465         MSG_UDP              iDivisorNMEA    $MXPGN,01F803,281C,0000000000008C18*16
 
6.09478         MSG_UDP              iDivisorNMEA    $MXPGN,01F804,281C,0000000104C18C18*66
 
6.10497         MSG_UDP              iDivisorNMEA    $MXPGN,00FF00,280B,0002000005049913*19
 
6.11516         MSG_UDP              iDivisorNMEA    !AIVDM,1,1,,A,1:U8?kPP0OLrHGejqBGaSgwp0d2:,0*2F
 
6.12530         MSG_UDP              iDivisorNMEA    $MXPGN,01FF1A,782B,FFFAFF859F410540*1F
 
6.13552         MSG_UDP              iDivisorNMEA    $HCHDG,284.8,0.0,E,23.3,W*64
 
6.14574         MSG_UDP              iDivisorNMEA    $GPHDT,261.47,T*03
 
6.15590         MSG_UDP              iDivisorNMEA    $TIROT,1.19,A*02
 
6.17531         MSG_UDP              iDivisorNMEA    $AGRSA,-0.84,A,,V*6E
 
6.17535         ANGULO_LEME          iDivisorNMEA    -0.84000     
6.17849         MSG_UDP              iDivisorNMEA    $MXPGN,01F803,281C,000000000000B41A*62
 
6.18666         MSG_UDP              iDivisorNMEA    $MXPGN,01F804,281C,0000000104C1B41A*12
 
6.22579         MSG_UDP              iDivisorNMEA    $HCHDG,284.8,0.0,E,23.3,W*64
 
6.22604         MSG_UDP              iDivisorNMEA    $GPHDT,261.48,T*0C
 
6.23619         MSG_UDP              iDivisorNMEA    $TIROT,1.09,A*03
 
6.27646         MSG_UDP              iDivisorNMEA    $GPGSA,A,3,08,10,16,18,21,23,24,26,27,,,,1.88,1.60,1.60*01
 
6.27837         MSG_UDP              iDivisorNMEA    $GPGSV,3,1,09,08,35,230,43,10,43,161,41,16,14,308,41,18,22,078,44*75
 
6.28754         MSG_UDP              iDivisorNMEA    $GPGSV,3,2,09,21,04,227,00,23,19,132,00,24,01,125,00,26,04,343,41*78
 
6.29770         MSG_UDP              iDivisorNMEA    $GPGSV,3,3,09,27,63,265,50*44
 
6.30787         MSG_UDP              iDivisorNMEA    $GPGGA,132018.000,2254.75018,S,04309.53768,W,1,12,0.90,8.71,M,-5.60,M,,*7B
 
6.31807         MSG_UDP              iDivisorNMEA    $GPGLL,2254.75018,S,04309.53768,W,132018.000,A,A*54
 
6.32820         MSG_UDP              iDivisorNMEA    $GPRMC,132018.000,A,2254.75018,S,04309.53768,W,0.19,238.19,070323,23.30,W,A*14
 
6.33845         MSG_UDP              iDivisorNMEA    $GPVTG,238.19,T,,M,0.19,N,0.35,K,A*32
 
6.34863         MSG_UDP              iDivisorNMEA    $GPGGA,132019.000,2254.75319,S,04309.53829,W,1,09,1.60,0.85,M,-5.00,M,,*73
 
6.35887         MSG_UDP              iDivisorNMEA    $GPGLL,2254.75319,S,04309.53829,W,132019.000,A,A*5D
 
6.36906         MSG_UDP              iDivisorNMEA    $GPRMC,132019.000,A,2254.75319,S,04309.53829,W,0.05,1.48,070323,23.39,W,A*15
 
6.37921         MSG_UDP              iDivisorNMEA    $GPVTG,1.48,T,,M,0.05,N,0.09,K,A*3C
 
6.38937         MSG_UDP              iDivisorNMEA    $AGRSA,-0.84,A,,V*6E
 
6.38939         ANGULO_LEME          iDivisorNMEA    -0.84000     
6.39954         MSG_UDP              iDivisorNMEA    $MXPGN,01FA06,681C,8300AA00C81B0FE0*1C
 
6.40974         MSG_UDP              iDivisorNMEA    $MXPGN,01FA06,681C,008400A9F00A00E1*1B
 
6.41988         MSG_UDP              iDivisorNMEA    !AIVDO,1,1,,,B:UOH3P01W>VtDLf>aBgswa5oP06,0*1B
 
6.43004         MSG_UDP              iDivisorNMEA    $MXPGN,01FA06,681C,FFFFFFFFFF0144E2*6A
 
6.44048         MSG_UDP              iDivisorNMEA    $MXPGN,01F803,281C,000000000000001B*17
 
6.45065         MSG_UDP              iDivisorNMEA    $MXPGN,01F804,281C,000000B2E8C1001B*6F
 
6.46086         MSG_UDP              iDivisorNMEA    $HCHDG,284.8,0.0,E,23.3,W*64
 
6.47098         MSG_UDP              iDivisorNMEA    $GPHDT,261.48,T*0C
 
6.48122         MSG_UDP              iDivisorNMEA    $TIROT,1.09,A*03
 
6.49143         MSG_UDP              iDivisorNMEA    $GPGSA,A,3,08,10,16,18,26,27,28,31,32,66,65,86,1.60,1.40,1.40*07
 
6.50160         MSG_UDP              iDivisorNMEA    $GPGSV,3,1,12,08,35,231,38,10,44,161,30,16,15,309,41,18,22,078,34*74
 
6.51173         MSG_UDP              iDivisorNMEA    $GPGSV,3,2,12,26,05,344,37,27,63,266,44,28,14,022,43,31,09,013,37*7A
 
6.52193         MSG_UDP              iDivisorNMEA    $GPGSV,3,3,12,32,77,057,47,66,09,319,41,65,59,286,40,86,36,059,42*7B
 
6.53213         MSG_UDP              iDivisorNMEA    $MXPGN,00FF00,280B,0002000005049913*19
 
6.54232         MSG_UDP              iDivisorNMEA    $AGRSA,-0.84,A,,V*6E
 
6.54237         ANGULO_LEME          iDivisorNMEA    -0.84000     
6.55251         MSG_UDP              iDivisorNMEA    $MXPGN,01F803,281C,000000000258141C*1C
 
6.73076         MSG_UDP              iDivisorNMEA    $HCHDG,284.8,0.0,E,23.3,W*64
 
6.73095         MSG_UDP              iDivisorNMEA    $GPHDT,261.46,T*02
 
6.74152         MSG_UDP              iDivisorNMEA    $TIROT,0.79,A*05
 
6.75177         MSG_UDP              iDivisorNMEA    $MXPGN,00FF16,7808,FF0000002B0A9F41*1B
 
6.77104         MSG_UDP              iDivisorNMEA    $MXPGN,00FF19,7808,0000000202009F41*15
 
6.78225         MSG_UDP              iDivisorNMEA    $GPGGA,,2254.75639,S,04309.53839,W,1,,,,M,,M,,*56
 
6.78309         MSG_UDP              iDivisorNMEA    $GPGLL,2254.75639,S,04309.53839,W,,A,A*4D
 
6.79337         MSG_UDP              iDivisorNMEA    $GPVTG,281.40,T,,M,0.60,N,1.11,K,A*35
 
6.80360         MSG_UDP              iDivisorNMEA    $AGRSA,-0.84,A,,V*6E
 
6.80367         ANGULO_LEME          iDivisorNMEA    -0.84000     
6.81387         MSG_UDP              iDivisorNMEA    $MXPGN,01F803,281C,0000000002587821*67
 
6.82413         MSG_UDP              iDivisorNMEA    $MXPGN,01F804,281C,0000004B3DC17821*1C
 
6.83445         MSG_UDP              iDivisorNMEA    $MXPGN,00FF19,7808,0080000A0A009F41*1D
 
6.84474         MSG_UDP              iDivisorNMEA    $HCHDG,284.8,0.0,E,23.3,W*64
 
6.85500         MSG_UDP              iDivisorNMEA    $GPHDT,261.46,T*02
 
6.86531         MSG_UDP              iDivisorNMEA    $TIROT,0.79,A*05
 
6.87563         MSG_UDP              iDivisorNMEA    $MXPGN,00FF00,280B,0002000005049913*19
 
6.88597         MSG_UDP              iDivisorNMEA    $MXPGN,00FF8C,6808,FFF10695C9409F41*64
 
6.89627         MSG_UDP              iDivisorNMEA    $AGRSA,-0.84,A,,V*6E
 
6.89641         ANGULO_LEME          iDivisorNMEA    -0.84000     
6.90657         MSG_UDP              iDivisorNMEA    $GPZDA,132019.270,07,03,2023,,*5C
 
6.91686         MSG_UDP              iDivisorNMEA    $MXPGN,01F803,281C,0000000002588C22*10
 
6.92719         MSG_UDP              iDivisorNMEA    $MXPGN,01F804,281C,0000004B3DC18C22*6B
 
6.93752         MSG_UDP              iDivisorNMEA    $HCHDG,284.8,0.0,E,23.3,W*64
 
6.94777         MSG_UDP              iDivisorNMEA    $GPHDT,261.47,T*03
 
6.95811         MSG_UDP              iDivisorNMEA    $TIROT,0.79,A*05
 
6.98299         MSG_UDP              iDivisorNMEA    $AGRSA,-0.84,A,,V*6E
 
6.98307         ANGULO_LEME          iDivisorNMEA    -0.84000     
6.98619         MSG_UDP              iDivisorNMEA    $MXPGN,01F803,281C,000000000258A023*1B
 
6.99349         MSG_UDP              iDivisorNMEA    $MXPGN,01F804,281C,000000DE79C1A023*6E
 
7.01442         MSG_UDP              iDivisorNMEA    !AIVDM,1,1,,B,B:U7De00e?>W3dLfKf80;waVoP06,0*37
 
7.03357         MSG_UDP              iDivisorNMEA    $HCHDG,284.8,0.0,E,23.3,W*64
 
7.03370         MSG_UDP              iDivisorNMEA    $GPHDT,261.46,T*02
 
7.04396         MSG_UDP              iDivisorNMEA    $TIROT,0.89,A*0A
 
7.06476         MSG_UDP              iDivisorNMEA    !AIVDM,1,1,,B,1:U=<5PP1ntrO9IjqSaBvwvV20Rr,0*41
 
7.06576         MSG_UDP              iDivisorNMEA    $MXPGN,01FF0D,780B,FF030000989005C0*15
 
7.08391         MSG_UDP              iDivisorNMEA    $AGRSA,-0.84,A,,V*6E
 
7.08401         ANGULO_LEME          iDivisorNMEA    -0.84000     
7.08623         MSG_UDP              iDivisorNMEA    $SDDPT,1.77,0.00,*7A
 
7.09644         MSG_UDP              iDivisorNMEA    $MXPGN,01F803,281C,000000000258B424*1B
 
7.10663         MSG_UDP              iDivisorNMEA    $MXPGN,01F804,281C,000000DE79C1B424*6E
 
7.11691         MSG_UDP              iDivisorNMEA    $MXPGN,00FF00,280B,0002000005049913*19
 
7.13473         MSG_UDP              iDivisorNMEA    $HCHDG,284.8,0.0,E,23.3,W*64
 
7.13806         MSG_UDP              iDivisorNMEA    $GPHDT,261.46,T*02
 
7.14834         MSG_UDP              iDivisorNMEA    $TIROT,0.89,A*0A
 
7.18489         MSG_UDP              iDivisorNMEA    $AGRSA,-0.84,A,,V*6E
 
7.18499         ANGULO_LEME          iDivisorNMEA    -0.84000     
7.18785         MSG_UDP              iDivisorNMEA    $MXPGN,01F803,281C,000000000258B424*1B
 
7.19526         MSG_UDP              iDivisorNMEA    $MXPGN,01F804,281C,000000DE79C1B424*6E
 
7.23526         MSG_UDP              iDivisorNMEA    $HCHDG,284.8,0.0,E,23.3,W*64
 
7.23542         MSG_UDP              iDivisorNMEA    $GPHDT,261.46,T*02
 
7.24648         MSG_UDP              iDivisorNMEA    $TIROT,0.89,A*0A
 
7.28470         MSG_UDP              iDivisorNMEA    $GPGSA,A,3,08,10,16,18,21,23,24,26,27,,,,1.88,1.60,1.60*01
 
7.28570         MSG_UDP              iDivisorNMEA    $GPGSV,3,1,09,08,35,230,43,10,43,161,41,16,14,308,41,18,22,078,44*75
 
7.29506         MSG_UDP              iDivisorNMEA    $GPGSV,3,2,09,21,04,227,00,23,19,132,00,24,01,125,00,26,04,343,40*79
 
7.30542         MSG_UDP              iDivisorNMEA    $GPGSV,3,3,09,27,63,265,50*44
 
7.31576         MSG_UDP              iDivisorNMEA    $GPGGA,132019.000,2254.75012,S,04309.53757,W,1,12,0.90,8.71,M,-5.60,M,,*7C
 
7.32615         MSG_UDP              iDivisorNMEA    $GPGLL,2254.75012,S,04309.53757,W,132019.000,A,A*53
 
7.33648         MSG_UDP              iDivisorNMEA    $GPRMC,132019.000,A,2254.75012,S,04309.53757,W,0.00,0.00,070323,23.30,W,A*1A
 
7.34678         MSG_UDP              iDivisorNMEA    $GPVTG,0.00,T,,M,0.00,N,0.00,K,A*3D
 
7.35711         MSG_UDP              iDivisorNMEA    $GPGGA,132020.000,2254.75309,S,04309.53829,W,1,09,1.60,0.85,M,-5.00,M,,*78
 
7.36747         MSG_UDP              iDivisorNMEA    $GPGLL,2254.75309,S,04309.53829,W,132020.000,A,A*56
 
7.37780         MSG_UDP              iDivisorNMEA    $GPRMC,132020.000,A,2254.75309,S,04309.53829,W,0.00,326.31,070323,23.39,W,A*13
 
7.38808         MSG_UDP              iDivisorNMEA    $GPVTG,326.31,T,,M,0.00,N,0.00,K,A*38
 
7.39837         MSG_UDP              iDivisorNMEA    $AGRSA,-0.84,A,,V*6E
 
7.39845         ANGULO_LEME          iDivisorNMEA    -0.84000     
7.40869         MSG_UDP              iDivisorNMEA    $MXPGN,01FA06,681C,8300AA00C8250F00*1D
 
7.41892         MSG_UDP              iDivisorNMEA    $MXPGN,01FA06,681C,008400A9F0100001*1E
 
7.42920         MSG_UDP              iDivisorNMEA    $MXPGN,01FA06,681C,FFFFFFFFFF014402*1F
 
7.43946         MSG_UDP              iDivisorNMEA    $MXPGN,01F803,281C,0000000000000025*63
 
7.60953         MSG_UDP              iDivisorNMEA    $MXPGN,01FF1A,782B,FF010B049F410560*60
 
7.63863         MSG_UDP              iDivisorNMEA    $HCHDG,284.8,0.0,E,23.3,W*64
 
7.63878         MSG_UDP              iDivisorNMEA    $GPHDT,261.45,T*01
 
7.64911         MSG_UDP              iDivisorNMEA    $TIROT,1.09,A*03
 
7.65935         MSG_UDP              iDivisorNMEA    $MXPGN,00FF3C,3808,8000F8FE00009F41*1C
 
7.68896         MSG_UDP              iDivisorNMEA    $AGRSA,-0.84,A,,V*6E
 
7.68903         ANGULO_LEME          iDivisorNMEA    -0.84000     
7.69211         MSG_UDP              iDivisorNMEA    $MXPGN,01F803,281C,000000000000642A*15
 
7.69941         MSG_UDP              iDivisorNMEA    $MXPGN,01F804,281C,000000247EC1642A*14
 
7.73963         MSG_UDP              iDivisorNMEA    $HCHDG,284.8,0.0,E,23.3,W*64
 
7.73974         MSG_UDP              iDivisorNMEA    $GPHDT,261.47,T*03
 
7.75067         MSG_UDP              iDivisorNMEA    $TIROT,1.09,A*03
 
7.76116         MSG_UDP              iDivisorNMEA    $MXPGN,00FF16,7808,FF0000002B0A9F41*1B
 
7.77980         MSG_UDP              iDivisorNMEA    $MXPGN,00FF19,7808,0000000202009F41*15
 
7.79092         MSG_UDP              iDivisorNMEA    $GPGGA,,2254.75639,S,04309.53839,W,1,,,,M,,M,,*56
 
7.79224         MSG_UDP              iDivisorNMEA    $GPGLL,2254.75639,S,04309.53839,W,,A,A*4D
 
7.80284         MSG_UDP              iDivisorNMEA    $GPVTG,281.40,T,,M,0.60,N,1.11,K,A*35
 
7.81314         MSG_UDP              iDivisorNMEA    $AGRSA,-0.84,A,,V*6E
 
7.81320         ANGULO_LEME          iDivisorNMEA    -0.84000     
7.82345         MSG_UDP              iDivisorNMEA    $MXPGN,01F803,281C,000000000000782B*1B
 
7.83373         MSG_UDP              iDivisorNMEA    $MXPGN,01F804,281C,000000DA3BC1782B*1A
 
7.84404         MSG_UDP              iDivisorNMEA    $MXPGN,00FF19,7808,0080000A0A009F41*1D
 
7.85459         MSG_UDP              iDivisorNMEA    $HCHDG,284.8,0.0,E,23.3,W*64
 
7.86501         MSG_UDP              iDivisorNMEA    $GPHDT,261.46,T*02
 
7.87527         MSG_UDP              iDivisorNMEA    $TIROT,1.19,A*02
 
7.88550         MSG_UDP              iDivisorNMEA    $MXPGN,00FF00,280B,0002000005049913*19
 
7.89573         MSG_UDP              iDivisorNMEA    $MXPGN,00FF8C,6808,FFF10695C9409F41*64
 
7.90600         MSG_UDP              iDivisorNMEA    $AGRSA,-0.84,A,,V*6E
 
7.90610         ANGULO_LEME          iDivisorNMEA    -0.84000     
7.91632         MSG_UDP              iDivisorNMEA    $GPZDA,132020.270,07,03,2023,,*56
 
7.92658         MSG_UDP              iDivisorNMEA    $MXPGN,01F803,281C,0000000000008C2C*6E
 
7.93685         MSG_UDP              iDivisorNMEA    $MXPGN,01F804,281C,000000DA3BC18C2C*6F
 
7.94711         MSG_UDP              iDivisorNMEA    $HCHDG,284.8,0.0,E,23.3,W*64
 
7.95739         MSG_UDP              iDivisorNMEA    $GPHDT,261.47,T*03
 
7.96772         MSG_UDP              iDivisorNMEA    $TIROT,1.19,A*02
 
7.99155         MSG_UDP              iDivisorNMEA    $AGRSA,-0.84,A,,V*6E
 
7.99165         ANGULO_LEME          iDivisorNMEA    -0.84000     
7.99465         MSG_UDP              iDivisorNMEA    $MXPGN,01F803,281C,000000000000A02D*63
 
8.00192         MSG_UDP              iDivisorNMEA    $MXPGN,01F804,281C,000000EF00C1A02D*15
 
8.04182         MSG_UDP              iDivisorNMEA    $HCHDG,284.8,0.0,E,23.3,W*64
 
8.04202         MSG_UDP              iDivisorNMEA    $GPHDT,261.46,T*02
 
8.05227         MSG_UDP              iDivisorNMEA    $TIROT,0.89,A*0A
 
8.07315         MSG_UDP              iDivisorNMEA    !AIVDM,1,1,,A,1:U8RjPP2GtrPkQjqO1CQ?v`2D2b,0*19
 
8.07504         MSG_UDP              iDivisorNMEA    $MXPGN,01FF0D,780B,FF030000989005E0*13
 
8.09248         MSG_UDP              iDivisorNMEA    $AGRSA,-0.84,A,,V*6E
 
8.09257         ANGULO_LEME          iDivisorNMEA    -0.84000     
8.09474         MSG_UDP              iDivisorNMEA    $SDDPT,1.78,0.00,*75
 
8.10521         MSG_UDP              iDivisorNMEA    $MXPGN,01F803,281C,000000000000B42E*65
 
8.11549         MSG_UDP              iDivisorNMEA    $MXPGN,01F804,281C,000000EF00C1B42E*13
 
8.12577         MSG_UDP              iDivisorNMEA    $MXPGN,00FF00,280B,0002000005049913*19
 
8.14282         MSG_UDP              iDivisorNMEA    $HCHDG,284.8,0.0,E,23.3,W*64
 
8.14707         MSG_UDP              iDivisorNMEA    $GPHDT,261.45,T*01
 
8.15754         MSG_UDP              iDivisorNMEA    $TIROT,0.89,A*0A
 
8.16783         MSG_UDP              iDivisorNMEA    $MXPGN,01FF22,2808,FF01FFFF9F410CC0*18
 
8.17816         MSG_UDP              iDivisorNMEA    $MXPGN,01FF22,2808,FFFF00000A0039C1*6A
 
8.19300         MSG_UDP              iDivisorNMEA    $AGRSA,-0.84,A,,V*6E
 
8.19307         ANGULO_LEME          iDivisorNMEA    -0.84000     
8.19928         MSG_UDP              iDivisorNMEA    $MXPGN,01F803,281C,000000000000B42E*65
 
8.20975         MSG_UDP              iDivisorNMEA    $MXPGN,01F804,281C,000000EF00C1B42E*13
 
8.24354         MSG_UDP              iDivisorNMEA    $HCHDG,284.8,0.0,E,23.3,W*64
 
8.24367         MSG_UDP              iDivisorNMEA    $GPHDT,261.46,T*02
 
8.25456         MSG_UDP              iDivisorNMEA    $TIROT,0.99,A*0B
 
8.29285         MSG_UDP              iDivisorNMEA    $GPGSA,A,3,08,10,16,18,21,23,24,26,27,,,,1.88,1.60,1.60*01
 
8.29376         MSG_UDP              iDivisorNMEA    $GPGSV,3,1,09,08,35,230,43,10,43,161,41,16,14,308,41,18,22,078,44*75
 
8.30409         MSG_UDP              iDivisorNMEA    $GPGSV,3,2,09,21,04,227,00,23,19,132,00,24,01,125,00,26,04,343,40*79
 
8.31442         MSG_UDP              iDivisorNMEA    $GPGSV,3,3,09,27,63,265,50*44
 
8.32478         MSG_UDP              iDivisorNMEA    $GPGGA,132020.000,2254.75007,S,04309.53767,W,1,12,0.90,8.51,M,-5.60,M,,*73
 
8.33506         MSG_UDP              iDivisorNMEA    $GPGLL,2254.75007,S,04309.53767,W,132020.000,A,A*5E
 
8.34531         MSG_UDP              iDivisorNMEA    $GPRMC,132020.000,A,2254.75007,S,04309.53767,W,0.09,0.00,070323,23.30,W,A*1E
 
8.35560         MSG_UDP              iDivisorNMEA    $GPVTG,0.00,T,,M,0.09,N,0.16,K,A*33
 
8.54586         MSG_UDP              iDivisorNMEA    $HCHDG,284.8,0.0,E,23.3,W*64
 
8.54660         MSG_UDP              iDivisorNMEA    $GPHDT,261.48,T*0C
 
8.55703         MSG_UDP              iDivisorNMEA    $TIROT,1.29,A*01
 
8.56729         MSG_UDP              iDivisorNMEA    $MXPGN,01FF2C,7808,FFFFFFFF9F411720*69
 
8.57751         MSG_UDP              iDivisorNMEA    $MXPGN,01FF2C,7808,FFFF7FFFFFFF7F21*14
 
8.58779         MSG_UDP              iDivisorNMEA    $MXPGN,01FF2C,7808,FF7FFFFFFFFFFF22*66
 
8.59810         MSG_UDP              iDivisorNMEA    $MXPGN,01FF2C,7808,FFFFFFFF7FFFFF23*67
 
8.60838         MSG_UDP              iDivisorNMEA    $MXPGN,00FF3D,6808,7FFFFF0DFFFF9F41*6E
 
8.61864         MSG_UDP              iDivisorNMEA    $AGRSA,-0.84,A,,V*6E
 
8.61871         ANGULO_LEME          iDivisorNMEA    -0.84000     
8.62894         MSG_UDP              iDivisorNMEA    $MXPGN,01F803,281C,0000000000005033*61
 
8.63916         MSG_UDP              iDivisorNMEA    $MXPGN,01F804,281C,0000004F43C15033*61
 
8.64959         MSG_UDP              iDivisorNMEA    $MXPGN,00FF00,280B,0002000005049913*19
 
8.66011         MSG_UDP              iDivisorNMEA    $MXPGN,01FF1A,680B,FF022B849F410580*64
 
8.67058         MSG_UDP              iDivisorNMEA    $MXPGN,00FF3D,6808,0000FF0BFFFF9F41*19
 
8.68095         MSG_UDP              iDivisorNMEA    $MXPGN,01FF1A,782B,FF010B049F410580*6E
 
8.69125         MSG_UDP              iDivisorNMEA    $MXPGN,00FF3D,6808,FFFFFF0CFFFF9F41*18
 
8.70154         MSG_UDP              iDivisorNMEA    $HCHDG,284.8,0.0,E,23.3,W*64
 
8.71191         MSG_UDP              iDivisorNMEA    $GPHDT,261.49,T*0D
 
8.72229         MSG_UDP              iDivisorNMEA    $TIROT,1.19,A*02
 
8.73269         MSG_UDP              iDivisorNMEA    $MXPGN,00FF3D,6808,FFFFFF03FFFF9F41*68
 
8.74315         MSG_UDP              iDivisorNMEA    $MXPGN,00FF3C,3808,8000F8FE00009F41*1C
 
8.75351         MSG_UDP              iDivisorNMEA    $MXPGN,00FF3D,6808,FFFFFF02FFFF9F41*69
 
8.76424         MSG_UDP              iDivisorNMEA    !AIVDM,1,1,,A,1:U85d001;LrM<Ujql0MFJdv0d2d,0*17
 
8.77453         MSG_UDP              iDivisorNMEA    $AGRSA,-0.84,A,,V*6E
 
8.77462         ANGULO_LEME          iDivisorNMEA    -0.84000     
8.78485         MSG_UDP              iDivisorNMEA    $MXPGN,01F803,281C,0000000000006434*61
 
8.79511         MSG_UDP              iDivisorNMEA    $MXPGN,01F804,281C,0000004F43C16434*61
 
8.80537         MSG_UDP              iDivisorNMEA    $HCHDG,284.8,0.0,E,23.3,W*64
 
8.81563         MSG_UDP              iDivisorNMEA    $GPHDT,261.50,T*05
 
8.82596         MSG_UDP              iDivisorNMEA    $TIROT,1.19,A*02
 
8.83624         MSG_UDP              iDivisorNMEA    $MXPGN,00FF16,7808,FF0000002B0A9F41*1B
 
8.84658         MSG_UDP              iDivisorNMEA    $MXPGN,00FF19,7808,0000000202009F41*15
 
8.85687         MSG_UDP              iDivisorNMEA    $GPGGA,,2254.75679,S,04309.53869,W,1,,,,M,,M,,*57
 
8.86717         MSG_UDP              iDivisorNMEA    $GPGLL,2254.75679,S,04309.53869,W,,A,A*4C
 
8.87747         MSG_UDP              iDivisorNMEA    $GPVTG,281.40,T,,M,0.50,N,0.92,K,A*3C
 
8.88776         MSG_UDP              iDivisorNMEA    $AGRSA,-0.84,A,,V*6E
 
8.88782         ANGULO_LEME          iDivisorNMEA    -0.84000     
8.89803         MSG_UDP              iDivisorNMEA    $MXPGN,01F803,281C,0000000000007835*6D
 
8.90829         MSG_UDP              iDivisorNMEA    $MXPGN,01F804,281C,0000000B54C17835*6B
 
8.91854         MSG_UDP              iDivisorNMEA    $MXPGN,00FF19,7808,0080000A0A009F41*1D
 
8.92879         MSG_UDP              iDivisorNMEA    $HCHDG,284.8,0.0,E,23.3,W*64
 
8.93906         MSG_UDP              iDivisorNMEA    $GPHDT,261.49,T*0D
 
8.94935         MSG_UDP              iDivisorNMEA    $TIROT,1.19,A*02
 
8.95961         MSG_UDP              iDivisorNMEA    $MXPGN,00FF00,280B,0002000005049913*19
 
8.96990         MSG_UDP              iDivisorNMEA    $MXPGN,00FF8C,6808,FFF10695C9409F41*64
 
8.98015         MSG_UDP              iDivisorNMEA    $AGRSA,-0.84,A,,V*6E
 
8.98025         ANGULO_LEME          iDivisorNMEA    -0.84000     
8.99051         MSG_UDP              iDivisorNMEA    $GPZDA,132021.270,07,03,2023,,*57
 
9.00074         MSG_UDP              iDivisorNMEA    $MXPGN,01F803,281C,0000000000008C36*1A
 
9.01100         MSG_UDP              iDivisorNMEA    $MXPGN,01F804,281C,0000000B54C18C36*1C
 
9.02128         MSG_UDP              iDivisorNMEA    $HCHDG,284.8,0.0,E,23.3,W*64
 
9.03154         MSG_UDP              iDivisorNMEA    $GPHDT,261.50,T*05
 
9.04181         MSG_UDP              iDivisorNMEA    $TIROT,1.19,A*02
 
9.05211         MSG_UDP              iDivisorNMEA    $AGRSA,-0.84,A,,V*6E
 
9.05217         ANGULO_LEME          iDivisorNMEA    -0.84000     
9.06242         MSG_UDP              iDivisorNMEA    $MXPGN,01F803,281C,0000000000008C36*1A
 
9.07274         MSG_UDP              iDivisorNMEA    $MXPGN,01F804,281C,00000053BDC18C36*6F
 
9.08301         MSG_UDP              iDivisorNMEA    !AIVDM,1,1,,A,1:UPuT001MLrPe1jqpc8UFkp2d2S,0*40
 
9.09328         MSG_UDP              iDivisorNMEA    $HCHDG,284.8,0.0,E,23.3,W*64
 
9.10353         MSG_UDP              iDivisorNMEA    $GPHDT,261.50,T*05
 
9.11383         MSG_UDP              iDivisorNMEA    $TIROT,1.19,A*02
 
9.12410         MSG_UDP              iDivisorNMEA    $MXPGN,01FF0D,780B,FF03000098900500*66
 
9.13439         MSG_UDP              iDivisorNMEA    $AGRSA,-0.84,A,,V*6E
 
9.13449         ANGULO_LEME          iDivisorNMEA    -0.84000     
9.14472         MSG_UDP              iDivisorNMEA    $SDDPT,1.78,0.00,*75
 
9.15495         MSG_UDP              iDivisorNMEA    $MXPGN,01F803,281C,0000000000008C36*1A
 
9.16523         MSG_UDP              iDivisorNMEA    $MXPGN,01F804,281C,00000053BDC18C36*6F
 
9.17552         MSG_UDP              iDivisorNMEA    $MXPGN,00FF00,280B,0002000005049913*19
 
9.18577         MSG_UDP              iDivisorNMEA    $MXPGN,01FF1A,782B,FFFAFF859F4105A0*6A
 
9.40492         MSG_UDP              iDivisorNMEA    $MXPGN,01F803,281C,000000000000143A*13
 
9.40559         MSG_UDP              iDivisorNMEA    $MXPGN,01F804,281C,000000CD8DC1143A*1D
 
