%%%%%%%%%%%%%%%%%%%%%%%%%%%%%%%%%%%%%%%%%%%%%%%%%%%%%%%%%%%
%% LOG FILE:       /home/moos-ivp-douglas/log/teste_6_3_2023_____23_55_36/teste_6_3_2023_____23_55_36.alog
%% FILE OPENED ON  Wed Dec 31 21:00:00 1969
%% LOGSTART           1678157735.491723
%%%%%%%%%%%%%%%%%%%%%%%%%%%%%%%%%%%%%%%%%%%%%%%%%%%%%%%%%%%
-0.04424        MOOS_DEBUG           pHelmIvP        pHelmIvP AllStop: ManualOverride 
-0.04423        DESIRED_SPEED        pHelmIvP        0.00000      
-0.04422        DESIRED_HEADING      pHelmIvP        0.00000      
0.15637         DESIRED_RUDDER       pMarinePIDV22   0.00000      
0.15637         DESIRED_THRUST       pMarinePIDV22   0.00000      
0.65329         ANGULO_LEME          iDivisorNMEA    4.07000      
0.69401         MSG_UDP              iDivisorNMEA    $TIROT,-0.49,A*2B 
0.70415         MSG_UDP              iDivisorNMEA    $MXPGN,00FF00,280B,0002000005049913*19 
0.71435         MSG_UDP              iDivisorNMEA    $AGRSA,4.07,A,,V*4C 
0.71440         ANGULO_LEME          iDivisorNMEA    4.07000      
0.72457         MSG_UDP              iDivisorNMEA    $MXPGN,01F803,281C,000000000000288D*12 
0.73747         MSG_UDP              iDivisorNMEA    $MXPGN,01F804,281C,0000008D83C1288D*10 
0.74756         MSG_UDP              iDivisorNMEA    !AIVDM,1,1,,B,3:U8l=QP00LrOiMjsCBesHjP0lj:,0*34 
0.75772         MSG_UDP              iDivisorNMEA    $HCHDG,285.2,0.0,E,23.3,W*6F 
0.76802         MSG_UDP              iDivisorNMEA    $GPHDT,261.87,T*0F 
0.77821         MSG_UDP              iDivisorNMEA    $TIROT,-0.49,A*2B 
0.78842         MSG_UDP              iDivisorNMEA    $MXPGN,01FF2C,7808,FFFFFFFF9F4117C0*18 
0.79854         MSG_UDP              iDivisorNMEA    $MXPGN,01FF2C,7808,FFFF7FFFFFFF7FC1*65 
0.80880         MSG_UDP              iDivisorNMEA    $MXPGN,01FF2C,7808,FF7FFFFFFFFFFFC2*17 
0.81914         MSG_UDP              iDivisorNMEA    $MXPGN,01FF2C,7808,FFFFFFFF7FFFFFC3*16 
0.82931         MSG_UDP              iDivisorNMEA    $AGRSA,4.07,A,,V*4C 
0.82935         ANGULO_LEME          iDivisorNMEA    4.07000      
0.83941         MSG_UDP              iDivisorNMEA    $MXPGN,01F803,281C,0000000000003C8E*69 
0.84964         MSG_UDP              iDivisorNMEA    $MXPGN,01F804,281C,0000008D83C13C8E*6B 
0.85978         MSG_UDP              iDivisorNMEA    $MXPGN,00FF3D,6808,7FFFFF0DFFFF9F41*6E 
0.87000         MSG_UDP              iDivisorNMEA    $HCHDG,285.2,0.0,E,23.3,W*6F 
0.88017         MSG_UDP              iDivisorNMEA    $GPHDT,261.86,T*0E 
0.89035         MSG_UDP              iDivisorNMEA    $TIROT,-0.49,A*2B 
0.90057         MSG_UDP              iDivisorNMEA    $MXPGN,00FF28,3808,FF08FFFEFC059F41*18 
0.91082         MSG_UDP              iDivisorNMEA    $AGRSA,4.07,A,,V*4C 
0.91087         ANGULO_LEME          iDivisorNMEA    4.07000      
0.92104         MSG_UDP              iDivisorNMEA    $MXPGN,01F803,281C,000000000000508F*1F 
0.93124         MSG_UDP              iDivisorNMEA    $MXPGN,01F804,281C,0000003FABC1508F*1C 
0.94149         MSG_UDP              iDivisorNMEA    $MXPGN,01FF1A,680B,FF022B849F4105E0*19 
0.95170         MSG_UDP              iDivisorNMEA    !AIVDM,1,1,,A,1:U7GeSP00LrH4ujplOUKOvT2@:V,0*0D 
0.96199         MSG_UDP              iDivisorNMEA    $MXPGN,00FF00,280B,0002000005049913*19 
0.97222         MSG_UDP              iDivisorNMEA    $MXPGN,01FF0D,780B,FF03000098900560*60 
0.98233         MSG_UDP              iDivisorNMEA    $MXPGN,01FF1A,782B,FF010B049F4105A0*17 
0.99254         MSG_UDP              iDivisorNMEA    $HCHDG,285.2,0.0,E,23.3,W*6F 
1.00274         MSG_UDP              iDivisorNMEA    $GPHDT,261.86,T*0E 
1.01288         MSG_UDP              iDivisorNMEA    $TIROT,-0.49,A*2B 
1.02308         MSG_UDP              iDivisorNMEA    $GPGGA,130118.000,2254.75201,S,04309.53974,W,1,12,1.30,4.25,M,-5.60,M,,*77 
1.03335         MSG_UDP              iDivisorNMEA    $GPGLL,2254.75201,S,04309.53974,W,130118.000,A,A*5E 
1.04361         MSG_UDP              iDivisorNMEA    $GPRMC,130118.000,A,2254.75201,S,04309.53974,W,,,060323,23.30,W,A*16 
1.05693         MSG_UDP              iDivisorNMEA    $GPVTG,,T,,M,,N,,K,A*23 
1.06711         MSG_UDP              iDivisorNMEA    $AGRSA,4.07,A,,V*4C 
1.06717         ANGULO_LEME          iDivisorNMEA    4.07000      
1.07726         MSG_UDP              iDivisorNMEA    $MXPGN,01F803,281C,0000000000006490*6F 
1.08737         MSG_UDP              iDivisorNMEA    $MXPGN,01F804,281C,0000003FABC16490*6C 
1.09752         MSG_UDP              iDivisorNMEA    $MXPGN,00FF19,7808,0000000202009F41*15 
1.10800         MSG_UDP              iDivisorNMEA    $MXPGN,00FF19,7808,0080000A0A009F41*1D 
1.11820         MSG_UDP              iDivisorNMEA    $HCHDG,285.2,0.0,E,23.3,W*6F 
1.12837         MSG_UDP              iDivisorNMEA    $GPHDT,261.86,T*0E 
1.13874         MSG_UDP              iDivisorNMEA    $TIROT,-0.29,A*2D 
1.14894         MSG_UDP              iDivisorNMEA    $GPGSA,A,3,27,86,,,,,,,,,,,,,*17 
1.15915         MSG_UDP              iDivisorNMEA    $GPGSV,3,1,12,27,59,242,36,86,54,167,38,10,50,173,,16,20,299,*72 
1.16932         MSG_UDP              iDivisorNMEA    $GPGSV,3,2,12,18,27,089,,26,09,336,,28,08,015,,32,68,024,*72 
1.17954         MSG_UDP              iDivisorNMEA    $GPGSV,3,3,12,22,00,000,,74,00,000,,67,00,000,,65,00,000,*7B 
1.18977         MSG_UDP              iDivisorNMEA    $MXPGN,00FF8C,6808,FFF10695C9409F41*64 
1.20017         MSG_UDP              iDivisorNMEA    $MXPGN,00FF3C,3808,8000F8FE00009F41*1C 
1.21029         MSG_UDP              iDivisorNMEA    $GPGGA,,21444.9018,N,21444.90188,E,1,,,,M,,M,,*54 
1.22049         MSG_UDP              iDivisorNMEA    $GPGLL,21444.9018,N,21444.90188,E,,A,A*4F 
1.23083         MSG_UDP              iDivisorNMEA    $GPVTG,,T,,M,,N,,K,A*23 
1.24105         MSG_UDP              iDivisorNMEA    $AGRSA,4.07,A,,V*4C 
1.24110         ANGULO_LEME          iDivisorNMEA    4.07000      
1.25136         MSG_UDP              iDivisorNMEA    $MXPGN,01F803,281C,0000000000007891*63 
1.26168         MSG_UDP              iDivisorNMEA    $MXPGN,01F804,281C,0000003FABC17891*60 
1.27208         MSG_UDP              iDivisorNMEA    $HCHDG,285.2,0.0,E,23.3,W*6F 
1.28224         MSG_UDP              iDivisorNMEA    $GPHDT,261.86,T*0E 
1.29266         MSG_UDP              iDivisorNMEA    $TIROT,-0.29,A*2D 
1.30298         MSG_UDP              iDivisorNMEA    $MXPGN,00FF00,280B,0002000005049913*19 
1.31318         MSG_UDP              iDivisorNMEA    $MXPGN,00FF16,7808,FF0000002B0A9F41*1B 
1.32347         MSG_UDP              iDivisorNMEA    $AGRSA,4.07,A,,V*4C 
1.32353         ANGULO_LEME          iDivisorNMEA    4.07000      
1.33586         MSG_UDP              iDivisorNMEA    $HCHDG,285.1,0.0,E,23.3,W*6C 
1.34605         MSG_UDP              iDivisorNMEA    $GPHDT,261.83,T*0B 
1.35623         MSG_UDP              iDivisorNMEA    $TIROT,0.69,A*04 
1.36795         MSG_UDP              iDivisorNMEA    $AGRSA,4.07,A,,V*4C 
1.36802         ANGULO_LEME          iDivisorNMEA    4.07000      
1.37817         MSG_UDP              iDivisorNMEA    $MXPGN,01F803,281C,0000000000001496*6E 
1.38833         MSG_UDP              iDivisorNMEA    $MXPGN,01F804,281C,FFFF9D36C7C11496*17 
1.39918         MSG_UDP              iDivisorNMEA    $HCHDG,285.1,0.0,E,23.3,W*6C 
1.40939         MSG_UDP              iDivisorNMEA    $GPHDT,261.83,T*0B 
1.41959         MSG_UDP              iDivisorNMEA    $TIROT,-0.09,A*2F 
1.43158         MSG_UDP              iDivisorNMEA    $MXPGN,00FF00,280B,0002000005049913*19 
1.44181         MSG_UDP              iDivisorNMEA    $AGRSA,4.07,A,,V*4C 
1.44187         ANGULO_LEME          iDivisorNMEA    4.07000      
1.45200         MSG_UDP              iDivisorNMEA    $MXPGN,01F803,281C,0000000000002897*60 
1.46327         MSG_UDP              iDivisorNMEA    $MXPGN,01F804,281C,FFFF9DEF55C12897*6B 
1.47347         MSG_UDP              iDivisorNMEA    !AIVDM,1,1,,A,1:U8?M0P2`trR01jpuUKvgvR20S>,0*7E 
1.48365         MSG_UDP              iDivisorNMEA    $HCHDG,285.1,0.0,E,23.3,W*6C 
1.49401         MSG_UDP              iDivisorNMEA    $GPHDT,261.82,T*0A 
1.50753         MSG_UDP              iDivisorNMEA    $TIROT,-0.09,A*2F 
1.51768         MSG_UDP              iDivisorNMEA    $MXPGN,01FF2C,7808,FFFFFFFF9F4117E0*1E 
1.52789         MSG_UDP              iDivisorNMEA    $MXPGN,01FF2C,7808,FFFF7FFFFFFF7FE1*63 
1.53811         MSG_UDP              iDivisorNMEA    $MXPGN,01FF2C,7808,FF7FFFFFFFFFFFE2*11 
1.54825         MSG_UDP              iDivisorNMEA    $MXPGN,01FF2C,7808,FFFFFFFF7FFFFFE3*10 
1.55837         MSG_UDP              iDivisorNMEA    $AGRSA,4.07,A,,V*4C 
1.55846         ANGULO_LEME          iDivisorNMEA    4.07000      
1.56851         MSG_UDP              iDivisorNMEA    $MXPGN,01F803,281C,0000000000003C98*15 
1.57870         MSG_UDP              iDivisorNMEA    $MXPGN,01F804,281C,FFFF9DEF55C13C98*1E 
1.58893         MSG_UDP              iDivisorNMEA    $MXPGN,00FF3D,6808,7FFFFF0DFFFF9F41*6E 
1.59913         MSG_UDP              iDivisorNMEA    $HCHDG,285.1,0.0,E,23.3,W*6C 
1.60934         MSG_UDP              iDivisorNMEA    $GPHDT,261.81,T*09 
1.61974         MSG_UDP              iDivisorNMEA    $TIROT,-0.19,A*2E 
1.62995         MSG_UDP              iDivisorNMEA    $MXPGN,00FF28,3808,FF08FFFEFC059F41*18 
1.64005         MSG_UDP              iDivisorNMEA    $AGRSA,4.07,A,,V*4C 
1.64012         ANGULO_LEME          iDivisorNMEA    4.07000      
1.65370         MSG_UDP              iDivisorNMEA    $MXPGN,01F803,281C,0000000000005099*61 
1.66443         MSG_UDP              iDivisorNMEA    $MXPGN,01F804,281C,000000224BC15099*62 
1.67463         MSG_UDP              iDivisorNMEA    $MXPGN,01FF1A,680B,FF022B849F410500*6C 
1.68568         MSG_UDP              iDivisorNMEA    $MXPGN,01FF1A,782B,FF010B049F4105C0*15 
1.69612         MSG_UDP              iDivisorNMEA    $MXPGN,00FF00,280B,0002000005049913*19 
1.70643         MSG_UDP              iDivisorNMEA    $HCHDG,285.1,0.0,E,23.3,W*6C 
1.71665         MSG_UDP              iDivisorNMEA    $GPHDT,261.81,T*09 
1.72698         MSG_UDP              iDivisorNMEA    $TIROT,-0.19,A*2E 
1.73715         MSG_UDP              iDivisorNMEA    $GPGGA,130119.000,2254.75222,S,04309.53986,W,1,11,1.30,6.68,M,-5.60,M,,*72 
1.74742         MSG_UDP              iDivisorNMEA    $GPGLL,2254.75222,S,04309.53986,W,130119.000,A,A*53 
1.75759         MSG_UDP              iDivisorNMEA    $GPRMC,130119.000,A,2254.75222,S,04309.53986,W,0.09,0.00,060323,23.30,W,A*12 
1.76778         MSG_UDP              iDivisorNMEA    $GPVTG,0.00,T,,M,0.09,N,0.16,K,A*33 
1.77801         MSG_UDP              iDivisorNMEA    $AGRSA,4.07,A,,V*4C 
1.77804         ANGULO_LEME          iDivisorNMEA    4.07000      
1.78816         MSG_UDP              iDivisorNMEA    $MXPGN,01F803,281C,000000000000649A*1E 
1.79835         MSG_UDP              iDivisorNMEA    $MXPGN,01F804,281C,000000224BC1649A*1D 
1.80855         MSG_UDP              iDivisorNMEA    $MXPGN,00FF19,7808,0000000202009F41*15 
1.81898         MSG_UDP              iDivisorNMEA    $MXPGN,00FF19,7808,0080000A0A009F41*1D 
1.82918         MSG_UDP              iDivisorNMEA    $HCHDG,285.1,0.0,E,23.3,W*6C 
1.83924         MSG_UDP              iDivisorNMEA    $GPHDT,261.80,T*08 
1.84963         MSG_UDP              iDivisorNMEA    $TIROT,-0.49,A*2B 
1.85977         MSG_UDP              iDivisorNMEA    $GPGSA,A,3,27,86,,,,,,,,,,,2.40,2.00,2.00*0F 
1.86995         MSG_UDP              iDivisorNMEA    $GPGSV,3,1,11,27,59,242,37,86,54,167,38,10,50,173,,16,20,299,*70 
1.88060         MSG_UDP              iDivisorNMEA    $GPGSV,3,2,11,18,27,089,,26,09,336,,28,08,015,,32,68,024,*71 
1.89075         MSG_UDP              iDivisorNMEA    $GPGSV,3,3,11,22,00,000,,71,66,177,,72,52,310,*4E 
1.90103         MSG_UDP              iDivisorNMEA    $MXPGN,01FF0D,780B,FF03000098900580*6E 
1.91520         MSG_UDP              iDivisorNMEA    $MXPGN,00FF8C,6808,FFF10695C9409F41*64 
1.92616         MSG_UDP              iDivisorNMEA    $MXPGN,00FF3C,3808,8000F8FE00009F41*1C 
1.93629         MSG_UDP              iDivisorNMEA    $GPGGA,,21444.9018,N,21444.90188,E,1,,,,M,,M,,*54 
1.94653         MSG_UDP              iDivisorNMEA    $GPGLL,21444.9018,N,21444.90188,E,,A,A*4F 
1.95691         MSG_UDP              iDivisorNMEA    $GPVTG,,T,,M,,N,,K,A*23 
1.96715         MSG_UDP              iDivisorNMEA    $AGRSA,4.07,A,,V*4C 
1.96723         ANGULO_LEME          iDivisorNMEA    4.07000      
1.97795         MSG_UDP              iDivisorNMEA    $MXPGN,01F803,281C,000000000000789B*10 
1.98821         MSG_UDP              iDivisorNMEA    $MXPGN,01F804,281C,000000224BC1789B*13 
1.99832         MSG_UDP              iDivisorNMEA    !AIVDM,1,1,,A,1:U8:OPP1PtrJw1jqJ`9`?vR20RW,0*2A 
2.01138         MSG_UDP              iDivisorNMEA    $MXPGN,00FF00,280B,0002000005049913*19 
2.02773         MSG_UDP              iDivisorNMEA    $GPGGA,130119.800,2254.75309,S,04309.53799,W,1,07,1.89,-1.63,M,-5.00,M,,*50 
2.03807         MSG_UDP              iDivisorNMEA    $GPGLL,2254.75309,S,04309.53799,W,130119.800,A,A*53 
2.05399         MSG_UDP              iDivisorNMEA    $GPRMC,130119.800,A,2254.75309,S,04309.53799,W,0.01,39.97,060323,23.39,W,A*27 
2.06415         MSG_UDP              iDivisorNMEA    $GPVTG,39.97,T,,M,0.01,N,0.01,K,A*09 
2.08018         MSG_UDP              iDivisorNMEA    $HCHDG,285.1,0.0,E,23.3,W*6C 
2.09048         MSG_UDP              iDivisorNMEA    $GPHDT,261.80,T*08 
2.10085         MSG_UDP              iDivisorNMEA    $TIROT,0.39,A*01 
2.11524         MSG_UDP              iDivisorNMEA    $GPGSA,A,3,08,10,16,18,23,24,26,,,,,,2.30,1.89,1.89*07 
2.12563         MSG_UDP              iDivisorNMEA    $GPGSV,2,1,07,08,27,223,00,10,50,173,50,16,19,298,44,18,27,089,46*74 
2.13889         MSG_UDP              iDivisorNMEA    $GPGSV,2,2,07,23,25,139,00,24,02,116,00,26,09,335,43*4E 
2.15214         MSG_UDP              iDivisorNMEA    $MXPGN,01FA06,681C,9000DE00C89F0F00*66 
2.16267         MSG_UDP              iDivisorNMEA    $MXPGN,01FA06,681C,009400DB07DD0001*11 
2.17834         MSG_UDP              iDivisorNMEA    $MXPGN,01FA06,681C,FFFFFFFFFF018202*15 
2.19224         MSG_UDP              iDivisorNMEA    !AIVDO,1,1,,,B:UOH3P3wk?8mP=18D3Q3wwUkP06,0*70 
2.20361         MSG_UDP              iDivisorNMEA    $AGRSA,4.07,A,,V*4C 
2.20365         ANGULO_LEME          iDivisorNMEA    4.07000      
2.21401         MSG_UDP              iDivisorNMEA    $MXPGN,01F803,281C,000000000000009F*1B 
2.22430         MSG_UDP              iDivisorNMEA    $MXPGN,01F804,281C,0000006CD4C1009F*6B 
2.23468         MSG_UDP              iDivisorNMEA    $HCHDG,285.1,0.0,E,23.3,W*6C 
2.25249         MSG_UDP              iDivisorNMEA    $GPHDT,261.79,T*0E 
2.26480         MSG_UDP              iDivisorNMEA    $TIROT,0.39,A*01 
2.27621         MSG_UDP              iDivisorNMEA    $AGRSA,4.07,A,,V*4C 
2.27629         ANGULO_LEME          iDivisorNMEA    4.07000      
2.28642         MSG_UDP              iDivisorNMEA    $MXPGN,01F803,281C,00000000000014A0*10 
2.29655         MSG_UDP              iDivisorNMEA    $MXPGN,01F804,281C,0000006CD4C114A0*60 
2.30677         MSG_UDP              iDivisorNMEA    $MXPGN,01FF1A,782B,FFFAFF859F4105E0*6E 
2.31695         MSG_UDP              iDivisorNMEA    $HCHDG,285.1,0.0,E,23.3,W*6C 
2.32706         MSG_UDP              iDivisorNMEA    $GPHDT,261.79,T*0E 
2.33728         MSG_UDP              iDivisorNMEA    $TIROT,0.19,A*03 
2.34745         MSG_UDP              iDivisorNMEA    $MXPGN,00FF00,280B,0002000005049913*19 
2.35766         MSG_UDP              iDivisorNMEA    $AGRSA,4.07,A,,V*4C 
2.35768         ANGULO_LEME          iDivisorNMEA    4.07000      
2.36791         MSG_UDP              iDivisorNMEA    $MXPGN,01F803,281C,00000000000028A1*1E 
2.37799         MSG_UDP              iDivisorNMEA    $MXPGN,01F804,281C,0000006CA2C128A1*6D 
2.39025         MSG_UDP              iDivisorNMEA    $HCHDG,285.1,0.0,E,23.3,W*6C 
2.40039         MSG_UDP              iDivisorNMEA    $GPHDT,261.81,T*09 
2.41065         MSG_UDP              iDivisorNMEA    $TIROT,0.19,A*03 
2.42091         MSG_UDP              iDivisorNMEA    $MXPGN,01FF2C,7808,FFFFFFFF9F411700*6B 
2.43114         MSG_UDP              iDivisorNMEA    $MXPGN,01FF2C,7808,FFFF7FFFFFFF7F01*16 
2.44137         MSG_UDP              iDivisorNMEA    $MXPGN,01FF2C,7808,FF7FFFFFFFFFFF02*64 
2.45248         MSG_UDP              iDivisorNMEA    $MXPGN,01FF2C,7808,FFFFFFFF7FFFFF03*65 
2.46313         MSG_UDP              iDivisorNMEA    $AGRSA,4.07,A,,V*4C 
2.46322         ANGULO_LEME          iDivisorNMEA    4.07000      
2.47339         MSG_UDP              iDivisorNMEA    $MXPGN,01F803,281C,0000000000003CA2*67 
2.48515         MSG_UDP              iDivisorNMEA    $MXPGN,01F804,281C,0000006CA2C13CA2*14 
2.49625         MSG_UDP              iDivisorNMEA    $MXPGN,00FF3D,6808,7FFFFF0DFFFF9F41*6E 
2.50658         MSG_UDP              iDivisorNMEA    $HCHDG,285.1,0.0,E,23.3,W*6C 
2.51684         MSG_UDP              iDivisorNMEA    $GPHDT,261.82,T*0A 
2.52822         MSG_UDP              iDivisorNMEA    $TIROT,0.29,A*00 
2.53851         MSG_UDP              iDivisorNMEA    $MXPGN,01FF22,2808,FF01FFFF9F410C20*69 
2.55563         MSG_UDP              iDivisorNMEA    $MXPGN,01FF22,2808,FFFFFF000A003A21*63 
2.56598         MSG_UDP              iDivisorNMEA    $MXPGN,00FF28,3808,FF08FFFDFC059F41*19 
2.57626         MSG_UDP              iDivisorNMEA    $AGRSA,4.07,A,,V*4C 
2.57631         ANGULO_LEME          iDivisorNMEA    4.07000      
2.58651         MSG_UDP              iDivisorNMEA    $MXPGN,01F803,281C,00000000000050A3*13 
2.59682         MSG_UDP              iDivisorNMEA    $MXPGN,01F804,281C,FFFF9D0514C150A3*1B 
2.60707         MSG_UDP              iDivisorNMEA    $MXPGN,01FF1A,680B,FF022B849F410520*6E 
2.61736         MSG_UDP              iDivisorNMEA    $MXPGN,01FF1A,782B,FF010B049F4105E0*13 
2.62767         MSG_UDP              iDivisorNMEA    $MXPGN,00FF00,280B,0002000005049913*19 
2.63801         MSG_UDP              iDivisorNMEA    $HCHDG,285.1,0.0,E,23.3,W*6C 
2.65266         MSG_UDP              iDivisorNMEA    $GPHDT,261.81,T*09 
2.66297         MSG_UDP              iDivisorNMEA    $TIROT,0.29,A*00 
2.67717         MSG_UDP              iDivisorNMEA    $GPGGA,130120.000,2254.75204,S,04309.53967,W,1,12,1.30,7.53,M,-5.60,M,,*79 
2.68896         MSG_UDP              iDivisorNMEA    $GPGLL,2254.75204,S,04309.53967,W,130120.000,A,A*52 
2.69918         MSG_UDP              iDivisorNMEA    $GPRMC,130120.000,A,2254.75204,S,04309.53967,W,0.19,0.00,060323,23.30,W,A*12 
2.71368         MSG_UDP              iDivisorNMEA    $GPVTG,0.00,T,,M,0.19,N,0.35,K,A*33 
2.72394         MSG_UDP              iDivisorNMEA    $AGRSA,4.07,A,,V*4C 
2.72400         ANGULO_LEME          iDivisorNMEA    4.07000      
2.73676         MSG_UDP              iDivisorNMEA    $MXPGN,01F803,281C,00000000000064A4*13 
2.74690         MSG_UDP              iDivisorNMEA    $HCHDG,285.1,0.0,E,23.3,W*6C 
2.75709         MSG_UDP              iDivisorNMEA    $GPHDT,261.79,T*0E 
2.76874         MSG_UDP              iDivisorNMEA    $TIROT,0.39,A*01 
2.77893         MSG_UDP              iDivisorNMEA    $AGRSA,4.07,A,,V*4C 
2.77899         ANGULO_LEME          iDivisorNMEA    4.07000      
2.78915         MSG_UDP              iDivisorNMEA    $SDDPT,1.85,0.00,*77 
2.79939         MSG_UDP              iDivisorNMEA    $MXPGN,01F803,281C,000000000000A0A7*63 
2.81061         MSG_UDP              iDivisorNMEA    $MXPGN,01F804,281C,FFFF9DA461C1A0A7*19 
2.82081         MSG_UDP              iDivisorNMEA    $MXPGN,00FF00,280B,0002000005049913*19 
2.83207         MSG_UDP              iDivisorNMEA    $GPGGA,130120.600,2254.75309,S,04309.53799,W,1,07,1.89,-1.76,M,-5.00,M,,*50 
2.84248         MSG_UDP              iDivisorNMEA    $GPGLL,2254.75309,S,04309.53799,W,130120.600,A,A*57 
2.85285         MSG_UDP              iDivisorNMEA    $GPRMC,130120.600,A,2254.75309,S,04309.53799,W,0.01,241.10,060323,23.39,W,A*11 
2.86365         MSG_UDP              iDivisorNMEA    $GPVTG,241.10,T,,M,0.01,N,0.01,K,A*3B 
2.88405         MSG_UDP              iDivisorNMEA    $HCHDG,285.1,0.0,E,23.3,W*6C 
2.89436         MSG_UDP              iDivisorNMEA    $GPHDT,261.79,T*0E 
2.90992         MSG_UDP              iDivisorNMEA    $TIROT,0.39,A*01 
2.92022         MSG_UDP              iDivisorNMEA    $GPGSA,A,3,08,10,16,18,23,24,26,,,,,,2.30,1.89,1.89*07 
2.93438         MSG_UDP              iDivisorNMEA    $GPGSV,2,1,07,08,27,223,00,10,50,173,50,16,19,298,44,18,27,089,45*77 
2.94461         MSG_UDP              iDivisorNMEA    $GPGSV,2,2,07,23,25,139,00,24,02,116,00,26,09,335,43*4E 
2.96103         MSG_UDP              iDivisorNMEA    $MXPGN,01FA06,681C,9000DE00C8A70F20*6D 
2.97117         MSG_UDP              iDivisorNMEA    $MXPGN,01FA06,681C,009400DB07DD0021*13 
2.98165         MSG_UDP              iDivisorNMEA    $MXPGN,01FA06,681C,FFFFFFFFFF018222*17 
2.99209         MSG_UDP              iDivisorNMEA    $AGRSA,4.07,A,,V*4C 
2.99215         ANGULO_LEME          iDivisorNMEA    4.07000      
3.00426         MSG_UDP              iDivisorNMEA    $MXPGN,01F803,281C,00000000000014A8*18 
3.01463         MSG_UDP              iDivisorNMEA    $MXPGN,01F804,281C,000000A461C114A8*1F 
3.02486         MSG_UDP              iDivisorNMEA    $HCHDG,285.1,0.0,E,23.3,W*6C 
3.03503         MSG_UDP              iDivisorNMEA    $GPHDT,261.79,T*0E 
3.04531         MSG_UDP              iDivisorNMEA    $TIROT,0.39,A*01 
3.05770         MSG_UDP              iDivisorNMEA    $AGRSA,4.07,A,,V*4C 
3.05773         ANGULO_LEME          iDivisorNMEA    4.07000      
3.06828         MSG_UDP              iDivisorNMEA    $MXPGN,01F803,281C,00000000000028A9*16 
3.07874         MSG_UDP              iDivisorNMEA    $MXPGN,01F804,281C,0000001B27C128A9*15 
3.08919         MSG_UDP              iDivisorNMEA    $HCHDG,285.1,0.0,E,23.3,W*6C 
3.10709         MSG_UDP              iDivisorNMEA    $GPHDT,261.78,T*0F 
3.11886         MSG_UDP              iDivisorNMEA    $TIROT,-0.09,A*2F 
3.13914         MSG_UDP              iDivisorNMEA    $MXPGN,00FF00,280B,0002000005049913*19 
3.15537         MSG_UDP              iDivisorNMEA    $AGRSA,4.07,A,,V*4C 
3.15546         ANGULO_LEME          iDivisorNMEA    4.07000      
3.16576         MSG_UDP              iDivisorNMEA    $MXPGN,01F803,281C,00000000000050AB*62 
3.17706         MSG_UDP              iDivisorNMEA    $MXPGN,01F804,281C,0000006A75C150AB*62 
3.18824         MSG_UDP              iDivisorNMEA    $HCHDG,285.1,0.0,E,23.3,W*6C 
3.20227         MSG_UDP              iDivisorNMEA    $GPHDT,261.77,T*00 
3.21244         MSG_UDP              iDivisorNMEA    $TIROT,-0.19,A*2E 
3.22494         MSG_UDP              iDivisorNMEA    $MXPGN,01FF2C,7808,FFFFFFFF9F411720*69 
3.23517         MSG_UDP              iDivisorNMEA    $MXPGN,01FF2C,7808,FFFF7FFFFFFF7F21*14 
3.24539         MSG_UDP              iDivisorNMEA    $MXPGN,01FF2C,7808,FF7FFFFFFFFFFF22*66 
3.25576         MSG_UDP              iDivisorNMEA    $MXPGN,01FF2C,7808,FFFFFFFF7FFFFF23*67 
3.26602         MSG_UDP              iDivisorNMEA    $AGRSA,4.07,A,,V*4C 
3.26621         ANGULO_LEME          iDivisorNMEA    4.07000      
3.28418         MSG_UDP              iDivisorNMEA    $MXPGN,01F803,281C,00000000000050AB*62 
3.29453         MSG_UDP              iDivisorNMEA    $MXPGN,01F804,281C,0000006A75C150AB*62 
3.31338         MSG_UDP              iDivisorNMEA    $MXPGN,00FF3D,6808,7FFFFF0DFFFF9F41*6E 
3.32374         MSG_UDP              iDivisorNMEA    $HCHDG,285.1,0.0,E,23.3,W*6C 
3.33406         MSG_UDP              iDivisorNMEA    $GPHDT,261.77,T*00 
3.34494         MSG_UDP              iDivisorNMEA    $TIROT,-0.19,A*2E 
3.35526         MSG_UDP              iDivisorNMEA    $MXPGN,00FF28,3808,FF08FFFDFC059F41*19 
3.36607         MSG_UDP              iDivisorNMEA    $AGRSA,4.07,A,,V*4C 
3.36619         ANGULO_LEME          iDivisorNMEA    4.07000      
3.38975         MSG_UDP              iDivisorNMEA    $MXPGN,01F803,281C,00000000000078AD*6E 
3.40024         MSG_UDP              iDivisorNMEA    $MXPGN,01F804,281C,0000003ECFC178AD*68 
3.41207         MSG_UDP              iDivisorNMEA    $MXPGN,01FF1A,680B,FF022B849F410540*68 
3.42221         MSG_UDP              iDivisorNMEA    $MXPGN,01FF1A,782B,FF010B049F410500*66 
3.43847         MSG_UDP              iDivisorNMEA    $MXPGN,00FF00,280B,0002000005049913*19 
3.44864         MSG_UDP              iDivisorNMEA    $HCHDG,285.1,0.0,E,23.3,W*6C 
3.45896         MSG_UDP              iDivisorNMEA    $GPHDT,261.76,T*01 
3.46917         MSG_UDP              iDivisorNMEA    $TIROT,-0.09,A*2F 
3.47942         MSG_UDP              iDivisorNMEA    $GPGGA,130121.000,2254.75223,S,04309.53938,W,1,12,1.30,7.07,M,-5.60,M,,*76 
3.48974         MSG_UDP              iDivisorNMEA    $GPGLL,2254.75223,S,04309.53938,W,130121.000,A,A*5C 
3.50037         MSG_UDP              iDivisorNMEA    $GPRMC,130121.000,A,2254.75223,S,04309.53938,W,0.00,0.00,060323,23.30,W,A*14 
3.51060         MSG_UDP              iDivisorNMEA    $HCHDG,285.0,0.0,E,23.3,W*6D 
3.52074         MSG_UDP              iDivisorNMEA    $GPHDT,261.72,T*05 
3.53175         MSG_UDP              iDivisorNMEA    $TIROT,-0.29,A*2D 
3.54199         MSG_UDP              iDivisorNMEA    !AIVDO,1,1,,,B:UOH3P3wk?8mP=18D3Q3wwUkP06,0*70 
3.55213         MSG_UDP              iDivisorNMEA    $AGRSA,4.07,A,,V*4C 
3.55216         ANGULO_LEME          iDivisorNMEA    4.07000      
3.56251         MSG_UDP              iDivisorNMEA    $MXPGN,01F803,281C,000000000000C8B1*6C 
3.57265         MSG_UDP              iDivisorNMEA    $MXPGN,01F804,281C,0000008D0DC1C8B1*11 
3.58294         MSG_UDP              iDivisorNMEA    $HCHDG,285.0,0.0,E,23.3,W*6D 
3.59317         MSG_UDP              iDivisorNMEA    $GPHDT,261.71,T*06 
3.60828         MSG_UDP              iDivisorNMEA    $TIROT,-0.29,A*2D 
3.62026         MSG_UDP              iDivisorNMEA    $AGRSA,4.07,A,,V*4C 
3.62032         ANGULO_LEME          iDivisorNMEA    4.07000      
3.63107         MSG_UDP              iDivisorNMEA    $SDDPT,1.78,0.00,*75 
3.64125         MSG_UDP              iDivisorNMEA    $MXPGN,01F803,281C,000000000000DCB2*13 
3.65715         MSG_UDP              iDivisorNMEA    $MXPGN,01F804,281C,000000E9A4C1DCB2*6F 
3.66767         MSG_UDP              iDivisorNMEA    $MXPGN,00FF00,280B,0002000005049913*19 
3.67806         MSG_UDP              iDivisorNMEA    $GPGGA,130121.800,2254.75309,S,04309.53799,W,1,07,1.89,-1.76,M,-5.00,M,,*5F 
3.68828         MSG_UDP              iDivisorNMEA    $GPGLL,2254.75309,S,04309.53799,W,130121.800,A,A*58 
3.69845         MSG_UDP              iDivisorNMEA    $GPRMC,130121.800,A,2254.75309,S,04309.53799,W,0.01,342.69,060323,23.39,W,A*12 
3.70882         MSG_UDP              iDivisorNMEA    $GPVTG,342.69,T,,M,0.01,N,0.01,K,A*37 
3.72573         MSG_UDP              iDivisorNMEA    $HCHDG,285.0,0.0,E,23.3,W*6D 
3.73600         MSG_UDP              iDivisorNMEA    $GPHDT,261.70,T*07 
3.74973         MSG_UDP              iDivisorNMEA    $TIROT,-0.69,A*29 
3.76009         MSG_UDP              iDivisorNMEA    $GPGSA,A,3,08,10,16,18,23,24,26,,,,,,2.30,1.89,1.89*07 
3.77025         MSG_UDP              iDivisorNMEA    $GPGSV,2,1,07,08,27,223,00,10,50,173,50,16,19,298,44,18,27,089,45*77 
3.78041         MSG_UDP              iDivisorNMEA    $GPGSV,2,2,07,23,25,139,00,24,02,116,00,26,09,335,43*4E 
3.79057         MSG_UDP              iDivisorNMEA    $MXPGN,01FA06,681C,9000DE00C8B30F40*6C 
3.80083         MSG_UDP              iDivisorNMEA    $MXPGN,01FA06,681C,009400DB07DD0041*15 
3.81270         MSG_UDP              iDivisorNMEA    $MXPGN,01FA06,681C,FFFFFFFFFF018242*11 
3.82317         MSG_UDP              iDivisorNMEA    !AIVDM,1,1,,A,1:U=<5wP00trH>qjq@oJ:Ovb25`4,0*26 
3.83352         MSG_UDP              iDivisorNMEA    $AGRSA,4.07,A,,V*4C 
3.83367         ANGULO_LEME          iDivisorNMEA    4.07000      
3.84373         MSG_UDP              iDivisorNMEA    $MXPGN,01F803,281C,00000000000000B3*15 
3.85769         MSG_UDP              iDivisorNMEA    $MXPGN,01F804,281C,000000E9A4C100B3*69 
3.86818         MSG_UDP              iDivisorNMEA    $HCHDG,285.0,0.0,E,23.3,W*6D 
3.88496         MSG_UDP              iDivisorNMEA    $GPHDT,261.69,T*0F 
3.89515         MSG_UDP              iDivisorNMEA    $TIROT,-0.69,A*29 
3.90945         MSG_UDP              iDivisorNMEA    $AGRSA,4.07,A,,V*4C 
3.90949         ANGULO_LEME          iDivisorNMEA    4.07000      
3.91975         MSG_UDP              iDivisorNMEA    $MXPGN,01F803,281C,00000000000014B4*17 
3.92991         MSG_UDP              iDivisorNMEA    $MXPGN,01F804,281C,000000E9A4C114B4*6B 
3.94084         MSG_UDP              iDivisorNMEA    $HCHDG,285.0,0.0,E,23.3,W*6D 
3.95115         MSG_UDP              iDivisorNMEA    $GPHDT,261.69,T*0F 
3.96141         MSG_UDP              iDivisorNMEA    $TIROT,-0.59,A*2A 
3.97178         MSG_UDP              iDivisorNMEA    $MXPGN,00FF00,280B,0002000005049913*19 
3.98199         MSG_UDP              iDivisorNMEA    $AGRSA,4.07,A,,V*4C 
3.98202         ANGULO_LEME          iDivisorNMEA    4.07000      
3.99239         MSG_UDP              iDivisorNMEA    $MXPGN,01F803,281C,00000000000028B5*19 
4.00287         MSG_UDP              iDivisorNMEA    $MXPGN,01F804,281C,0000005105C128B5*6D 
4.01317         MSG_UDP              iDivisorNMEA    $HCHDG,285.0,0.0,E,23.3,W*6D 
4.02389         MSG_UDP              iDivisorNMEA    $GPHDT,261.68,T*0E 
4.03407         MSG_UDP              iDivisorNMEA    $TIROT,-0.59,A*2A 
4.05012         MSG_UDP              iDivisorNMEA    $MXPGN,01FF2C,7808,FFFFFFFF9F411740*6F 
4.06162         MSG_UDP              iDivisorNMEA    $MXPGN,01FF2C,7808,FFFF7FFFFFFF7F41*12 
4.07458         MSG_UDP              iDivisorNMEA    $MXPGN,01FF2C,7808,FF7FFFFFFFFFFF42*60 
4.08490         MSG_UDP              iDivisorNMEA    $MXPGN,01FF2C,7808,FFFFFFFF7FFFFF43*61 
4.10689         MSG_UDP              iDivisorNMEA    $AGRSA,4.07,A,,V*4C 
4.10696         ANGULO_LEME          iDivisorNMEA    4.07000      
4.11714         MSG_UDP              iDivisorNMEA    $MXPGN,01F803,281C,0000000000003CB6*60 
4.13286         MSG_UDP              iDivisorNMEA    $MXPGN,01F804,281C,0000635105C13CB6*11 
4.14302         MSG_UDP              iDivisorNMEA    $MXPGN,00FF3D,6808,7FFFFF0DFFFF9F41*6E 
4.15455         MSG_UDP              iDivisorNMEA    $MXPGN,00FF3D,6808,0000FF0BFFFF9F41*19 
4.16466         MSG_UDP              iDivisorNMEA    $HCHDG,285.0,0.0,E,23.3,W*6D 
4.17493         MSG_UDP              iDivisorNMEA    $GPHDT,261.67,T*01 
4.19265         MSG_UDP              iDivisorNMEA    $TIROT,-0.59,A*2A 
4.20296         MSG_UDP              iDivisorNMEA    $MXPGN,00FF3D,6808,FFFFFF0CFFFF9F41*18 
4.21318         MSG_UDP              iDivisorNMEA    $MXPGN,00FF3D,6808,FFFFFF03FFFF9F41*68 
4.22337         MSG_UDP              iDivisorNMEA    $MXPGN,00FF28,3808,FF08FFFDFC059F41*19 
4.23370         MSG_UDP              iDivisorNMEA    $AGRSA,4.07,A,,V*4C 
4.23373         ANGULO_LEME          iDivisorNMEA    4.07000      
4.24401         MSG_UDP              iDivisorNMEA    $HCHDG,285.0,0.0,E,23.3,W*6D 
4.25430         MSG_UDP              iDivisorNMEA    $GPHDT,261.70,T*07 
4.26457         MSG_UDP              iDivisorNMEA    $TIROT,0.39,A*01 
4.27485         MSG_UDP              iDivisorNMEA    $MXPGN,00FF00,280B,0002000005049913*19 
4.28498         MSG_UDP              iDivisorNMEA    $MXPGN,00FF16,7808,FF0000002B0A9F41*1B 
4.29524         MSG_UDP              iDivisorNMEA    $AGRSA,4.07,A,,V*4C 
4.29528         ANGULO_LEME          iDivisorNMEA    4.07000      
4.30552         MSG_UDP              iDivisorNMEA    $GPZDA,130122.220,06,03,2023,,*53 
4.31659         MSG_UDP              iDivisorNMEA    $MXPGN,01F803,281C,0000000000008CBA*1C 
4.32680         MSG_UDP              iDivisorNMEA    $MXPGN,01F804,281C,000000F32FC18CBA*68 
4.33700         MSG_UDP              iDivisorNMEA    $HCHDG,285.0,0.0,E,23.3,W*6D 
4.34722         MSG_UDP              iDivisorNMEA    $GPHDT,261.70,T*07 
4.35858         MSG_UDP              iDivisorNMEA    $TIROT,0.39,A*01 
4.36873         MSG_UDP              iDivisorNMEA    $AGRSA,4.07,A,,V*4C 
4.36878         ANGULO_LEME          iDivisorNMEA    4.07000      
4.38460         MSG_UDP              iDivisorNMEA    $MXPGN,01F803,281C,0000000000008CBA*1C 
4.39488         MSG_UDP              iDivisorNMEA    $MXPGN,01F804,281C,000000F32FC18CBA*68 
4.40508         MSG_UDP              iDivisorNMEA    $HCHDG,285.0,0.0,E,23.3,W*6D 
4.41528         MSG_UDP              iDivisorNMEA    $GPHDT,261.68,T*0E 
4.42561         MSG_UDP              iDivisorNMEA    $TIROT,-0.49,A*2B 
4.44008         MSG_UDP              iDivisorNMEA    $AGRSA,4.07,A,,V*4C 
4.44012         ANGULO_LEME          iDivisorNMEA    4.07000      
4.45040         MSG_UDP              iDivisorNMEA    $SDDPT,1.84,0.00,*76 
4.46097         MSG_UDP              iDivisorNMEA    $MXPGN,01F803,281C,000000000000B4BC*13 
4.47113         MSG_UDP              iDivisorNMEA    $MXPGN,01F804,281C,000063AE81C1B4BC*6E 
4.49393         MSG_UDP              iDivisorNMEA    $MXPGN,00FF00,280B,0002000005049913*19 
4.51036         MSG_UDP              iDivisorNMEA    $GPGGA,130122.800,2254.75309,S,04309.53799,W,1,07,1.89,-1.76,M,-5.00,M,,*5C 
4.52075         MSG_UDP              iDivisorNMEA    $GPGLL,2254.75309,S,04309.53799,W,130122.800,A,A*5B 
4.53705         MSG_UDP              iDivisorNMEA    $GPRMC,130122.800,A,2254.75309,S,04309.53799,W,0.01,356.69,060323,23.39,W,A*14 
4.54753         MSG_UDP              iDivisorNMEA    $GPVTG,356.69,T,,M,0.01,N,0.01,K,A*32 
4.55771         MSG_UDP              iDivisorNMEA    $HCHDG,285.0,0.0,E,23.3,W*6D 
4.56791         MSG_UDP              iDivisorNMEA    $GPHDT,261.71,T*06 
4.58625         MSG_UDP              iDivisorNMEA    $TIROT,-0.49,A*2B 
4.59640         MSG_UDP              iDivisorNMEA    $GPGSA,A,3,08,10,16,18,23,24,26,,,,,,2.30,1.89,1.89*07 
4.60639         MSG_UDP              iDivisorNMEA    $GPGSV,2,1,07,08,27,223,00,10,50,173,50,16,19,298,44,18,27,089,45*77 
4.61643         MSG_UDP              iDivisorNMEA    $GPGSV,2,2,07,23,25,139,00,24,02,116,00,26,09,335,43*4E 
4.62660         MSG_UDP              iDivisorNMEA    $MXPGN,01FA06,681C,9000DE00C8BD0F60*19 
4.64294         MSG_UDP              iDivisorNMEA    $MXPGN,01FA06,681C,009400DB07DF0061*15 
4.65323         MSG_UDP              iDivisorNMEA    $MXPGN,01FA06,681C,FFFFFFFFFF018262*13 
4.66905         MSG_UDP              iDivisorNMEA    $AGRSA,4.07,A,,V*4C 
4.66911         ANGULO_LEME          iDivisorNMEA    4.07000      
4.67918         MSG_UDP              iDivisorNMEA    $MXPGN,01F803,281C,00000000000000BD*62 
4.68937         MSG_UDP              iDivisorNMEA    $MXPGN,01F804,281C,000000AE81C100BD*1A 
4.69954         MSG_UDP              iDivisorNMEA    $HCHDG,285.0,0.0,E,23.3,W*6D 
4.70957         MSG_UDP              iDivisorNMEA    $GPHDT,261.72,T*05 
4.72879         MSG_UDP              iDivisorNMEA    $TIROT,-0.49,A*2B 
4.73890         MSG_UDP              iDivisorNMEA    $AGRSA,4.07,A,,V*4C 
4.73896         ANGULO_LEME          iDivisorNMEA    4.07000      
4.75007         MSG_UDP              iDivisorNMEA    $MXPGN,01F803,281C,00000000000014BE*66 
4.76011         MSG_UDP              iDivisorNMEA    $MXPGN,01F804,281C,000000AE81C114BE*1E 
4.77362         MSG_UDP              iDivisorNMEA    $HCHDG,285.0,0.0,E,23.3,W*6D 
4.78422         MSG_UDP              iDivisorNMEA    $GPHDT,261.72,T*05 
4.80154         MSG_UDP              iDivisorNMEA    $TIROT,0.09,A*02 
4.81231         MSG_UDP              iDivisorNMEA    $MXPGN,00FF00,280B,0002000005049913*19 
4.82862         MSG_UDP              iDivisorNMEA    $AGRSA,4.07,A,,V*4C 
4.82869         ANGULO_LEME          iDivisorNMEA    4.07000      
4.83876         MSG_UDP              iDivisorNMEA    $MXPGN,01F803,281C,00000000000028BF*6A 
4.85657         MSG_UDP              iDivisorNMEA    $MXPGN,01F804,281C,0000006D60C128BF*6B 
4.86676         MSG_UDP              iDivisorNMEA    $HCHDG,285.0,0.0,E,23.3,W*6D 
4.88015         MSG_UDP              iDivisorNMEA    $GPHDT,261.74,T*03 
4.89038         MSG_UDP              iDivisorNMEA    $TIROT,0.09,A*02 
4.90049         MSG_UDP              iDivisorNMEA    $MXPGN,01FF2C,7808,FFFFFFFF9F411760*6D 
4.91563         MSG_UDP              iDivisorNMEA    $MXPGN,01FF2C,7808,FFFF7FFFFFFF7F61*10 
4.92591         MSG_UDP              iDivisorNMEA    $MXPGN,01FF2C,7808,FF7FFFFFFFFFFF62*62 
4.93640         MSG_UDP              iDivisorNMEA    $MXPGN,01FF2C,7808,FFFFFFFF7FFFFF63*63 
4.94764         MSG_UDP              iDivisorNMEA    $AGRSA,4.07,A,,V*4C 
4.94770         ANGULO_LEME          iDivisorNMEA    4.07000      
4.95785         MSG_UDP              iDivisorNMEA    $MXPGN,01F803,281C,0000000000003CC0*67 
4.97704         MSG_UDP              iDivisorNMEA    $MXPGN,01F804,281C,0000006D60C13CC0*66 
4.98725         MSG_UDP              iDivisorNMEA    $MXPGN,00FF3D,6808,7FFFFF0DFFFF9F41*6E 
4.99749         MSG_UDP              iDivisorNMEA    $HCHDG,285.0,0.0,E,23.3,W*6D 
5.01074         MSG_UDP              iDivisorNMEA    $GPRMC,130123.000,A,2254.75235,S,04309.53919,W,0.19,0.00,060323,23.30,W,A*1A 
5.02087         MSG_UDP              iDivisorNMEA    $GPVTG,0.00,T,,M,0.19,N,0.35,K,A*33 
5.04377         MSG_UDP              iDivisorNMEA    $AGRSA,4.07,A,,V*4C 
5.04387         ANGULO_LEME          iDivisorNMEA    4.07000      
5.05403         MSG_UDP              iDivisorNMEA    $MXPGN,01F803,281C,00000000000064C2*17 
5.07363         MSG_UDP              iDivisorNMEA    $MXPGN,01F804,281C,0000636829C164C2*62 
5.08373         MSG_UDP              iDivisorNMEA    $MXPGN,00FF19,7808,0000000202009F41*15 
5.10198         MSG_UDP              iDivisorNMEA    $MXPGN,00FF19,7808,0080000A0A009F41*1D 
5.11215         MSG_UDP              iDivisorNMEA    $HCHDG,285.0,0.0,E,23.3,W*6D 
5.12232         MSG_UDP              iDivisorNMEA    $GPHDT,261.73,T*04 
5.13397         MSG_UDP              iDivisorNMEA    $TIROT,-0.29,A*2D 
5.14417         MSG_UDP              iDivisorNMEA    $MXPGN,01FF1A,782B,FFFAFF859F410560*1D 
5.16415         MSG_UDP              iDivisorNMEA    $GPGSA,A,3,10,16,18,26,27,32,86,,,,,,2.40,2.00,2.00*05 
5.17457         MSG_UDP              iDivisorNMEA    $GPGSV,3,1,12,10,50,173,44,16,20,299,38,18,27,089,40,26,09,336,38*7C 
5.18480         MSG_UDP              iDivisorNMEA    $GPGSV,3,2,12,27,59,242,37,32,68,024,43,86,54,167,38,28,08,015,*7E 
5.19784         MSG_UDP              iDivisorNMEA    $GPGSV,3,3,12,31,04,007,,22,00,000,,85,49,079,,71,66,177,*72 
5.20797         MSG_UDP              iDivisorNMEA    $MXPGN,01FF0D,780B,FF03000098900500*66 
5.22873         MSG_UDP              iDivisorNMEA    $MXPGN,00FF8C,6808,FFF10695C9409F41*64 
5.23915         MSG_UDP              iDivisorNMEA    $MXPGN,00FF3C,3808,8000F8FE00009F41*1C 
5.26113         MSG_UDP              iDivisorNMEA    $GPGGA,,21444.9018,N,21444.90188,E,1,,,,M,,M,,*54 
5.27163         MSG_UDP              iDivisorNMEA    $GPGLL,21444.9018,N,21444.90188,E,,A,A*4F 
5.28753         MSG_UDP              iDivisorNMEA    $GPVTG,,T,,M,,N,,K,A*23 
5.29757         MSG_UDP              iDivisorNMEA    $AGRSA,4.07,A,,V*4C 
5.29761         ANGULO_LEME          iDivisorNMEA    4.07000      
5.30787         MSG_UDP              iDivisorNMEA    $MXPGN,01F803,281C,00000000000078C3*1B 
5.31808         MSG_UDP              iDivisorNMEA    $MXPGN,01F804,281C,0000636829C178C3*6E 
5.33162         MSG_UDP              iDivisorNMEA    $HCHDG,285.0,0.0,E,23.3,W*6D 
5.34177         MSG_UDP              iDivisorNMEA    $GPHDT,261.72,T*05 
5.35201         MSG_UDP              iDivisorNMEA    $TIROT,-0.29,A*2D 
5.36224         MSG_UDP              iDivisorNMEA    $MXPGN,00FF00,280B,0002000005049913*19 
5.37263         MSG_UDP              iDivisorNMEA    $MXPGN,00FF16,7808,FF0000002B0A9F41*1B 
5.38290         MSG_UDP              iDivisorNMEA    $AGRSA,4.07,A,,V*4C 
5.38301         ANGULO_LEME          iDivisorNMEA    4.07000      
5.39646         MSG_UDP              iDivisorNMEA    $GPZDA,130123.220,06,03,2023,,*52 
5.40664         MSG_UDP              iDivisorNMEA    $MXPGN,01F803,281C,0000000000008CC4*68 
5.42421         MSG_UDP              iDivisorNMEA    $MXPGN,01F804,281C,000063045DC18CC4*6D 
5.43439         MSG_UDP              iDivisorNMEA    !AIVDM,1,1,,A,1:U6vLPP00trHeujpdm1`Ovf2<2;,0*30 
5.44802         MSG_UDP              iDivisorNMEA    $HCHDG,285.0,0.0,E,23.3,W*6D 
5.45828         MSG_UDP              iDivisorNMEA    $GPHDT,261.71,T*06 
5.46858         MSG_UDP              iDivisorNMEA    $TIROT,-0.89,A*27 
5.47886         MSG_UDP              iDivisorNMEA    $AGRSA,4.07,A,,V*4C 
5.47898         ANGULO_LEME          iDivisorNMEA    4.07000      
5.49603         MSG_UDP              iDivisorNMEA    $MXPGN,01F803,281C,000000000000A0C5*63 
5.50695         MSG_UDP              iDivisorNMEA    $MXPGN,01F804,281C,000063045DC1A0C5*66 
5.52398         MSG_UDP              iDivisorNMEA    $HCHDG,285.0,0.0,E,23.3,W*6D 
5.53427         MSG_UDP              iDivisorNMEA    $GPHDT,261.70,T*07 
5.54687         MSG_UDP              iDivisorNMEA    $TIROT,-0.89,A*27 
5.55716         MSG_UDP              iDivisorNMEA    $AGRSA,4.07,A,,V*4C 
5.55720         ANGULO_LEME          iDivisorNMEA    4.07000      
5.56735         MSG_UDP              iDivisorNMEA    $SDDPT,1.80,0.00,*72 
5.57736         MSG_UDP              iDivisorNMEA    $MXPGN,01F803,281C,000000000000B4C6*67 
5.58758         MSG_UDP              iDivisorNMEA    $MXPGN,01F804,281C,0000631688C1B4C6*10 
5.59783         MSG_UDP              iDivisorNMEA    $MXPGN,00FF00,280B,0002000005049913*19 
5.60811         MSG_UDP              iDivisorNMEA    $GPGGA,130123.800,2254.75309,S,04309.53799,W,1,07,1.89,-1.63,M,-5.00,M,,*59 
5.61825         MSG_UDP              iDivisorNMEA    $GPGLL,2254.75309,S,04309.53799,W,130123.800,A,A*5A 
5.62838         MSG_UDP              iDivisorNMEA    $GPRMC,130123.800,A,2254.75309,S,04309.53799,W,0.01,33.04,060323,23.39,W,A*2E 
5.63843         MSG_UDP              iDivisorNMEA    $GPVTG,33.04,T,,M,0.01,N,0.01,K,A*09 
5.64854         MSG_UDP              iDivisorNMEA    $HCHDG,285.0,0.0,E,23.3,W*6D 
5.65875         MSG_UDP              iDivisorNMEA    $GPHDT,261.71,T*06 
5.66880         MSG_UDP              iDivisorNMEA    $TIROT,-0.59,A*2A 
5.67896         MSG_UDP              iDivisorNMEA    $GPGSA,A,3,08,10,16,18,23,24,26,,,,,,2.30,1.89,1.89*07 
5.68917         MSG_UDP              iDivisorNMEA    $GPGSV,2,1,07,08,27,223,00,10,50,173,50,16,19,298,44,18,27,089,45*77 
5.69918         MSG_UDP              iDivisorNMEA    $GPGSV,2,2,07,23,25,139,00,24,02,116,00,26,09,335,43*4E 
5.70948         MSG_UDP              iDivisorNMEA    $MXPGN,01FA06,681C,9000DE00C8C70F80*65 
5.71970         MSG_UDP              iDivisorNMEA    $MXPGN,01FA06,681C,009400DB07DF0081*1B 
5.73147         MSG_UDP              iDivisorNMEA    $MXPGN,01FA06,681C,FFFFFFFFFF018282*1D 
5.74174         MSG_UDP              iDivisorNMEA    $AGRSA,4.07,A,,V*4C 
5.74178         ANGULO_LEME          iDivisorNMEA    4.07000      
5.75188         MSG_UDP              iDivisorNMEA    $MXPGN,01F803,281C,00000000000000C7*10 
5.76313         MSG_UDP              iDivisorNMEA    $MXPGN,01F804,281C,0000001688C100C7*62 
5.77327         MSG_UDP              iDivisorNMEA    $AGRSA,4.07,A,,V*4C 
5.77331         ANGULO_LEME          iDivisorNMEA    4.07000      
5.78431         MSG_UDP              iDivisorNMEA    $MXPGN,01F803,281C,00000000000050CB*60 
5.80041         MSG_UDP              iDivisorNMEA    $MXPGN,01F804,281C,00000052E8C150CB*6F 
5.81042         MSG_UDP              iDivisorNMEA    $MXPGN,01FF1A,680B,FF022B849F4105A0*1D 
5.82685         MSG_UDP              iDivisorNMEA    $MXPGN,01FF1A,782B,FF010B049F410560*60 
5.84066         MSG_UDP              iDivisorNMEA    $MXPGN,00FF00,280B,0002000005049913*19 
5.85503         MSG_UDP              iDivisorNMEA    $HCHDG,285.0,0.0,E,23.3,W*6D 
5.86529         MSG_UDP              iDivisorNMEA    $GPHDT,261.69,T*0F 
5.87634         MSG_UDP              iDivisorNMEA    $TIROT,-0.29,A*2D 
5.88635         MSG_UDP              iDivisorNMEA    $GPGGA,130124.000,2254.75243,S,04309.53907,W,1,12,1.30,6.68,M,-5.60,M,,*71 
5.89646         MSG_UDP              iDivisorNMEA    $GPGLL,2254.75243,S,04309.53907,W,130124.000,A,A*53 
5.90670         MSG_UDP              iDivisorNMEA    $GPRMC,130124.000,A,2254.75243,S,04309.53907,W,0.09,0.00,060323,23.30,W,A*12 
5.92020         MSG_UDP              iDivisorNMEA    $GPVTG,0.00,T,,M,0.09,N,0.16,K,A*33 
5.93025         MSG_UDP              iDivisorNMEA    $AGRSA,4.07,A,,V*4C 
5.93029         ANGULO_LEME          iDivisorNMEA    4.07000      
5.95093         MSG_UDP              iDivisorNMEA    $MXPGN,01F803,281C,00000000000064CC*66 
5.96109         MSG_UDP              iDivisorNMEA    $MXPGN,01F804,281C,00000052E8C164CC*69 
5.97219         MSG_UDP              iDivisorNMEA    $MXPGN,00FF19,7808,0000000202009F41*15 
5.99017         MSG_UDP              iDivisorNMEA    $MXPGN,00FF19,7808,0080000A0A009F41*1D 
6.00031         MSG_UDP              iDivisorNMEA    $HCHDG,285.0,0.0,E,23.3,W*6D 
6.01588         MSG_UDP              iDivisorNMEA    $GPHDT,261.69,T*0F 
6.02616         MSG_UDP              iDivisorNMEA    $TIROT,-0.29,A*2D 
6.04556         MSG_UDP              iDivisorNMEA    $GPGSA,A,3,10,16,18,26,27,32,86,,,,,,2.40,2.00,2.00*05 
6.05573         MSG_UDP              iDivisorNMEA    $GPGSV,3,1,12,10,50,173,44,16,20,299,38,18,27,089,40,26,09,336,38*7C 
6.06627         MSG_UDP              iDivisorNMEA    $GPGSV,3,2,12,27,59,242,37,32,68,024,43,86,54,167,38,28,08,015,*7E 
6.07681         MSG_UDP              iDivisorNMEA    $GPGSV,3,3,12,31,04,007,,22,00,000,,85,49,079,,71,66,177,*72 
6.08718         MSG_UDP              iDivisorNMEA    $MXPGN,01FF0D,780B,FF03000098900520*64 
6.09857         MSG_UDP              iDivisorNMEA    $MXPGN,00FF8C,6808,FFF10695C9409F41*64 
6.10887         MSG_UDP              iDivisorNMEA    $MXPGN,00FF3C,3808,8000F8FE00009F41*1C 
6.12569         MSG_UDP              iDivisorNMEA    $GPGGA,,21444.9018,N,21444.90188,E,1,,,,M,,M,,*54 
6.13892         MSG_UDP              iDivisorNMEA    $GPGLL,21444.9018,N,21444.90188,E,,A,A*4F 
6.14897         MSG_UDP              iDivisorNMEA    $GPVTG,,T,,M,,N,,K,A*23 
6.15901         MSG_UDP              iDivisorNMEA    $AGRSA,4.07,A,,V*4C 
6.15903         ANGULO_LEME          iDivisorNMEA    4.07000      
6.16902         MSG_UDP              iDivisorNMEA    $MXPGN,01F803,281C,00000000000078CD*6C 
6.17922         MSG_UDP              iDivisorNMEA    $MXPGN,01F804,281C,00000052E8C178CD*63 
6.18940         MSG_UDP              iDivisorNMEA    $HCHDG,285.0,0.0,E,23.3,W*6D 
6.19958         MSG_UDP              iDivisorNMEA    $GPHDT,261.68,T*0E 
6.20986         MSG_UDP              iDivisorNMEA    $TIROT,-0.29,A*2D 
6.22018         MSG_UDP              iDivisorNMEA    $MXPGN,00FF00,280B,0002000005049913*19 
6.23957         MSG_UDP              iDivisorNMEA    $MXPGN,00FF16,7808,FF0000002B0A9F41*1B 
6.24977         MSG_UDP              iDivisorNMEA    $AGRSA,4.07,A,,V*4C 
6.24982         ANGULO_LEME          iDivisorNMEA    4.07000      
6.26002         MSG_UDP              iDivisorNMEA    $GPZDA,130124.220,06,03,2023,,*55 
6.27237         MSG_UDP              iDivisorNMEA    $MXPGN,01F803,281C,0000000000008CCE*19 
6.28269         MSG_UDP              iDivisorNMEA    $MXPGN,01F804,281C,000000DDEDC18CCE*6D 
6.29276         MSG_UDP              iDivisorNMEA    $HCHDG,285.0,0.0,E,23.3,W*6D 
6.30420         MSG_UDP              iDivisorNMEA    $GPHDT,261.66,T*00 
6.31435         MSG_UDP              iDivisorNMEA    $TIROT,-0.59,A*2A 
6.32902         MSG_UDP              iDivisorNMEA    !AIVDO,1,1,,,B:UOH3P3wk?8mP=18D3Q3wwUkP06,0*70 
6.33928         MSG_UDP              iDivisorNMEA    $AGRSA,4.07,A,,V*4C 
6.33936         ANGULO_LEME          iDivisorNMEA    4.07000      
6.36129         MSG_UDP              iDivisorNMEA    $MXPGN,01F803,281C,000000000000A0CF*10 
6.37163         MSG_UDP              iDivisorNMEA    $MXPGN,01F804,281C,000000DDEDC1A0CF*64 
6.39484         MSG_UDP              iDivisorNMEA    $HCHDG,285.0,0.0,E,23.3,W*6D 
6.40501         MSG_UDP              iDivisorNMEA    $GPHDT,261.66,T*00 
6.41655         MSG_UDP              iDivisorNMEA    $TIROT,-0.59,A*2A 
6.42665         MSG_UDP              iDivisorNMEA    $AGRSA,4.07,A,,V*4C 
6.42671         ANGULO_LEME          iDivisorNMEA    4.07000      
6.43712         MSG_UDP              iDivisorNMEA    $SDDPT,1.84,0.00,*76 
6.45824         MSG_UDP              iDivisorNMEA    $MXPGN,01F803,281C,000000000000B4D0*66 
6.46839         MSG_UDP              iDivisorNMEA    $MXPGN,01F804,281C,0000006457C1B4D0*13 
6.49016         MSG_UDP              iDivisorNMEA    $MXPGN,00FF00,280B,0002000005049913*19 
6.50029         MSG_UDP              iDivisorNMEA    $GPGGA,130124.800,2254.75309,S,04309.53799,W,1,07,1.89,-1.63,M,-5.00,M,,*5E 
6.51380         MSG_UDP              iDivisorNMEA    $GPGLL,2254.75309,S,04309.53799,W,130124.800,A,A*5D 
6.52386         MSG_UDP              iDivisorNMEA    $GPRMC,130124.800,A,2254.75309,S,04309.53799,W,0.01,147.17,060323,23.39,W,A*19 
6.53433         MSG_UDP              iDivisorNMEA    $GPVTG,147.17,T,,M,0.01,N,0.01,K,A*39 
6.54448         MSG_UDP              iDivisorNMEA    $HCHDG,285.0,0.0,E,23.3,W*6D 
6.55467         MSG_UDP              iDivisorNMEA    $GPHDT,261.66,T*00 
6.56478         MSG_UDP              iDivisorNMEA    $AGRSA,4.07,A,,V*4C 
6.56483         ANGULO_LEME          iDivisorNMEA    4.07000      
6.57497         MSG_UDP              iDivisorNMEA    $MXPGN,01F803,281C,0000000000003CD4*64 
6.58499         MSG_UDP              iDivisorNMEA    $MXPGN,01F804,281C,000000A1E8C13CD4*1C 
6.59537         MSG_UDP              iDivisorNMEA    !AIVDM,1,1,,B,1:U8?M0P2dtrQp=jpv@;v?vf2@>K,0*54 
6.61600         MSG_UDP              iDivisorNMEA    $MXPGN,00FF3D,6808,7FFFFF0DFFFF9F41*6E 
6.62621         MSG_UDP              iDivisorNMEA    $HCHDG,285.0,0.0,E,23.3,W*6D 
6.64023         MSG_UDP              iDivisorNMEA    $GPHDT,261.69,T*0F 
6.65037         MSG_UDP              iDivisorNMEA    $TIROT,0.00,A*0B 
6.66057         MSG_UDP              iDivisorNMEA    $MXPGN,00FF28,3808,FF08FFFDFC059F41*19 
6.67101         MSG_UDP              iDivisorNMEA    $AGRSA,4.07,A,,V*4C 
6.67106         ANGULO_LEME          iDivisorNMEA    4.07000      
6.68122         MSG_UDP              iDivisorNMEA    $MXPGN,01F803,281C,00000000000050D5*10 
6.69127         MSG_UDP              iDivisorNMEA    $MXPGN,01F804,281C,0000009B89C150D5*1F 
6.70205         MSG_UDP              iDivisorNMEA    $MXPGN,01FF1A,680B,FF022B849F4105C0*1F 
6.71238         MSG_UDP              iDivisorNMEA    $MXPGN,01FF1A,782B,FF010B049F410580*6E 
6.72269         MSG_UDP              iDivisorNMEA    $HCHDG,285.0,0.0,E,23.3,W*6D 
6.73283         MSG_UDP              iDivisorNMEA    $GPHDT,261.69,T*0F 
6.74945         MSG_UDP              iDivisorNMEA    $TIROT,0.00,A*0B 
6.76284         MSG_UDP              iDivisorNMEA    $MXPGN,00FF00,280B,0002000005049913*19 
6.77683         MSG_UDP              iDivisorNMEA    $GPGGA,130125.000,2254.75246,S,04309.53895,W,1,12,1.30,6.75,M,-5.60,M,,*73 
6.78721         MSG_UDP              iDivisorNMEA    $GPGLL,2254.75246,S,04309.53895,W,130125.000,A,A*5D 
6.79724         MSG_UDP              iDivisorNMEA    $GPRMC,130125.000,A,2254.75246,S,04309.53895,W,0.29,33.29,060323,23.30,W,A*25 
6.80750         MSG_UDP              iDivisorNMEA    $GPVTG,33.29,T,,M,0.29,N,0.53,K,A*0B 
6.81744         MSG_UDP              iDivisorNMEA    $AGRSA,4.07,A,,V*4C 
6.81747         ANGULO_LEME          iDivisorNMEA    4.07000      
6.82776         MSG_UDP              iDivisorNMEA    $MXPGN,01F803,281C,00000000000064D6*14 
6.83895         MSG_UDP              iDivisorNMEA    $MXPGN,01F804,281C,0000009B89C164D6*1B 
6.84933         MSG_UDP              iDivisorNMEA    $MXPGN,00FF19,7808,0000000202009F41*15 
6.86463         MSG_UDP              iDivisorNMEA    $MXPGN,00FF19,7808,0080000A0A009F41*1D 
6.87473         MSG_UDP              iDivisorNMEA    $HCHDG,285.0,0.0,E,23.3,W*6D 
6.88724         MSG_UDP              iDivisorNMEA    $GPHDT,261.70,T*07 
6.89861         MSG_UDP              iDivisorNMEA    $TIROT,-0.09,A*2F 
6.91278         MSG_UDP              iDivisorNMEA    $GPGSA,A,3,10,16,18,26,27,32,86,,,,,,2.40,2.00,2.00*05 
6.92832         MSG_UDP              iDivisorNMEA    $GPGSV,3,1,12,10,50,173,44,16,20,299,38,18,27,089,40,26,09,336,38*7C 
6.93868         MSG_UDP              iDivisorNMEA    $GPGSV,3,2,12,27,59,242,37,32,68,024,43,86,54,167,38,23,26,139,*76 
6.94885         MSG_UDP              iDivisorNMEA    $GPGSV,3,3,12,28,08,015,,31,04,007,,22,00,000,,85,49,079,*73 
6.96201         MSG_UDP              iDivisorNMEA    $MXPGN,01FF0D,780B,FF03000098900540*62 
6.97229         MSG_UDP              iDivisorNMEA    $MXPGN,00FF8C,6808,FFF10695C9409F41*64 
6.98262         MSG_UDP              iDivisorNMEA    $MXPGN,00FF3C,3808,8000F8FE00009F41*1C 
6.99895         MSG_UDP              iDivisorNMEA    $GPGGA,,21444.9018,N,21444.90188,E,1,,,,M,,M,,*54 
7.00915         MSG_UDP              iDivisorNMEA    $GPGLL,21444.9018,N,21444.90188,E,,A,A*4F 
7.02644         MSG_UDP              iDivisorNMEA    $GPVTG,,T,,M,,N,,K,A*23 
7.03665         MSG_UDP              iDivisorNMEA    $AGRSA,4.07,A,,V*4C 
7.03672         ANGULO_LEME          iDivisorNMEA    4.07000      
7.05589         MSG_UDP              iDivisorNMEA    $MXPGN,01F803,281C,00000000000078D7*18 
7.06650         MSG_UDP              iDivisorNMEA    $MXPGN,01F804,281C,0000009B89C178D7*17 
7.07680         MSG_UDP              iDivisorNMEA    $HCHDG,285.0,0.0,E,23.3,W*6D 
7.09291         MSG_UDP              iDivisorNMEA    $GPHDT,261.68,T*0E 
7.10328         MSG_UDP              iDivisorNMEA    $TIROT,-0.09,A*2F 
7.11340         MSG_UDP              iDivisorNMEA    $MXPGN,00FF16,7808,FF0000002B0A9F41*1B 
7.12501         MSG_UDP              iDivisorNMEA    $AGRSA,4.07,A,,V*4C 
7.12507         ANGULO_LEME          iDivisorNMEA    4.07000      
7.13526         MSG_UDP              iDivisorNMEA    $GPZDA,130125.220,06,03,2023,,*54 
7.14767         MSG_UDP              iDivisorNMEA    $MXPGN,01F803,281C,0000000000008CD8*63 
7.15778         MSG_UDP              iDivisorNMEA    $MXPGN,01F804,281C,0000004A49C18CD8*6E 
7.16820         MSG_UDP              iDivisorNMEA    $MXPGN,00FF00,280B,0002000005049913*19 
7.17848         MSG_UDP              iDivisorNMEA    !AIVDM,1,1,,B,1:U6v;gP00LrHV=jpgW:Igwp2h>g,0*10 
7.19456         MSG_UDP              iDivisorNMEA    $HCHDG,285.0,0.0,E,23.3,W*6D 
7.20978         MSG_UDP              iDivisorNMEA    $GPHDT,261.68,T*0E 
7.22005         MSG_UDP              iDivisorNMEA    $TIROT,-0.09,A*2F 
7.23273         MSG_UDP              iDivisorNMEA    $AGRSA,4.07,A,,V*4C 
7.23275         ANGULO_LEME          iDivisorNMEA    4.07000      
7.24702         MSG_UDP              iDivisorNMEA    $MXPGN,01F803,281C,0000000000008CD8*63 
7.25713         MSG_UDP              iDivisorNMEA    $MXPGN,01F804,281C,0000004A49C18CD8*6E 
7.27046         MSG_UDP              iDivisorNMEA    !AIVDO,1,1,,,B:UOH3P3wk?8mP=18D3Q3wwUkP06,0*70 
7.28048         MSG_UDP              iDivisorNMEA    $HCHDG,285.0,0.0,E,23.3,W*6D 
7.29073         MSG_UDP              iDivisorNMEA    $GPHDT,261.68,T*0E 
7.30075         MSG_UDP              iDivisorNMEA    $TIROT,-0.29,A*2D 
7.31080         MSG_UDP              iDivisorNMEA    $AGRSA,4.07,A,,V*4C 
7.31083         ANGULO_LEME          iDivisorNMEA    4.07000      
7.32094         MSG_UDP              iDivisorNMEA    $AGRSA,4.07,A,,V*4C 
7.32098         ANGULO_LEME          iDivisorNMEA    4.07000      
7.33335         MSG_UDP              iDivisorNMEA    $MXPGN,01F803,281C,00000000000028DD*6E 
7.34352         MSG_UDP              iDivisorNMEA    $MXPGN,01F804,281C,0000009706C128DD*13 
7.35364         MSG_UDP              iDivisorNMEA    $MXPGN,00FF00,280B,0002000005049913*19 
7.36371         MSG_UDP              iDivisorNMEA    $HCHDG,285.0,0.0,E,23.3,W*6D 
7.37375         MSG_UDP              iDivisorNMEA    $GPHDT,261.72,T*05 
7.38432         MSG_UDP              iDivisorNMEA    $TIROT,0.19,A*03 
7.39633         MSG_UDP              iDivisorNMEA    $MXPGN,01FF2C,7808,FFFFFFFF9F4117C0*18 
7.40651         MSG_UDP              iDivisorNMEA    $MXPGN,01FF2C,7808,FFFF7FFFFFFF7FC1*65 
7.41682         MSG_UDP              iDivisorNMEA    $MXPGN,01FF2C,7808,FF7FFFFFFFFFFFC2*17 
7.43042         MSG_UDP              iDivisorNMEA    $MXPGN,01FF2C,7808,FFFFFFFF7FFFFFC3*16 
7.44067         MSG_UDP              iDivisorNMEA    $AGRSA,4.07,A,,V*4C 
7.44074         ANGULO_LEME          iDivisorNMEA    4.07000      
7.46183         MSG_UDP              iDivisorNMEA    $MXPGN,01F803,281C,0000000000003CDE*15 
7.47201         MSG_UDP              iDivisorNMEA    $MXPGN,01F804,281C,0000009706C13CDE*68 
7.49683         MSG_UDP              iDivisorNMEA    $MXPGN,00FF3D,6808,7FFFFF0DFFFF9F41*6E 
7.50739         MSG_UDP              iDivisorNMEA    $HCHDG,285.0,0.0,E,23.3,W*6D 
7.52244         MSG_UDP              iDivisorNMEA    $GPHDT,261.70,T*07 
7.53270         MSG_UDP              iDivisorNMEA    $TIROT,-0.09,A*2F 
7.54400         MSG_UDP              iDivisorNMEA    $MXPGN,00FF28,3808,FF08FFFDFC059F41*19 
7.55442         MSG_UDP              iDivisorNMEA    $AGRSA,4.07,A,,V*4C 
7.55449         ANGULO_LEME          iDivisorNMEA    4.07000      
7.56958         MSG_UDP              iDivisorNMEA    $MXPGN,01F803,281C,00000000000050DF*63 
7.58021         MSG_UDP              iDivisorNMEA    $MXPGN,01F804,281C,0000004458C150DF*1B 
7.60131         MSG_UDP              iDivisorNMEA    $MXPGN,01FF1A,680B,FF022B849F4105E0*19 
7.61242         MSG_UDP              iDivisorNMEA    $MXPGN,01FF1A,782B,FF010B049F4105A0*17 
7.63350         MSG_UDP              iDivisorNMEA    $HCHDG,285.0,0.0,E,23.3,W*6D 
7.64356         MSG_UDP              iDivisorNMEA    $GPHDT,261.70,T*07 
7.65779         MSG_UDP              iDivisorNMEA    $TIROT,-0.09,A*2F 
7.66802         MSG_UDP              iDivisorNMEA    $MXPGN,00FF00,280B,0002000005049913*19 
7.68155         MSG_UDP              iDivisorNMEA    $GPGGA,130126.000,2254.75249,S,04309.53869,W,1,12,1.30,6.16,M,-5.60,M,,*79 
7.69182         MSG_UDP              iDivisorNMEA    $GPGLL,2254.75249,S,04309.53869,W,130126.000,A,A*52 
7.70348         MSG_UDP              iDivisorNMEA    $GPRMC,130126.000,A,2254.75249,S,04309.53869,W,0.09,0.00,060323,23.30,W,A*13 
7.71356         MSG_UDP              iDivisorNMEA    $GPVTG,0.00,T,,M,0.09,N,0.16,K,A*33 
7.72367         MSG_UDP              iDivisorNMEA    $AGRSA,4.07,A,,V*4C 
7.72371         ANGULO_LEME          iDivisorNMEA    4.07000      
7.73845         MSG_UDP              iDivisorNMEA    $MXPGN,01F803,281C,00000000000064E0*13 
7.76107         MSG_UDP              iDivisorNMEA    $MXPGN,01F804,281C,0000004458C164E0*6B 
7.77612         MSG_UDP              iDivisorNMEA    $MXPGN,00FF19,7808,0000000202009F41*15 
7.78639         MSG_UDP              iDivisorNMEA    $MXPGN,00FF19,7808,0080000A0A009F41*1D 
7.80251         MSG_UDP              iDivisorNMEA    $HCHDG,285.0,0.0,E,23.3,W*6D 
7.81278         MSG_UDP              iDivisorNMEA    $GPHDT,261.71,T*06 
7.82297         MSG_UDP              iDivisorNMEA    $TIROT,-0.19,A*2E 
7.83315         MSG_UDP              iDivisorNMEA    $GPGSA,A,3,10,16,18,26,27,32,86,,,,,,2.40,2.00,2.00*05 
7.84336         MSG_UDP              iDivisorNMEA    $GPGSV,3,1,12,10,50,173,44,16,20,299,38,18,27,089,40,26,09,336,38*7C 
7.85352         MSG_UDP              iDivisorNMEA    $GPGSV,3,2,12,27,59,242,37,32,68,024,43,86,54,167,38,23,26,139,*76 
