%%%%%%%%%%%%%%%%%%%%%%%%%%%%%%%%%%%%%%%%%%%%%%%%%%%%%%%%%%%
%% LOG FILE:       /home/moos-ivp-douglas/log/teste_7_3_2023_____10_39_57/teste_7_3_2023_____10_39_57.alog
%% FILE OPENED ON  Wed Dec 31 21:00:00 1969
%% LOGSTART           1678196396.720156
%%%%%%%%%%%%%%%%%%%%%%%%%%%%%%%%%%%%%%%%%%%%%%%%%%%%%%%%%%%
-0.04182        MOOS_DEBUG           pHelmIvP        pHelmIvP AllStop: ManualOverride 
-0.04182        DESIRED_SPEED        pHelmIvP        0.00000      
-0.04182        DESIRED_HEADING      pHelmIvP        0.00000      
0.16164         DESIRED_RUDDER       pMarinePIDV22   0.00000      
0.16164         DESIRED_THRUST       pMarinePIDV22   0.00000      
0.66559         ANGULO_LEME          iDivisorNMEA    -0.96000     
0.74699         MSG_UDP              iDivisorNMEA    $MXPGN,00FF3C,3808,8000F8FE00009F41*1C
 
0.75716         MSG_UDP              iDivisorNMEA    $AGRSA,-0.96,A,,V*6D
 
0.75721         ANGULO_LEME          iDivisorNMEA    -0.96000     
0.78172         MSG_UDP              iDivisorNMEA    $HCHDG,283.8,0.0,E,23.3,W*63
 
0.78206         MSG_UDP              iDivisorNMEA    $GPHDT,260.47,T*02
 
0.79229         MSG_UDP              iDivisorNMEA    $TIROT,-0.39,A*2C
 
0.80248         MSG_UDP              iDivisorNMEA    $MXPGN,01FF1A,680B,FF022B849F410500*6C
 
0.81266         MSG_UDP              iDivisorNMEA    $MXPGN,01FF1A,782B,FF010B049F410500*66
 
0.82288         MSG_UDP              iDivisorNMEA    $MXPGN,01F803,281C,000000000000640F*10
 
0.83305         MSG_UDP              iDivisorNMEA    $MXPGN,01F804,281C,00000069CAC1640F*68
 
0.84322         MSG_UDP              iDivisorNMEA    $MXPGN,00FF16,7808,FF0000002B0A9F41*1B
 
0.85342         MSG_UDP              iDivisorNMEA    $AGRSA,-0.96,A,,V*6D
 
0.85344         ANGULO_LEME          iDivisorNMEA    -0.96000     
0.86358         MSG_UDP              iDivisorNMEA    $MXPGN,00FF19,7808,0000000202009F41*15
 
0.87675         MSG_UDP              iDivisorNMEA    $MXPGN,00FF19,7808,0080000A0A009F41*1D
 
0.88391         MSG_UDP              iDivisorNMEA    $HCHDG,283.8,0.0,E,23.3,W*63
 
0.89407         MSG_UDP              iDivisorNMEA    $GPHDT,260.46,T*03
 
0.90425         MSG_UDP              iDivisorNMEA    $TIROT,-0.39,A*2C
 
0.91440         MSG_UDP              iDivisorNMEA    $MXPGN,01F803,281C,0000000000007810*6A
 
0.92460         MSG_UDP              iDivisorNMEA    $MXPGN,01F804,281C,00000069CAC17810*12
 
0.93479         MSG_UDP              iDivisorNMEA    $MXPGN,00FF8C,6808,FFF10695C9409F41*64
 
0.94495         MSG_UDP              iDivisorNMEA    $GPGGA,,2254.75019,S,04309.54069,W,1,,,,M,,M,,*58
 
1.20995         MSG_UDP              iDivisorNMEA    $MXPGN,01F803,281C,000000000000A012*16
 
1.21056         MSG_UDP              iDivisorNMEA    $MXPGN,01F804,281C,0000002A7EC1A012*62
 
1.22090         MSG_UDP              iDivisorNMEA    $MXPGN,00FF00,280B,0002000005049913*19
 
1.23365         MSG_UDP              iDivisorNMEA    $GPGGA,133957.000,2254.75421,S,04309.53670,W,1,12,0.70,6.88,M,-5.60,M,,*78
 
1.24184         MSG_UDP              iDivisorNMEA    $GPGLL,2254.75421,S,04309.53670,W,133957.000,A,A*51
 
1.25202         MSG_UDP              iDivisorNMEA    $GPRMC,133957.000,A,2254.75421,S,04309.53670,W,0.09,0.00,070323,23.30,W,A*11
 
1.26214         MSG_UDP              iDivisorNMEA    $GPVTG,0.00,T,,M,0.09,N,0.16,K,A*33
 
1.27236         MSG_UDP              iDivisorNMEA    $AGRSA,-0.96,A,,V*6D
 
1.27239         ANGULO_LEME          iDivisorNMEA    -0.96000     
1.28266         MSG_UDP              iDivisorNMEA    $SDDPT,1.79,0.00,*74
 
1.29284         MSG_UDP              iDivisorNMEA    $MXPGN,01FF1A,782B,FFFAFF859F410520*19
 
1.30303         MSG_UDP              iDivisorNMEA    $GPGSA,A,3,08,10,16,18,21,27,28,31,32,66,65,86,1.30,0.70,1.10*02
 
1.31323         MSG_UDP              iDivisorNMEA    $GPGSV,3,1,12,08,41,240,37,10,38,152,28,16,10,317,43,18,18,070,33*72
 
1.32344         MSG_UDP              iDivisorNMEA    $GPGSV,3,2,12,21,11,223,25,27,62,289,34,28,19,029,41,31,14,019,44*7A
 
1.33367         MSG_UDP              iDivisorNMEA    $GPGSV,3,3,12,32,77,107,44,66,16,311,44,65,62,261,39,86,29,048,41*7D
 
1.34386         MSG_UDP              iDivisorNMEA    $MXPGN,01FF0D,780B,FF030000989005E0*13
 
1.35401         MSG_UDP              iDivisorNMEA    $HCHDG,283.8,0.0,E,23.3,W*63
 
1.36417         MSG_UDP              iDivisorNMEA    $GPHDT,260.48,T*0D
 
1.37435         MSG_UDP              iDivisorNMEA    $TIROT,-0.29,A*2D
 
1.38451         MSG_UDP              iDivisorNMEA    !AIVDM,1,1,,A,1:U8Qv0sihtrL4=jqiH:j`Qf0@RT,0*2D
 
1.39466         MSG_UDP              iDivisorNMEA    $MXPGN,01F803,281C,000000000000C814*1A
 
1.40483         MSG_UDP              iDivisorNMEA    $MXPGN,01F804,281C,0000008290C1C814*6C
 
1.41502         MSG_UDP              iDivisorNMEA    $AGRSA,-0.96,A,,V*6D
 
1.41505         ANGULO_LEME          iDivisorNMEA    -0.96000     
1.42518         MSG_UDP              iDivisorNMEA    $HCHDG,283.8,0.0,E,23.3,W*63
 
1.43533         MSG_UDP              iDivisorNMEA    $GPHDT,260.50,T*04
 
1.44549         MSG_UDP              iDivisorNMEA    $TIROT,-0.09,A*2F
 
1.45564         MSG_UDP              iDivisorNMEA    $GPGSA,A,3,08,10,16,18,21,23,26,,,,,,2.16,1.79,1.79*06
 
1.46578         MSG_UDP              iDivisorNMEA    $GPGSV,2,1,07,08,40,239,45,10,38,152,34,16,09,316,39,18,17,070,00*7B
 
1.47589         MSG_UDP              iDivisorNMEA    $GPGSV,2,2,07,21,11,222,00,23,14,125,00,26,01,350,00*4E
 
1.48606         MSG_UDP              iDivisorNMEA    $MXPGN,01FA06,681C,9F00B700C8140F40*1A
 
1.49619         MSG_UDP              iDivisorNMEA    $MXPGN,01FA06,681C,00A200B4E64C0041*18
 
1.50633         MSG_UDP              iDivisorNMEA    $MXPGN,01FA06,681C,FFFFFFFFFF016942*14
 
1.51649         MSG_UDP              iDivisorNMEA    $MXPGN,01F803,281C,0000000000000014*61
 
1.52664         MSG_UDP              iDivisorNMEA    $MXPGN,01F804,281C,0000008290C10014*17
 
1.53679         MSG_UDP              iDivisorNMEA    $GPGGA,133958.000,2254.75330,S,04309.53839,W,1,07,1.79,1.04,M,-5.00,M,,*7A
 
1.54694         MSG_UDP              iDivisorNMEA    $GPGLL,2254.75330,S,04309.53839,W,133958.000,A,A*5A
 
1.55711         MSG_UDP              iDivisorNMEA    $GPRMC,133958.000,A,2254.75330,S,04309.53839,W,0.00,62.32,070323,23.39,W,A*2F
 
1.56728         MSG_UDP              iDivisorNMEA    $GPVTG,62.32,T,,M,0.00,N,0.00,K,A*08
 
1.57741         MSG_UDP              iDivisorNMEA    $AGRSA,-0.96,A,,V*6D
 
1.57744         ANGULO_LEME          iDivisorNMEA    -0.96000     
1.58755         MSG_UDP              iDivisorNMEA    $MXPGN,00FF00,280B,0002000005049913*19
 
1.59773         MSG_UDP              iDivisorNMEA    $HCHDG,283.8,0.0,E,23.3,W*63
 
1.60791         MSG_UDP              iDivisorNMEA    $GPHDT,260.50,T*04
 
1.61810         MSG_UDP              iDivisorNMEA    $TIROT,-0.09,A*2F
 
1.62826         MSG_UDP              iDivisorNMEA    $MXPGN,01F803,281C,0000000000002816*69
 
1.63840         MSG_UDP              iDivisorNMEA    $MXPGN,01F804,281C,0000008290C12816*1F
 
1.64854         MSG_UDP              iDivisorNMEA    $MXPGN,00FF28,3808,FF08FFFDFC059F41*19
 
1.65868         MSG_UDP              iDivisorNMEA    $AGRSA,-0.96,A,,V*6D
 
1.65879         ANGULO_LEME          iDivisorNMEA    -0.96000     
1.66891         MSG_UDP              iDivisorNMEA    $HCHDG,283.8,0.0,E,23.3,W*63
 
1.67907         MSG_UDP              iDivisorNMEA    $GPHDT,260.49,T*0C
 
1.68928         MSG_UDP              iDivisorNMEA    $TIROT,-0.19,A*2E
 
1.69946         MSG_UDP              iDivisorNMEA    $MXPGN,01F803,281C,0000000000003C17*12
 
1.70966         MSG_UDP              iDivisorNMEA    $MXPGN,01F804,281C,0000003F88C13C17*12
 
1.71980         MSG_UDP              iDivisorNMEA    !AIVDM,1,1,,B,1:U8JFPP00trUgijq`4Q:Own28R9,0*01
 
1.73017         MSG_UDP              iDivisorNMEA    $MXPGN,01FF2C,7808,FFFFFFFF9F411740*6F
 
1.74039         MSG_UDP              iDivisorNMEA    $MXPGN,01FF2C,7808,FFFF7FFFFFFF7F41*12
 
1.75053         MSG_UDP              iDivisorNMEA    $MXPGN,01FF2C,7808,FF7FFFFFFFFFFF42*60
 
1.76069         MSG_UDP              iDivisorNMEA    $MXPGN,01FF2C,7808,FFFFFFFF7FFFFF43*61
 
1.77083         MSG_UDP              iDivisorNMEA    $AGRSA,-0.96,A,,V*6D
 
1.77087         ANGULO_LEME          iDivisorNMEA    -0.96000     
1.78097         MSG_UDP              iDivisorNMEA    $MXPGN,00FF3D,6808,7FFFFF0DFFFF9F41*6E
 
1.79115         MSG_UDP              iDivisorNMEA    $HCHDG,283.8,0.0,E,23.3,W*63
 
1.80129         MSG_UDP              iDivisorNMEA    $GPHDT,260.49,T*0C
 
1.81143         MSG_UDP              iDivisorNMEA    $TIROT,-0.19,A*2E
 
1.82154         MSG_UDP              iDivisorNMEA    $MXPGN,01F803,281C,0000000000005018*68
 
1.83169         MSG_UDP              iDivisorNMEA    $MXPGN,01F804,281C,0000003F88C15018*68
 
1.84180         MSG_UDP              iDivisorNMEA    $MXPGN,00FF00,280B,0002000005049913*19
 
2.10976         MSG_UDP              iDivisorNMEA    $MXPGN,01F803,281C,0000000000008C1B*6C
 
2.11040         MSG_UDP              iDivisorNMEA    $MXPGN,01F804,281C,00000065E5C18C1B*6A
 
2.13148         MSG_UDP              iDivisorNMEA    $AGRSA,-0.96,A,,V*6D
 
2.13156         ANGULO_LEME          iDivisorNMEA    -0.96000     
2.18160         MSG_UDP              iDivisorNMEA    $HCHDG,283.8,0.0,E,23.3,W*63
 
2.18177         MSG_UDP              iDivisorNMEA    $GPHDT,260.48,T*0D
 
2.19238         MSG_UDP              iDivisorNMEA    $TIROT,0.19,A*03
 
2.20976         MSG_UDP              iDivisorNMEA    $MXPGN,01F803,281C,000000000000A01C*67
 
2.21305         MSG_UDP              iDivisorNMEA    $MXPGN,01F804,281C,00000065E5C1A01C*61
 
2.22353         MSG_UDP              iDivisorNMEA    $MXPGN,00FF00,280B,0002000005049913*19
 
2.23384         MSG_UDP              iDivisorNMEA    $GPGGA,133958.000,2254.75414,S,04309.53677,W,1,12,0.70,6.94,M,-5.60,M,,*7B
 
2.24425         MSG_UDP              iDivisorNMEA    $GPGLL,2254.75414,S,04309.53677,W,133958.000,A,A*5F
 
2.25470         MSG_UDP              iDivisorNMEA    $GPRMC,133958.000,A,2254.75414,S,04309.53677,W,0.19,0.00,070323,23.30,W,A*1E
 
2.26509         MSG_UDP              iDivisorNMEA    $GPVTG,0.00,T,,M,0.19,N,0.35,K,A*33
 
2.27537         MSG_UDP              iDivisorNMEA    $AGRSA,-0.96,A,,V*6D
 
2.27549         ANGULO_LEME          iDivisorNMEA    -0.96000     
2.28571         MSG_UDP              iDivisorNMEA    $SDDPT,1.78,0.00,*75
 
2.29600         MSG_UDP              iDivisorNMEA    $GPGSA,A,3,08,10,16,18,21,27,28,31,32,66,65,86,1.30,0.70,1.10*02
 
2.30640         MSG_UDP              iDivisorNMEA    $GPGSV,3,1,12,08,41,240,37,10,38,152,28,16,10,317,42,18,18,070,34*74
 
2.31682         MSG_UDP              iDivisorNMEA    $GPGSV,3,2,12,21,11,223,24,27,62,289,34,28,19,029,41,31,14,019,44*7B
 
2.32712         MSG_UDP              iDivisorNMEA    $GPGSV,3,3,12,32,77,107,44,66,16,311,44,65,62,261,39,86,29,048,41*7D
 
2.33745         MSG_UDP              iDivisorNMEA    $MXPGN,01FF0D,780B,FF03000098900500*66
 
2.34768         MSG_UDP              iDivisorNMEA    $HCHDG,283.8,0.0,E,23.3,W*63
 
2.35796         MSG_UDP              iDivisorNMEA    $GPHDT,260.46,T*03
 
2.36818         MSG_UDP              iDivisorNMEA    $TIROT,0.29,A*00
 
2.37844         MSG_UDP              iDivisorNMEA    $MXPGN,01F803,281C,000000000000A01C*67
 
2.38872         MSG_UDP              iDivisorNMEA    $MXPGN,01F804,281C,00000065E5C1A01C*61
 
2.39897         MSG_UDP              iDivisorNMEA    $AGRSA,-0.96,A,,V*6D
 
2.39902         ANGULO_LEME          iDivisorNMEA    -0.96000     
2.40925         MSG_UDP              iDivisorNMEA    $HCHDG,283.8,0.0,E,23.3,W*63
 
2.41965         MSG_UDP              iDivisorNMEA    $GPHDT,260.46,T*03
 
2.42990         MSG_UDP              iDivisorNMEA    $TIROT,0.29,A*00
 
2.44013         MSG_UDP              iDivisorNMEA    $GPGSA,A,3,08,10,16,18,21,23,26,,,,,,2.16,1.79,1.79*06
 
2.45028         MSG_UDP              iDivisorNMEA    $GPGSV,2,1,07,08,40,239,45,10,38,152,34,16,09,316,39,18,17,070,00*7B
 
2.46047         MSG_UDP              iDivisorNMEA    $GPGSV,2,2,07,21,11,222,00,23,14,125,00,26,01,350,00*4E
 
2.47071         MSG_UDP              iDivisorNMEA    $MXPGN,01FA06,681C,9F00B700C81D0F60*68
 
2.48093         MSG_UDP              iDivisorNMEA    $MXPGN,01FA06,681C,00A200B4E64C0061*1A
 
2.49108         MSG_UDP              iDivisorNMEA    $MXPGN,01FA06,681C,FFFFFFFFFF016962*16
 
2.50124         MSG_UDP              iDivisorNMEA    $MXPGN,01F803,281C,000000000000001D*11
 
2.51148         MSG_UDP              iDivisorNMEA    $MXPGN,01F804,281C,00000065E5C1001D*17
 
2.52163         MSG_UDP              iDivisorNMEA    $GPGGA,133958.900,2254.75330,S,04309.53839,W,1,07,1.79,1.04,M,-5.00,M,,*73
 
2.53179         MSG_UDP              iDivisorNMEA    $GPGLL,2254.75330,S,04309.53839,W,133958.900,A,A*53
 
2.54199         MSG_UDP              iDivisorNMEA    $GPRMC,133958.900,A,2254.75330,S,04309.53839,W,0.01,149.45,070323,23.39,W,A*1F
 
2.55214         MSG_UDP              iDivisorNMEA    $GPVTG,149.45,T,,M,0.01,N,0.01,K,A*30
 
2.56235         MSG_UDP              iDivisorNMEA    $AGRSA,-0.96,A,,V*6D
 
2.56243         ANGULO_LEME          iDivisorNMEA    -0.96000     
2.57257         MSG_UDP              iDivisorNMEA    $MXPGN,00FF00,280B,0002000005049913*19
 
2.58273         MSG_UDP              iDivisorNMEA    $HCHDG,283.8,0.0,E,23.3,W*63
 
2.59291         MSG_UDP              iDivisorNMEA    $GPHDT,260.46,T*03
 
2.60309         MSG_UDP              iDivisorNMEA    $TIROT,0.29,A*00
 
2.61329         MSG_UDP              iDivisorNMEA    $MXPGN,01F803,281C,000000000000141E*15
 
2.62402         MSG_UDP              iDivisorNMEA    $MXPGN,01F804,281C,00000071CBC1141E*67
 
2.63432         MSG_UDP              iDivisorNMEA    $MXPGN,00FF28,3808,FF08FFFDFC059F41*19
 
2.64461         MSG_UDP              iDivisorNMEA    $AGRSA,-0.96,A,,V*6D
 
2.64471         ANGULO_LEME          iDivisorNMEA    -0.96000     
2.65491         MSG_UDP              iDivisorNMEA    $HCHDG,283.7,0.0,E,23.3,W*6C
 
2.66516         MSG_UDP              iDivisorNMEA    $GPHDT,260.44,T*01
 
2.67549         MSG_UDP              iDivisorNMEA    $TIROT,0.49,A*06
 
2.68576         MSG_UDP              iDivisorNMEA    $MXPGN,01F803,281C,000000000000141E*15
 
2.69602         MSG_UDP              iDivisorNMEA    $MXPGN,01F804,281C,00000071CBC1141E*67
 
2.70629         MSG_UDP              iDivisorNMEA    $MXPGN,01FF2C,7808,FFFFFFFF9F411760*6D
 
2.71648         MSG_UDP              iDivisorNMEA    $MXPGN,01FF2C,7808,FFFF7FFFFFFF7F61*10
 
2.72674         MSG_UDP              iDivisorNMEA    $MXPGN,01FF2C,7808,FF7FFFFFFFFFFF62*62
 
2.73702         MSG_UDP              iDivisorNMEA    $MXPGN,01FF2C,7808,FFFFFFFF7FFFFF63*63
 
2.74731         MSG_UDP              iDivisorNMEA    $MXPGN,01FF22,2808,FF01FFFF9F410C80*63
 
2.75757         MSG_UDP              iDivisorNMEA    $AGRSA,-0.96,A,,V*6D
 
2.75763         ANGULO_LEME          iDivisorNMEA    -0.96000     
2.76781         MSG_UDP              iDivisorNMEA    $MXPGN,01FF22,2808,FFFF00000A003981*11
 
2.77810         MSG_UDP              iDivisorNMEA    $MXPGN,00FF3D,6808,7FFFFF0DFFFF9F41*6E
 
2.78836         MSG_UDP              iDivisorNMEA    $HCHDG,283.7,0.0,E,23.3,W*6C
 
3.01058         MSG_UDP              iDivisorNMEA    $MXPGN,01F803,281C,000000000000A025*12
 
3.01133         MSG_UDP              iDivisorNMEA    $MXPGN,01F804,281C,00000057C5C1A025*13
 
3.03163         MSG_UDP              iDivisorNMEA    $AGRSA,-0.96,A,,V*6D
 
3.03170         ANGULO_LEME          iDivisorNMEA    -0.96000     
3.03227         MSG_UDP              iDivisorNMEA    $GPZDA,133959.120,07,03,2023,,*56
 
3.08164         MSG_UDP              iDivisorNMEA    $HCHDG,283.7,0.0,E,23.3,W*6C
 
3.08177         MSG_UDP              iDivisorNMEA    $GPHDT,260.42,T*07
 
3.09196         MSG_UDP              iDivisorNMEA    $TIROT,0.39,A*01
 
3.10966         MSG_UDP              iDivisorNMEA    $MXPGN,01F803,281C,000000000000B426*16
 
3.11295         MSG_UDP              iDivisorNMEA    $MXPGN,01F804,281C,0000004854C1B426*6E
 
3.13146         MSG_UDP              iDivisorNMEA    $AGRSA,-0.96,A,,V*6D
 
3.13164         ANGULO_LEME          iDivisorNMEA    -0.96000     
3.18167         MSG_UDP              iDivisorNMEA    $HCHDG,283.7,0.0,E,23.3,W*6C
 
3.18184         MSG_UDP              iDivisorNMEA    $GPHDT,260.44,T*01
 
3.19211         MSG_UDP              iDivisorNMEA    $TIROT,0.69,A*04
 
3.20964         MSG_UDP              iDivisorNMEA    $MXPGN,01F803,281C,000000000000C827*1A
 
3.21294         MSG_UDP              iDivisorNMEA    $MXPGN,01F804,281C,0000004854C1C827*62
 
3.22326         MSG_UDP              iDivisorNMEA    $MXPGN,00FF00,280B,0002000005049913*19
 
3.23356         MSG_UDP              iDivisorNMEA    $GPGGA,133959.000,2254.75427,S,04309.53691,W,1,12,0.70,7.14,M,-5.60,M,,*7B
 
3.24388         MSG_UDP              iDivisorNMEA    $GPGLL,2254.75427,S,04309.53691,W,133959.000,A,A*56
 
3.25420         MSG_UDP              iDivisorNMEA    $GPRMC,133959.000,A,2254.75427,S,04309.53691,W,0.09,0.00,070323,23.30,W,A*16
 
3.26454         MSG_UDP              iDivisorNMEA    $GPVTG,0.00,T,,M,0.09,N,0.16,K,A*33
 
3.27495         MSG_UDP              iDivisorNMEA    $AGRSA,-0.96,A,,V*6D
 
3.27505         ANGULO_LEME          iDivisorNMEA    -0.96000     
3.28528         MSG_UDP              iDivisorNMEA    $SDDPT,1.80,0.00,*72
 
3.29551         MSG_UDP              iDivisorNMEA    !AIVDM,1,1,,A,1:U8?kPP1fLrN3AjqKHC8wwp0hS6,0*6F
 
3.30580         MSG_UDP              iDivisorNMEA    $GPGSA,A,3,08,10,16,18,21,27,28,31,32,66,65,86,1.30,0.70,1.10*02
 
3.31613         MSG_UDP              iDivisorNMEA    $GPGSV,3,1,12,08,41,240,37,10,38,152,28,16,10,317,42,18,18,070,34*74
 
3.32644         MSG_UDP              iDivisorNMEA    $GPGSV,3,2,12,21,11,223,24,27,62,289,34,28,19,029,41,31,14,019,44*7B
 
3.33674         MSG_UDP              iDivisorNMEA    $GPGSV,3,3,12,32,77,107,44,66,16,311,44,65,62,261,39,86,29,048,42*7E
 
3.34703         MSG_UDP              iDivisorNMEA    $MXPGN,01FF0D,780B,FF03000098900520*64
 
3.35726         MSG_UDP              iDivisorNMEA    $HCHDG,283.8,0.0,E,23.3,W*63
 
3.36748         MSG_UDP              iDivisorNMEA    $GPHDT,260.46,T*03
 
3.37774         MSG_UDP              iDivisorNMEA    $TIROT,0.69,A*04
 
3.38804         MSG_UDP              iDivisorNMEA    $MXPGN,01F803,281C,000000000000DC28*69
 
3.39828         MSG_UDP              iDivisorNMEA    $MXPGN,01F804,281C,000000C63EC1DC28*1F
 
3.40852         MSG_UDP              iDivisorNMEA    $AGRSA,-0.96,A,,V*6D
 
3.40863         ANGULO_LEME          iDivisorNMEA    -0.96000     
3.41881         MSG_UDP              iDivisorNMEA    !AIVDM,1,1,,A,1:UPuT0001LrKPQjpsA8cGSp2`01,0*38
 
3.42907         MSG_UDP              iDivisorNMEA    $HCHDG,283.8,0.0,E,23.3,W*63
 
3.43933         MSG_UDP              iDivisorNMEA    $GPHDT,260.47,T*02
 
3.44965         MSG_UDP              iDivisorNMEA    $TIROT,1.09,A*03
 
3.45987         MSG_UDP              iDivisorNMEA    $GPGSA,A,3,08,10,16,18,21,23,26,,,,,,2.16,1.79,1.79*06
 
3.47019         MSG_UDP              iDivisorNMEA    $GPGSV,2,1,07,08,40,239,45,10,38,152,35,16,09,316,41,18,17,070,00*75
 
3.48046         MSG_UDP              iDivisorNMEA    $GPGSV,2,2,07,21,11,222,00,23,14,125,00,26,01,350,00*4E
 
3.49074         MSG_UDP              iDivisorNMEA    $MXPGN,01FA06,681C,9F00B700C8280F80*19
 
3.50098         MSG_UDP              iDivisorNMEA    $MXPGN,01FA06,681C,00A200B4E65C0081*15
 
3.51127         MSG_UDP              iDivisorNMEA    $MXPGN,01FA06,681C,FFFFFFFFFF016982*18
 
3.52150         MSG_UDP              iDivisorNMEA    $MXPGN,01F803,281C,0000000000000028*6E
 
3.53174         MSG_UDP              iDivisorNMEA    $MXPGN,01F804,281C,000000C63EC10028*18
 
3.54192         MSG_UDP              iDivisorNMEA    $GPGGA,134000.000,2254.75330,S,04309.53839,W,1,07,1.79,1.04,M,-5.00,M,,*79
 
3.55221         MSG_UDP              iDivisorNMEA    $GPGLL,2254.75330,S,04309.53839,W,134000.000,A,A*59
 
3.56251         MSG_UDP              iDivisorNMEA    $GPRMC,134000.000,A,2254.75330,S,04309.53839,W,0.03,106.08,070323,23.39,W,A*15
 
3.57281         MSG_UDP              iDivisorNMEA    $GPVTG,106.08,T,,M,0.03,N,0.05,K,A*34
 
3.58309         MSG_UDP              iDivisorNMEA    $AGRSA,-0.96,A,,V*6D
 
3.58317         ANGULO_LEME          iDivisorNMEA    -0.96000     
3.59336         MSG_UDP              iDivisorNMEA    $MXPGN,00FF00,280B,0002000005049913*19
 
3.60365         MSG_UDP              iDivisorNMEA    $HCHDG,283.8,0.0,E,23.3,W*63
 
3.61412         MSG_UDP              iDivisorNMEA    $GPHDT,260.47,T*02
 
3.62440         MSG_UDP              iDivisorNMEA    $TIROT,1.09,A*03
 
3.63497         MSG_UDP              iDivisorNMEA    $MXPGN,01F803,281C,000000000000282A*1D
 
3.64522         MSG_UDP              iDivisorNMEA    $MXPGN,01F804,281C,000000C63EC1282A*6B
 
3.65549         MSG_UDP              iDivisorNMEA    $MXPGN,00FF28,3808,FF08FFFDFC059F41*19
 
3.66578         MSG_UDP              iDivisorNMEA    $AGRSA,-0.96,A,,V*6D
 
3.66584         ANGULO_LEME          iDivisorNMEA    -0.96000     
3.67600         MSG_UDP              iDivisorNMEA    $HCHDG,283.8,0.0,E,23.3,W*63
 
3.68630         MSG_UDP              iDivisorNMEA    $GPHDT,260.48,T*0D
 
3.69659         MSG_UDP              iDivisorNMEA    $TIROT,1.09,A*03
 
3.70688         MSG_UDP              iDivisorNMEA    $MXPGN,01F803,281C,0000000000003C2B*64
 
3.71715         MSG_UDP              iDivisorNMEA    $MXPGN,01F804,281C,0000006076C13C2B*16
 
3.90956         MSG_UDP              iDivisorNMEA    $MXPGN,01F803,281C,000000000000782E*1C
 
3.91037         MSG_UDP              iDivisorNMEA    $MXPGN,01F804,281C,000000D918C1782E*1D
 
3.92642         MSG_UDP              iDivisorNMEA    $MXPGN,00FF8C,6808,FFF10695C9409F41*64
 
3.93241         MSG_UDP              iDivisorNMEA    $GPGGA,,2254.74909,S,04309.54029,W,1,,,,M,,M,,*55
 
3.94267         MSG_UDP              iDivisorNMEA    $GPGLL,2254.74909,S,04309.54029,W,,A,A*4E
 
3.95293         MSG_UDP              iDivisorNMEA    $GPVTG,2.20,T,,M,2.10,N,3.88,K,A*3D
 
3.96318         MSG_UDP              iDivisorNMEA    $AGRSA,-0.96,A,,V*6D
 
3.96323         ANGULO_LEME          iDivisorNMEA    -0.96000     
3.97342         MSG_UDP              iDivisorNMEA    !AIVDO,1,1,,,B:UOH3P06W>Vt=Lf>fl8SwP5oP06,0*02
 
3.98358         MSG_UDP              iDivisorNMEA    $MXPGN,00FF00,280B,0002000005049913*19
 
3.99379         MSG_UDP              iDivisorNMEA    $HCHDG,283.8,0.0,E,23.3,W*63
 
4.00398         MSG_UDP              iDivisorNMEA    $GPHDT,260.53,T*07
 
4.01425         MSG_UDP              iDivisorNMEA    $TIROT,0.99,A*0B
 
4.02448         MSG_UDP              iDivisorNMEA    !AIVDM,1,1,,B,1:U7@T0000LrNnUjsR>4VCN2080H,0*4B
 
4.03468         MSG_UDP              iDivisorNMEA    $MXPGN,01F803,281C,0000000000008C2F*6B
 
4.04495         MSG_UDP              iDivisorNMEA    $MXPGN,01F804,281C,000000D918C18C2F*6A
 
4.05523         MSG_UDP              iDivisorNMEA    $AGRSA,-0.96,A,,V*6D
 
4.05538         ANGULO_LEME          iDivisorNMEA    -0.96000     
4.06558         MSG_UDP              iDivisorNMEA    $GPZDA,134000.120,07,03,2023,,*54
 
4.08140         MSG_UDP              iDivisorNMEA    $HCHDG,283.8,0.0,E,23.3,W*63
 
4.08690         MSG_UDP              iDivisorNMEA    $GPHDT,260.52,T*06
 
4.09719         MSG_UDP              iDivisorNMEA    $TIROT,0.99,A*0B
 
4.11040         MSG_UDP              iDivisorNMEA    $MXPGN,01F803,281C,0000000000008C2F*6B
 
4.11761         MSG_UDP              iDivisorNMEA    $MXPGN,01F804,281C,000000C9A7C18C2F*12
 
4.13121         MSG_UDP              iDivisorNMEA    $AGRSA,-0.96,A,,V*6D
 
4.13125         ANGULO_LEME          iDivisorNMEA    -0.96000     
4.18143         MSG_UDP              iDivisorNMEA    $HCHDG,283.8,0.0,E,23.3,W*63
 
4.18227         MSG_UDP              iDivisorNMEA    $GPHDT,260.52,T*06
 
4.19248         MSG_UDP              iDivisorNMEA    $TIROT,0.99,A*0B
 
4.20266         MSG_UDP              iDivisorNMEA    !AIVDM,1,1,,A,3:U8RjPP00trUdIjqUR6tgv024m3,0*23
 
4.21280         MSG_UDP              iDivisorNMEA    $MXPGN,01F803,281C,000000000000A030*16
 
4.22296         MSG_UDP              iDivisorNMEA    $MXPGN,01F804,281C,000000C9A7C1A030*6F
 
4.23314         MSG_UDP              iDivisorNMEA    $MXPGN,00FF00,280B,0002000005049913*19
 
4.24336         MSG_UDP              iDivisorNMEA    $GPGGA,134000.000,2254.75434,S,04309.53710,W,1,12,0.70,7.20,M,-5.60,M,,*74
 
4.25351         MSG_UDP              iDivisorNMEA    $GPGLL,2254.75434,S,04309.53710,W,134000.000,A,A*5E
 
4.26365         MSG_UDP              iDivisorNMEA    $GPRMC,134000.000,A,2254.75434,S,04309.53710,W,0.19,185.29,070323,23.30,W,A*18
 
4.27385         MSG_UDP              iDivisorNMEA    $GPVTG,185.29,T,,M,0.19,N,0.35,K,A*34
 
4.28398         MSG_UDP              iDivisorNMEA    $AGRSA,-0.96,A,,V*6D
 
4.28400         ANGULO_LEME          iDivisorNMEA    -0.96000     
4.29415         MSG_UDP              iDivisorNMEA    $SDDPT,1.77,0.00,*7A
 
4.30434         MSG_UDP              iDivisorNMEA    $MXPGN,01FF1A,782B,FFFAFF859F410580*13
 
4.31454         MSG_UDP              iDivisorNMEA    $HCHDG,283.8,0.0,E,23.3,W*63
 
4.32471         MSG_UDP              iDivisorNMEA    $GPHDT,260.54,T*00
 
4.33487         MSG_UDP              iDivisorNMEA    $TIROT,0.79,A*05
 
4.34507         MSG_UDP              iDivisorNMEA    $GPGSA,A,3,08,10,16,18,21,27,28,31,32,66,65,86,1.30,0.70,1.10*02
 
4.35522         MSG_UDP              iDivisorNMEA    $GPGSV,3,1,12,08,41,240,37,10,38,152,28,16,10,317,42,18,18,070,34*74
 
4.36537         MSG_UDP              iDivisorNMEA    $GPGSV,3,2,12,21,11,223,24,27,62,289,34,28,19,029,42,31,14,019,44*78
 
4.37555         MSG_UDP              iDivisorNMEA    $GPGSV,3,3,12,32,77,107,44,66,16,311,44,65,62,261,39,86,29,048,42*7E
 
4.38574         MSG_UDP              iDivisorNMEA    $MXPGN,01F803,281C,000000000000C832*1E
 
4.39586         MSG_UDP              iDivisorNMEA    $MXPGN,01F804,281C,000063E55AC1C832*6A
 
4.40602         MSG_UDP              iDivisorNMEA    $MXPGN,01FF0D,780B,FF03000098900500*66
 
4.41620         MSG_UDP              iDivisorNMEA    $AGRSA,-0.96,A,,V*6D
 
4.41624         ANGULO_LEME          iDivisorNMEA    -0.96000     
4.42635         MSG_UDP              iDivisorNMEA    $HCHDG,283.8,0.0,E,23.3,W*63
 
4.43653         MSG_UDP              iDivisorNMEA    $GPHDT,260.54,T*00
 
4.44670         MSG_UDP              iDivisorNMEA    $TIROT,0.79,A*05
 
4.45687         MSG_UDP              iDivisorNMEA    $GPGSA,A,3,08,10,16,18,21,23,26,,,,,,2.16,1.79,1.79*06
 
4.46700         MSG_UDP              iDivisorNMEA    $GPGSV,2,1,07,08,40,239,45,10,38,151,35,16,09,316,41,18,17,070,00*76
 
4.47716         MSG_UDP              iDivisorNMEA    $GPGSV,2,2,07,21,11,222,00,23,14,125,00,26,01,350,00*4E
 
4.48737         MSG_UDP              iDivisorNMEA    $MXPGN,01FA06,681C,9F00B700C8320FA0*6B
 
4.49753         MSG_UDP              iDivisorNMEA    $MXPGN,01FA06,681C,00A200B4E65C00A1*6C
 
4.50771         MSG_UDP              iDivisorNMEA    $MXPGN,01FA06,681C,FFFFFFFFFF0169A2*61
 
4.51792         MSG_UDP              iDivisorNMEA    $MXPGN,01F803,281C,0000000000000032*65
 
4.52812         MSG_UDP              iDivisorNMEA    $MXPGN,01F804,281C,000000E55AC10032*14
 
4.53832         MSG_UDP              iDivisorNMEA    $GPGGA,134001.000,2254.75330,S,04309.53839,W,1,07,1.79,1.17,M,-5.00,M,,*7A
 
4.54855         MSG_UDP              iDivisorNMEA    $GPGLL,2254.75330,S,04309.53839,W,134001.000,A,A*58
 
4.55872         MSG_UDP              iDivisorNMEA    $GPRMC,134001.000,A,2254.75330,S,04309.53839,W,0.03,295.77,070323,23.39,W,A*15
 
4.56895         MSG_UDP              iDivisorNMEA    $GPVTG,295.77,T,,M,0.03,N,0.05,K,A*35
 
4.57917         MSG_UDP              iDivisorNMEA    $AGRSA,-0.96,A,,V*6D
 
4.57922         ANGULO_LEME          iDivisorNMEA    -0.96000     
4.78136         MSG_UDP              iDivisorNMEA    $HCHDG,283.9,0.0,E,23.3,W*62
 
4.78231         MSG_UDP              iDivisorNMEA    $GPHDT,260.62,T*05
 
4.79176         MSG_UDP              iDivisorNMEA    $TIROT,1.09,A*03
 
4.80198         MSG_UDP              iDivisorNMEA    $MXPGN,01FF1A,680B,FF022B849F410580*64
 
4.81224         MSG_UDP              iDivisorNMEA    $MXPGN,01FF1A,782B,FF010B049F410580*6E
 
4.82249         MSG_UDP              iDivisorNMEA    $MXPGN,01F803,281C,0000000000006437*62
 
4.83271         MSG_UDP              iDivisorNMEA    $MXPGN,01F804,281C,000000C4A2C16437*13
 
4.84293         MSG_UDP              iDivisorNMEA    $MXPGN,00FF16,7808,FF0000002B0A9F41*1B
 
4.85321         MSG_UDP              iDivisorNMEA    $AGRSA,-0.96,A,,V*6D
 
4.85328         ANGULO_LEME          iDivisorNMEA    -0.96000     
4.86346         MSG_UDP              iDivisorNMEA    $MXPGN,00FF19,7808,0000000202009F41*15
 
4.87628         MSG_UDP              iDivisorNMEA    $MXPGN,00FF19,7808,0080000A0A009F41*1D
 
4.88445         MSG_UDP              iDivisorNMEA    $HCHDG,283.9,0.0,E,23.3,W*62
 
4.89462         MSG_UDP              iDivisorNMEA    $GPHDT,260.61,T*06
 
4.90482         MSG_UDP              iDivisorNMEA    $TIROT,1.09,A*03
 
4.91502         MSG_UDP              iDivisorNMEA    $MXPGN,01F803,281C,0000000000007838*60
 
4.92518         MSG_UDP              iDivisorNMEA    $MXPGN,01F804,281C,000000C4A2C17838*11
 
4.93539         MSG_UDP              iDivisorNMEA    $MXPGN,00FF8C,6808,FFF10695C9409F41*64
 
4.94564         MSG_UDP              iDivisorNMEA    $GPGGA,,2254.74759,S,04309.53989,W,1,,,,M,,M,,*5A
 
4.95582         MSG_UDP              iDivisorNMEA    $GPGLL,2254.74759,S,04309.53989,W,,A,A*41
 
4.96601         MSG_UDP              iDivisorNMEA    $GPVTG,13.60,T,,M,2.60,N,4.81,K,A*00
 
4.97622         MSG_UDP              iDivisorNMEA    $AGRSA,-0.96,A,,V*6D
 
4.97625         ANGULO_LEME          iDivisorNMEA    -0.96000     
4.98637         MSG_UDP              iDivisorNMEA    $MXPGN,00FF00,280B,0002000005049913*19
 
4.99656         MSG_UDP              iDivisorNMEA    $HCHDG,283.9,0.0,E,23.3,W*62
 
5.00674         MSG_UDP              iDivisorNMEA    $GPHDT,260.63,T*04
 
5.01689         MSG_UDP              iDivisorNMEA    $TIROT,0.69,A*04
 
5.02712         MSG_UDP              iDivisorNMEA    $MXPGN,01F803,281C,0000000000008C39*15
 
5.03733         MSG_UDP              iDivisorNMEA    $MXPGN,01F804,281C,000000C4A2C18C39*64
 
5.04752         MSG_UDP              iDivisorNMEA    $AGRSA,-0.96,A,,V*6D
 
5.04756         ANGULO_LEME          iDivisorNMEA    -0.96000     
5.05770         MSG_UDP              iDivisorNMEA    $GPZDA,134001.070,07,03,2023,,*51
 
5.08134         MSG_UDP              iDivisorNMEA    $HCHDG,283.9,0.0,E,23.3,W*62
 
5.08231         MSG_UDP              iDivisorNMEA    $GPHDT,260.63,T*04
 
5.09246         MSG_UDP              iDivisorNMEA    $TIROT,0.69,A*04
 
5.10937         MSG_UDP              iDivisorNMEA    $MXPGN,01F803,281C,000000000000A03A*67
 
5.11356         MSG_UDP              iDivisorNMEA    $MXPGN,01F804,281C,0000000FF0C1A03A*12
 
5.13128         MSG_UDP              iDivisorNMEA    $AGRSA,-0.96,A,,V*6D
 
5.13133         ANGULO_LEME          iDivisorNMEA    -0.96000     
5.18142         MSG_UDP              iDivisorNMEA    $HCHDG,283.9,0.0,E,23.3,W*62
 
5.18220         MSG_UDP              iDivisorNMEA    $GPHDT,260.64,T*03
 
5.19239         MSG_UDP              iDivisorNMEA    $TIROT,0.49,A*06
 
5.20940         MSG_UDP              iDivisorNMEA    $MXPGN,01F803,281C,000000000000B43B*63
 
5.21355         MSG_UDP              iDivisorNMEA    $MXPGN,01F804,281C,0000000FF0C1B43B*16
 
5.22368         MSG_UDP              iDivisorNMEA    $MXPGN,00FF00,280B,0002000005049913*19
 
5.23385         MSG_UDP              iDivisorNMEA    $GPGGA,134001.000,2254.75433,S,04309.53717,W,1,12,0.70,7.40,M,-5.60,M,,*73
 
5.24408         MSG_UDP              iDivisorNMEA    $GPGLL,2254.75433,S,04309.53717,W,134001.000,A,A*5F
 
5.25431         MSG_UDP              iDivisorNMEA    $GPRMC,134001.000,A,2254.75433,S,04309.53717,W,0.38,222.09,070323,23.30,W,A*16
 
5.26449         MSG_UDP              iDivisorNMEA    $GPVTG,222.09,T,,M,0.38,N,0.70,K,A*3A
 
5.27465         MSG_UDP              iDivisorNMEA    $AGRSA,-0.96,A,,V*6D
 
5.27467         ANGULO_LEME          iDivisorNMEA    -0.96000     
5.28482         MSG_UDP              iDivisorNMEA    $SDDPT,1.79,0.00,*74
 
5.29521         MSG_UDP              iDivisorNMEA    $HCHDG,284.0,0.0,E,23.3,W*6C
 
5.30538         MSG_UDP              iDivisorNMEA    $GPHDT,260.65,T*02
 
5.31553         MSG_UDP              iDivisorNMEA    $TIROT,0.49,A*06
 
5.32574         MSG_UDP              iDivisorNMEA    $MXPGN,01F803,281C,000000000000C83C*6F
 
5.33588         MSG_UDP              iDivisorNMEA    $MXPGN,01F804,281C,0000000073C1C83C*1E
 
5.34602         MSG_UDP              iDivisorNMEA    !AIVDM,1,1,,B,3:U8Qv01ihtrL0ujqiJripQl01t@,0*32
 
5.35615         MSG_UDP              iDivisorNMEA    $GPGSA,A,3,08,10,16,18,21,27,28,31,32,66,65,86,1.30,0.70,1.10*02
 
5.36632         MSG_UDP              iDivisorNMEA    $GPGSV,3,1,12,08,41,240,37,10,38,152,28,16,10,317,42,18,18,070,33*73
 
5.37647         MSG_UDP              iDivisorNMEA    $GPGSV,3,2,12,21,11,223,24,27,62,289,34,28,19,029,41,31,14,019,44*7B
 
5.38661         MSG_UDP              iDivisorNMEA    $GPGSV,3,3,12,32,77,107,44,66,16,311,44,65,62,261,39,86,29,048,42*7E
 
5.39680         MSG_UDP              iDivisorNMEA    $MXPGN,01FF0D,780B,FF03000098900560*60
 
5.40692         MSG_UDP              iDivisorNMEA    $AGRSA,-0.96,A,,V*6D
 
5.40695         ANGULO_LEME          iDivisorNMEA    -0.96000     
5.41707         MSG_UDP              iDivisorNMEA    $HCHDG,284.0,0.0,E,23.3,W*6C
 
5.42721         MSG_UDP              iDivisorNMEA    $GPHDT,260.65,T*02
 
5.43736         MSG_UDP              iDivisorNMEA    $TIROT,0.39,A*01
 
5.44750         MSG_UDP              iDivisorNMEA    $GPGSA,A,3,08,10,16,18,21,23,26,,,,,,2.16,1.79,1.79*06
 
5.45766         MSG_UDP              iDivisorNMEA    $GPGSV,2,1,07,08,40,239,45,10,38,151,35,16,09,316,39,18,17,070,00*79
 
5.68132         MSG_UDP              iDivisorNMEA    $HCHDG,284.0,0.0,E,23.3,W*6C
 
5.68217         MSG_UDP              iDivisorNMEA    $GPHDT,260.69,T*0E
 
5.69233         MSG_UDP              iDivisorNMEA    $TIROT,0.29,A*00
 
5.70920         MSG_UDP              iDivisorNMEA    $MXPGN,01F803,281C,0000000000005040*65
 
5.71334         MSG_UDP              iDivisorNMEA    $MXPGN,01F804,281C,0000005833C15040*1D
 
5.72716         MSG_UDP              iDivisorNMEA    $MXPGN,00FF3C,3808,8000F8FE00009F41*1C
 
5.73432         MSG_UDP              iDivisorNMEA    $AGRSA,-0.96,A,,V*6D
 
5.73435         ANGULO_LEME          iDivisorNMEA    -0.96000     
5.74451         MSG_UDP              iDivisorNMEA    $MXPGN,00FF00,280B,0002000005049913*19
 
5.78128         MSG_UDP              iDivisorNMEA    $HCHDG,284.0,0.0,E,23.3,W*6C
 
5.78206         MSG_UDP              iDivisorNMEA    $GPHDT,260.71,T*07
 
5.79224         MSG_UDP              iDivisorNMEA    $TIROT,0.49,A*06
 
5.80248         MSG_UDP              iDivisorNMEA    !AIVDM,1,1,,B,1:U8l=P00tLrLqmjrin=kbv00h1L,0*10
 
5.81269         MSG_UDP              iDivisorNMEA    $MXPGN,01FF1A,680B,FF022B849F4105A0*1D
 
5.82288         MSG_UDP              iDivisorNMEA    $MXPGN,01F803,281C,0000000000006441*63
 
5.83307         MSG_UDP              iDivisorNMEA    $MXPGN,01F804,281C,000000BC24C16441*11
 
5.84326         MSG_UDP              iDivisorNMEA    $MXPGN,01FF1A,782B,FF010B049F4105A0*17
 
5.85344         MSG_UDP              iDivisorNMEA    $MXPGN,00FF16,7808,FF0000002B0A9F41*1B
 
5.86357         MSG_UDP              iDivisorNMEA    $AGRSA,-0.96,A,,V*6D
 
5.86364         ANGULO_LEME          iDivisorNMEA    -0.96000     
5.87379         MSG_UDP              iDivisorNMEA    $MXPGN,00FF19,7808,0000000202009F41*15
 
5.88396         MSG_UDP              iDivisorNMEA    $MXPGN,00FF19,7808,0080000A0A009F41*1D
 
5.89409         MSG_UDP              iDivisorNMEA    $HCHDG,284.0,0.0,E,23.3,W*6C
 
5.90429         MSG_UDP              iDivisorNMEA    $GPHDT,260.71,T*07
 
5.91445         MSG_UDP              iDivisorNMEA    $TIROT,0.49,A*06
 
5.92463         MSG_UDP              iDivisorNMEA    $MXPGN,01F803,281C,0000000000007842*6D
 
5.93479         MSG_UDP              iDivisorNMEA    $MXPGN,01F804,281C,000000BC24C17842*1F
 
5.94493         MSG_UDP              iDivisorNMEA    $MXPGN,00FF8C,6808,FFF10695C9409F41*64
 
5.95514         MSG_UDP              iDivisorNMEA    $GPGGA,,2254.74759,S,04309.53989,W,1,,,,M,,M,,*5A
 
5.96536         MSG_UDP              iDivisorNMEA    $GPGLL,2254.74759,S,04309.53989,W,,A,A*41
 
5.97550         MSG_UDP              iDivisorNMEA    $GPVTG,13.60,T,,M,2.60,N,4.81,K,A*00
 
5.98569         MSG_UDP              iDivisorNMEA    $AGRSA,-0.96,A,,V*6D
 
5.98572         ANGULO_LEME          iDivisorNMEA    -0.96000     
5.99582         MSG_UDP              iDivisorNMEA    !AIVDO,1,1,,,B:UOH3P01o>Vt=Lf>fh9cwQ5oP06,0*09
 
6.00594         MSG_UDP              iDivisorNMEA    $HCHDG,284.0,0.0,E,23.3,W*6C
 
6.01606         MSG_UDP              iDivisorNMEA    $GPHDT,260.72,T*04
 
6.02622         MSG_UDP              iDivisorNMEA    $TIROT,0.29,A*00
 
6.03635         MSG_UDP              iDivisorNMEA    $MXPGN,00FF00,280B,0002000005049913*19
 
6.04655         MSG_UDP              iDivisorNMEA    $MXPGN,01F803,281C,0000000000008C43*18
 
6.05672         MSG_UDP              iDivisorNMEA    $MXPGN,01F804,281C,000000BC24C18C43*6A
 
6.06690         MSG_UDP              iDivisorNMEA    $AGRSA,-0.96,A,,V*6D
 
6.06692         ANGULO_LEME          iDivisorNMEA    -0.96000     
6.07708         MSG_UDP              iDivisorNMEA    $GPZDA,134002.070,07,03,2023,,*52
 
6.08728         MSG_UDP              iDivisorNMEA    $HCHDG,284.1,0.0,E,23.3,W*6D
 
6.09746         MSG_UDP              iDivisorNMEA    $GPHDT,260.75,T*03
 
6.10763         MSG_UDP              iDivisorNMEA    $TIROT,0.29,A*00
 
6.11782         MSG_UDP              iDivisorNMEA    $MXPGN,01F803,281C,000000000000A044*15
 
6.12797         MSG_UDP              iDivisorNMEA    $MXPGN,01F804,281C,000000609DC1A044*1B
 
6.13816         MSG_UDP              iDivisorNMEA    $AGRSA,-0.96,A,,V*6D
 
6.13820         ANGULO_LEME          iDivisorNMEA    -0.96000     
6.18141         MSG_UDP              iDivisorNMEA    $HCHDG,284.1,0.0,E,23.3,W*6D
 
6.18217         MSG_UDP              iDivisorNMEA    $GPHDT,260.75,T*03
 
6.19235         MSG_UDP              iDivisorNMEA    $TIROT,0.29,A*00
 
6.21333         MSG_UDP              iDivisorNMEA    $MXPGN,01F803,281C,000000000000B445*13
 
6.21408         MSG_UDP              iDivisorNMEA    $MXPGN,01F804,281C,000000609DC1B445*1D
 
6.23324         MSG_UDP              iDivisorNMEA    $GPGGA,134002.000,2254.75432,S,04309.53714,W,1,12,0.70,7.60,M,-5.60,M,,*70
 
6.23436         MSG_UDP              iDivisorNMEA    $GPGLL,2254.75432,S,04309.53714,W,134002.000,A,A*5E
 
6.24450         MSG_UDP              iDivisorNMEA    $GPRMC,134002.000,A,2254.75432,S,04309.53714,W,0.09,0.00,070323,23.30,W,A*1E
 
6.25461         MSG_UDP              iDivisorNMEA    $GPVTG,0.00,T,,M,0.09,N,0.16,K,A*33
 
6.26478         MSG_UDP              iDivisorNMEA    $AGRSA,-0.96,A,,V*6D
 
6.26482         ANGULO_LEME          iDivisorNMEA    -0.96000     
6.27492         MSG_UDP              iDivisorNMEA    $SDDPT,1.78,0.00,*75
 
6.28504         MSG_UDP              iDivisorNMEA    $MXPGN,00FF00,280B,0002000005049913*19
 
6.29518         MSG_UDP              iDivisorNMEA    $HCHDG,284.1,0.0,E,23.3,W*6D
 
6.30552         MSG_UDP              iDivisorNMEA    $GPHDT,260.77,T*01
 
6.31572         MSG_UDP              iDivisorNMEA    $TIROT,0.29,A*00
 
6.32590         MSG_UDP              iDivisorNMEA    $MXPGN,01F803,281C,000000000000C846*1D
 
6.33605         MSG_UDP              iDivisorNMEA    $MXPGN,01F804,281C,0000006BEAC1C846*18
 
6.34620         MSG_UDP              iDivisorNMEA    $GPGSA,A,3,08,10,16,18,21,27,28,31,32,66,65,86,1.30,0.70,1.10*02
 
6.35632         MSG_UDP              iDivisorNMEA    $GPGSV,3,1,12,08,41,240,37,10,38,152,28,16,10,317,42,18,18,070,34*74
 
6.58127         MSG_UDP              iDivisorNMEA    $HCHDG,284.1,0.0,E,23.3,W*6D
 
6.58211         MSG_UDP              iDivisorNMEA    $GPHDT,260.77,T*01
 
6.59224         MSG_UDP              iDivisorNMEA    $TIROT,0.19,A*03
 
6.61518         MSG_UDP              iDivisorNMEA    $MXPGN,01F803,281C,0000000000003C49*19
 
6.61611         MSG_UDP              iDivisorNMEA    $MXPGN,01F804,281C,0000003BC1C13C49*6F
 
6.62622         MSG_UDP              iDivisorNMEA    $MXPGN,01FF2C,7808,FFFFFFFF9F4117E0*1E
 
6.63654         MSG_UDP              iDivisorNMEA    $MXPGN,01FF2C,7808,FFFF7FFFFFFF7FE1*63
 
6.64686         MSG_UDP              iDivisorNMEA    $MXPGN,01FF2C,7808,FF7FFFFFFFFFFFE2*11
 
6.65711         MSG_UDP              iDivisorNMEA    $MXPGN,01FF2C,7808,FFFFFFFF7FFFFFE3*10
 
6.66731         MSG_UDP              iDivisorNMEA    $AGRSA,-0.96,A,,V*6D
 
6.66736         ANGULO_LEME          iDivisorNMEA    -0.96000     
6.67757         MSG_UDP              iDivisorNMEA    $MXPGN,00FF3D,6808,7FFFFF0DFFFF9F41*6E
 
6.68778         MSG_UDP              iDivisorNMEA    $HCHDG,284.1,0.0,E,23.3,W*6D
 
6.69807         MSG_UDP              iDivisorNMEA    $GPHDT,260.78,T*0E
 
6.70835         MSG_UDP              iDivisorNMEA    $TIROT,0.19,A*03
 
6.71860         MSG_UDP              iDivisorNMEA    $MXPGN,01F803,281C,000000000000504A*14
 
6.72882         MSG_UDP              iDivisorNMEA    $MXPGN,01F804,281C,0000003BC1C1504A*62
 
6.73912         MSG_UDP              iDivisorNMEA    $MXPGN,00FF3C,3808,8000F8FE00009F41*1C
 
6.74949         MSG_UDP              iDivisorNMEA    $AGRSA,-0.90,A,,V*6B
 
6.74957         ANGULO_LEME          iDivisorNMEA    -0.90000     
6.75974         MSG_UDP              iDivisorNMEA    $MXPGN,00FF00,280B,0002000005049913*19
 
6.76999         MSG_UDP              iDivisorNMEA    $MXPGN,01FF1A,680B,FF022B849F4105C0*1F
 
6.78117         MSG_UDP              iDivisorNMEA    $HCHDG,284.1,0.0,E,23.3,W*6D
 
6.79047         MSG_UDP              iDivisorNMEA    $GPHDT,260.78,T*0E
 
6.80079         MSG_UDP              iDivisorNMEA    $TIROT,0.09,A*02
 
6.81157         MSG_UDP              iDivisorNMEA    $MXPGN,01FF1A,782B,FF010B049F4105C0*15
 
6.82183         MSG_UDP              iDivisorNMEA    $MXPGN,01F803,281C,000000000000644B*10
 
6.83207         MSG_UDP              iDivisorNMEA    $MXPGN,01F804,281C,0000008461C1644B*6E
 
6.84236         MSG_UDP              iDivisorNMEA    $MXPGN,00FF16,7808,FF0000002B0A9F41*1B
 
6.85267         MSG_UDP              iDivisorNMEA    $AGRSA,-0.90,A,,V*6B
 
6.85277         ANGULO_LEME          iDivisorNMEA    -0.90000     
6.86301         MSG_UDP              iDivisorNMEA    $MXPGN,00FF19,7808,0000000202009F41*15
 
6.87617         MSG_UDP              iDivisorNMEA    $MXPGN,00FF19,7808,0080000A0A009F41*1D
 
6.88346         MSG_UDP              iDivisorNMEA    $HCHDG,284.1,0.0,E,23.3,W*6D
 
6.89377         MSG_UDP              iDivisorNMEA    $GPHDT,260.79,T*0F
 
6.90408         MSG_UDP              iDivisorNMEA    $TIROT,0.09,A*02
 
6.91434         MSG_UDP              iDivisorNMEA    !AIVDM,1,1,,B,1:U6v;gP00LrHW1jpgTs9gwp2PS0,0*25
 
6.92460         MSG_UDP              iDivisorNMEA    $MXPGN,01F803,281C,000000000000784C*1C
 
6.93492         MSG_UDP              iDivisorNMEA    $MXPGN,01F804,281C,0000008461C1784C*62
 
6.94521         MSG_UDP              iDivisorNMEA    $MXPGN,00FF8C,6808,FFF10695C9409F41*64
 
6.95552         MSG_UDP              iDivisorNMEA    $GPGGA,,2254.74769,S,04309.53989,W,1,,,,M,,M,,*59
 
6.96581         MSG_UDP              iDivisorNMEA    $GPGLL,2254.74769,S,04309.53989,W,,A,A*42
 
6.97604         MSG_UDP              iDivisorNMEA    $GPVTG,15.40,T,,M,0.70,N,1.29,K,A*00
 
6.98629         MSG_UDP              iDivisorNMEA    $AGRSA,-0.96,A,,V*6D
 
6.98635         ANGULO_LEME          iDivisorNMEA    -0.96000     
6.99657         MSG_UDP              iDivisorNMEA    $HCHDG,284.1,0.0,E,23.3,W*6D
 
7.00684         MSG_UDP              iDivisorNMEA    $GPHDT,260.78,T*0E
 
7.01723         MSG_UDP              iDivisorNMEA    $TIROT,0.09,A*02
 
7.02750         MSG_UDP              iDivisorNMEA    $MXPGN,00FF00,280B,0002000005049913*19
 
7.03776         MSG_UDP              iDivisorNMEA    $MXPGN,01F803,281C,0000000000008C4D*6F
 
7.04802         MSG_UDP              iDivisorNMEA    $MXPGN,01F804,281C,0000008461C18C4D*11
 
7.05830         MSG_UDP              iDivisorNMEA    $AGRSA,-0.96,A,,V*6D
 
7.05836         ANGULO_LEME          iDivisorNMEA    -0.96000     
7.06851         MSG_UDP              iDivisorNMEA    $GPZDA,134003.070,07,03,2023,,*53
 
7.08117         MSG_UDP              iDivisorNMEA    $HCHDG,284.1,0.0,E,23.3,W*6D
 
7.08931         MSG_UDP              iDivisorNMEA    $GPHDT,260.78,T*0E
 
7.09971         MSG_UDP              iDivisorNMEA    $TIROT,0.09,A*02
 
7.11026         MSG_UDP              iDivisorNMEA    $MXPGN,01F803,281C,0000000000008C4D*6F
 
7.12061         MSG_UDP              iDivisorNMEA    $MXPGN,01F804,281C,0000005D44C18C4D*6B
 
7.13116         MSG_UDP              iDivisorNMEA    $AGRSA,-0.96,A,,V*6D
 
7.13120         ANGULO_LEME          iDivisorNMEA    -0.96000     
7.18126         MSG_UDP              iDivisorNMEA    $HCHDG,284.1,0.0,E,23.3,W*6D
 
7.18215         MSG_UDP              iDivisorNMEA    $GPHDT,260.78,T*0E
 
7.19249         MSG_UDP              iDivisorNMEA    $TIROT,0.09,A*02
 
7.21933         MSG_UDP              iDivisorNMEA    $MXPGN,01F803,281C,000000000000A04E*64
 
7.22001         MSG_UDP              iDivisorNMEA    $MXPGN,01F804,281C,0000005D44C1A04E*60
 
7.23327         MSG_UDP              iDivisorNMEA    $GPGGA,134003.000,2254.75435,S,04309.53730,W,1,12,0.70,7.73,M,-5.60,M,,*72
 
7.24056         MSG_UDP              iDivisorNMEA    $GPGLL,2254.75435,S,04309.53730,W,134003.000,A,A*5E
 
7.25084         MSG_UDP              iDivisorNMEA    $GPRMC,134003.000,A,2254.75435,S,04309.53730,W,0.19,0.00,070323,23.30,W,A*1F
 
7.26105         MSG_UDP              iDivisorNMEA    $GPVTG,0.00,T,,M,0.19,N,0.35,K,A*33
 
7.48132         MSG_UDP              iDivisorNMEA    $HCHDG,284.1,0.0,E,23.3,W*6D
 
7.48216         MSG_UDP              iDivisorNMEA    $GPHDT,260.79,T*0F
 
7.49187         MSG_UDP              iDivisorNMEA    $TIROT,0.29,A*00
 
7.50226         MSG_UDP              iDivisorNMEA    $MXPGN,00FF00,280B,0002000005049913*19
 
7.51256         MSG_UDP              iDivisorNMEA    $MXPGN,01F803,281C,0000000000002852*69
 
7.52285         MSG_UDP              iDivisorNMEA    $MXPGN,01F804,281C,000000A225C12852*68
 
7.53319         MSG_UDP              iDivisorNMEA    $MXPGN,00FF28,3808,FF08FFFDFC059F41*19
 
7.54352         MSG_UDP              iDivisorNMEA    $AGRSA,-0.96,A,,V*6D
 
7.54359         ANGULO_LEME          iDivisorNMEA    -0.96000     
7.58123         MSG_UDP              iDivisorNMEA    $HCHDG,284.1,0.0,E,23.3,W*6D
 
7.58219         MSG_UDP              iDivisorNMEA    $GPHDT,260.77,T*01
 
7.59250         MSG_UDP              iDivisorNMEA    $TIROT,0.00,A*0B
 
7.60928         MSG_UDP              iDivisorNMEA    $MXPGN,01F803,281C,0000000000003C53*12
 
7.61353         MSG_UDP              iDivisorNMEA    $MXPGN,01F804,281C,000000A8FBC13C53*1A
 
7.62626         MSG_UDP              iDivisorNMEA    $MXPGN,01FF2C,7808,FFFFFFFF9F411700*6B
 
7.63451         MSG_UDP              iDivisorNMEA    $MXPGN,01FF2C,7808,FFFF7FFFFFFF7F01*16
 
7.64472         MSG_UDP              iDivisorNMEA    $MXPGN,01FF2C,7808,FF7FFFFFFFFFFF02*64
 
7.65504         MSG_UDP              iDivisorNMEA    $MXPGN,01FF2C,7808,FFFFFFFF7FFFFF03*65
 
7.66531         MSG_UDP              iDivisorNMEA    $AGRSA,-0.96,A,,V*6D
 
7.66537         ANGULO_LEME          iDivisorNMEA    -0.96000     
7.67561         MSG_UDP              iDivisorNMEA    $MXPGN,00FF3D,6808,7FFFFF0DFFFF9F41*6E
 
7.68591         MSG_UDP              iDivisorNMEA    $HCHDG,284.1,0.0,E,23.3,W*6D
 
7.69625         MSG_UDP              iDivisorNMEA    $GPHDT,260.78,T*0E
 
7.70654         MSG_UDP              iDivisorNMEA    $TIROT,0.00,A*0B
 
7.71686         MSG_UDP              iDivisorNMEA    $MXPGN,01F803,281C,0000000000005054*60
 
7.72714         MSG_UDP              iDivisorNMEA    $MXPGN,01F804,281C,000000A8FBC15054*68
 
7.73747         MSG_UDP              iDivisorNMEA    $MXPGN,00FF3C,3808,8000F8FE00009F41*1C
 
7.74776         MSG_UDP              iDivisorNMEA    $AGRSA,-0.96,A,,V*6D
 
7.74787         ANGULO_LEME          iDivisorNMEA    -0.96000     
7.75809         MSG_UDP              iDivisorNMEA    $MXPGN,00FF00,280B,0002000005049913*19
 
7.78116         MSG_UDP              iDivisorNMEA    $HCHDG,284.1,0.0,E,23.3,W*6D
 
7.78211         MSG_UDP              iDivisorNMEA    $GPHDT,260.80,T*09
 
7.79240         MSG_UDP              iDivisorNMEA    $TIROT,0.39,A*01
 
7.80921         MSG_UDP              iDivisorNMEA    $MXPGN,01F803,281C,0000000000006455*66
 
7.81360         MSG_UDP              iDivisorNMEA    $MXPGN,01F804,281C,000000E62CC16455*11
 
7.82383         MSG_UDP              iDivisorNMEA    $MXPGN,01FF1A,680B,FF022B849F4105E0*19
 
7.83409         MSG_UDP              iDivisorNMEA    $MXPGN,00FF16,7808,FF0000002B0A9F41*1B
 
7.84439         MSG_UDP              iDivisorNMEA    $AGRSA,-0.96,A,,V*6D
 
7.84446         ANGULO_LEME          iDivisorNMEA    -0.96000     
7.85467         MSG_UDP              iDivisorNMEA    $MXPGN,01FF1A,782B,FF010B049F4105E0*13
 
7.86496         MSG_UDP              iDivisorNMEA    $MXPGN,00FF19,7808,0000000202009F41*15
 
7.87610         MSG_UDP              iDivisorNMEA    $MXPGN,00FF19,7808,0080000A0A009F41*1D
 
7.88537         MSG_UDP              iDivisorNMEA    $HCHDG,284.1,0.0,E,23.3,W*6D
 
7.89557         MSG_UDP              iDivisorNMEA    $GPHDT,260.82,T*0B
 
7.90583         MSG_UDP              iDivisorNMEA    $TIROT,0.39,A*01
 
7.91613         MSG_UDP              iDivisorNMEA    $MXPGN,01F803,281C,0000000000007856*68
 
7.92635         MSG_UDP              iDivisorNMEA    $MXPGN,01F804,281C,000000E62CC17856*1F
 
7.93659         MSG_UDP              iDivisorNMEA    $MXPGN,00FF8C,6808,FFF10695C9409F41*64
 
7.94694         MSG_UDP              iDivisorNMEA    $GPGGA,,2254.74769,S,04309.53989,W,1,,,,M,,M,,*59
 
7.95722         MSG_UDP              iDivisorNMEA    $GPGLL,2254.74769,S,04309.53989,W,,A,A*42
 
7.96747         MSG_UDP              iDivisorNMEA    $GPVTG,15.40,T,,M,0.70,N,1.29,K,A*00
 
7.97764         MSG_UDP              iDivisorNMEA    $AGRSA,-0.90,A,,V*6B
 
7.97768         ANGULO_LEME          iDivisorNMEA    -0.90000     
7.98780         MSG_UDP              iDivisorNMEA    $HCHDG,284.1,0.0,E,23.3,W*6D
 
7.99849         MSG_UDP              iDivisorNMEA    $GPHDT,260.84,T*0D
 
8.00889         MSG_UDP              iDivisorNMEA    $TIROT,0.59,A*07
 
8.01920         MSG_UDP              iDivisorNMEA    $MXPGN,00FF00,280B,0002000005049913*19
 
8.02948         MSG_UDP              iDivisorNMEA    !AIVDO,1,1,,,B:UOH3P00G>Vt=Lf>fP9cwR5oP06,0*1B
 
8.03969         MSG_UDP              iDivisorNMEA    $MXPGN,01F803,281C,0000000000008C57*1D
 
8.05001         MSG_UDP              iDivisorNMEA    $MXPGN,01F804,281C,000000E62CC18C57*6A
 
8.06031         MSG_UDP              iDivisorNMEA    $AGRSA,-0.90,A,,V*6B
 
8.06040         ANGULO_LEME          iDivisorNMEA    -0.90000     
8.07063         MSG_UDP              iDivisorNMEA    $GPZDA,134004.070,07,03,2023,,*54
 
8.08110         MSG_UDP              iDivisorNMEA    $HCHDG,284.2,0.0,E,23.3,W*6E
 
8.09144         MSG_UDP              iDivisorNMEA    $GPHDT,260.86,T*0F
 
8.10175         MSG_UDP              iDivisorNMEA    $TIROT,0.59,A*07
 
8.11202         MSG_UDP              iDivisorNMEA    $MXPGN,01F803,281C,0000000000008C57*1D
 
8.12231         MSG_UDP              iDivisorNMEA    $MXPGN,01F804,281C,00000009D3C18C57*16
 
8.13256         MSG_UDP              iDivisorNMEA    $AGRSA,-0.96,A,,V*6D
 
8.13262         ANGULO_LEME          iDivisorNMEA    -0.96000     
8.17333         MSG_UDP              iDivisorNMEA    !AIVDM,1,1,,A,1:U6vLPP00trHfQjpdw;6wv82<1u,0*7A
 
8.38204         MSG_UDP              iDivisorNMEA    $HCHDG,284.2,0.0,E,23.3,W*6E
 
8.38220         MSG_UDP              iDivisorNMEA    $GPHDT,260.87,T*0E
 
8.39244         MSG_UDP              iDivisorNMEA    $TIROT,0.59,A*07
 
8.40273         MSG_UDP              iDivisorNMEA    !AIVDM,1,1,,B,16:>J;?P00LrE9ujr;3GAOv<0<1i,0*48
 
8.41351         MSG_UDP              iDivisorNMEA    $GPGSA,A,3,08,10,16,18,21,23,26,,,,,,2.16,1.79,1.79*06
 
8.42366         MSG_UDP              iDivisorNMEA    $GPGSV,2,1,07,08,40,239,45,10,38,151,35,16,09,316,41,18,17,070,00*76
 
8.43418         MSG_UDP              iDivisorNMEA    $GPGSV,2,2,07,21,11,222,00,23,14,125,00,26,01,350,00*4E
 
8.44431         MSG_UDP              iDivisorNMEA    $MXPGN,01FA06,681C,9F00B700C8590F20*15
 
8.45467         MSG_UDP              iDivisorNMEA    $MXPGN,01FA06,681C,00A200B4E66D0021*1B
 
8.46499         MSG_UDP              iDivisorNMEA    $MXPGN,01FA06,681C,FFFFFFFFFF016922*12
 
8.47524         MSG_UDP              iDivisorNMEA    $MXPGN,01F803,281C,0000000000000059*68
 
8.48539         MSG_UDP              iDivisorNMEA    $MXPGN,01F804,281C,00000009D3C10059*63
 
8.49551         MSG_UDP              iDivisorNMEA    $GPGGA,134004.900,2254.75330,S,04309.53839,W,1,07,1.79,1.17,M,-5.00,M,,*76
 
8.50587         MSG_UDP              iDivisorNMEA    $GPGLL,2254.75330,S,04309.53839,W,134004.900,A,A*54
 
8.51620         MSG_UDP              iDivisorNMEA    $GPRMC,134004.900,A,2254.75330,S,04309.53839,W,0.00,14.40,070323,23.39,W,A*25
 
8.52635         MSG_UDP              iDivisorNMEA    $GPVTG,14.40,T,,M,0.00,N,0.00,K,A*0C
 
8.53668         MSG_UDP              iDivisorNMEA    $AGRSA,-0.96,A,,V*6D
 
8.53670         ANGULO_LEME          iDivisorNMEA    -0.96000     
8.54684         MSG_UDP              iDivisorNMEA    !AIVDM,1,1,,B,1:U8M80P0PtrHeejqBuJ4?v:282v,0*17
 
8.55704         MSG_UDP              iDivisorNMEA    $HCHDG,284.2,0.0,E,23.3,W*6E
 
8.56735         MSG_UDP              iDivisorNMEA    $GPHDT,260.88,T*01
 
8.57768         MSG_UDP              iDivisorNMEA    $TIROT,0.59,A*07
 
8.58799         MSG_UDP              iDivisorNMEA    $MXPGN,00FF00,280B,0002000005049913*19
 
8.59820         MSG_UDP              iDivisorNMEA    $MXPGN,01F803,281C,000000000000145A*15
 
8.60843         MSG_UDP              iDivisorNMEA    $MXPGN,01F804,281C,000000C2FCC1145A*14
 
8.61869         MSG_UDP              iDivisorNMEA    $MXPGN,00FF28,3808,FF08FFFDFC059F41*19
 
8.62889         MSG_UDP              iDivisorNMEA    $AGRSA,-0.96,A,,V*6D
 
8.62895         ANGULO_LEME          iDivisorNMEA    -0.96000     
8.63915         MSG_UDP              iDivisorNMEA    $HCHDG,284.2,0.0,E,23.3,W*6E
 
8.64946         MSG_UDP              iDivisorNMEA    $GPHDT,260.88,T*01
 
8.65972         MSG_UDP              iDivisorNMEA    $TIROT,0.59,A*07
 
8.66996         MSG_UDP              iDivisorNMEA    $MXPGN,01F803,281C,000000000000145A*15
 
8.68014         MSG_UDP              iDivisorNMEA    $MXPGN,01F804,281C,000000C2FCC1145A*14
 
8.69029         MSG_UDP              iDivisorNMEA    $MXPGN,01FF2C,7808,FFFFFFFF9F411720*69
 
8.70046         MSG_UDP              iDivisorNMEA    $MXPGN,01FF2C,7808,FFFF7FFFFFFF7F21*14
 
8.71062         MSG_UDP              iDivisorNMEA    $MXPGN,01FF2C,7808,FF7FFFFFFFFFFF22*66
 
8.72080         MSG_UDP              iDivisorNMEA    $MXPGN,01FF2C,7808,FFFFFFFF7FFFFF23*67
 
8.73095         MSG_UDP              iDivisorNMEA    $AGRSA,-0.96,A,,V*6D
 
8.73099         ANGULO_LEME          iDivisorNMEA    -0.96000     
8.74111         MSG_UDP              iDivisorNMEA    $MXPGN,00FF3D,6808,7FFFFF0DFFFF9F41*6E
 
8.75417         MSG_UDP              iDivisorNMEA    $HCHDG,284.2,0.0,E,23.3,W*6E
 
8.76429         MSG_UDP              iDivisorNMEA    $GPHDT,260.90,T*08
 
8.77445         MSG_UDP              iDivisorNMEA    $TIROT,0.59,A*07
 
8.78462         MSG_UDP              iDivisorNMEA    $MXPGN,01F803,281C,000000000000505D*10
 
8.79475         MSG_UDP              iDivisorNMEA    $MXPGN,01F804,281C,0000005139C1505D*6B
 
8.80496         MSG_UDP              iDivisorNMEA    $MXPGN,00FF3C,3808,8000F8FE00009F41*1C
 
8.81526         MSG_UDP              iDivisorNMEA    $AGRSA,-0.96,A,,V*6D
 
8.81531         ANGULO_LEME          iDivisorNMEA    -0.96000     
8.82546         MSG_UDP              iDivisorNMEA    $MXPGN,00FF00,280B,0002000005049913*19
 
8.83594         MSG_UDP              iDivisorNMEA    $MXPGN,01FF1A,680B,FF022B849F410500*6C
 
8.84608         MSG_UDP              iDivisorNMEA    $HCHDG,284.2,0.0,E,23.3,W*6E
 
8.85624         MSG_UDP              iDivisorNMEA    $GPHDT,260.93,T*0B
 
8.86637         MSG_UDP              iDivisorNMEA    $TIROT,0.79,A*05
 
8.87651         MSG_UDP              iDivisorNMEA    $MXPGN,01FF1A,782B,FF010B049F410500*66
 
8.88664         MSG_UDP              iDivisorNMEA    $MXPGN,01F803,281C,000000000000785F*18
 
8.89681         MSG_UDP              iDivisorNMEA    $MXPGN,01F804,281C,0000001C3EC1785F*69
 
8.90694         MSG_UDP              iDivisorNMEA    $MXPGN,00FF16,7808,FF0000002B0A9F41*1B
 
8.91707         MSG_UDP              iDivisorNMEA    $AGRSA,-0.96,A,,V*6D
 
8.91710         ANGULO_LEME          iDivisorNMEA    -0.96000     
8.92731         MSG_UDP              iDivisorNMEA    $MXPGN,00FF19,7808,0000000202009F41*15
 
8.93760         MSG_UDP              iDivisorNMEA    $MXPGN,00FF19,7808,0080000A0A009F41*1D
 
8.94787         MSG_UDP              iDivisorNMEA    $HCHDG,284.3,0.0,E,23.3,W*6F
 
8.95816         MSG_UDP              iDivisorNMEA    $GPHDT,260.97,T*0F
 
8.96849         MSG_UDP              iDivisorNMEA    $TIROT,0.89,A*0A
 
8.97890         MSG_UDP              iDivisorNMEA    $MXPGN,01F803,281C,0000000000008D60*1E
 
8.98918         MSG_UDP              iDivisorNMEA    $MXPGN,01F804,281C,0000001C3EC18D60*6F
 
8.99951         MSG_UDP              iDivisorNMEA    $MXPGN,00FF8C,6808,FFF10695C9409F41*64
 
9.01052         MSG_UDP              iDivisorNMEA    $GPGGA,,2254.74799,S,04309.53999,W,1,,,,M,,M,,*57
 
9.02083         MSG_UDP              iDivisorNMEA    $GPGLL,2254.74799,S,04309.53999,W,,A,A*4C
 
9.28115         MSG_UDP              iDivisorNMEA    $HCHDG,284.2,0.0,E,23.3,W*6E
 
9.28203         MSG_UDP              iDivisorNMEA    $GPHDT,260.92,T*0A
 
9.29233         MSG_UDP              iDivisorNMEA    $TIROT,1.09,A*03
 
9.30267         MSG_UDP              iDivisorNMEA    $GPGSA,A,3,08,10,16,18,21,27,28,31,32,66,65,86,1.30,0.70,1.10*02
 
9.31302         MSG_UDP              iDivisorNMEA    $GPGSV,3,1,12,08,41,240,37,10,38,152,27,16,10,317,42,18,18,070,34*7B
 
9.32336         MSG_UDP              iDivisorNMEA    $GPGSV,3,2,12,21,11,223,23,27,62,289,33,28,19,029,42,31,14,019,44*78
 
9.33372         MSG_UDP              iDivisorNMEA    $GPGSV,3,3,12,32,77,107,44,66,16,311,44,65,62,261,39,86,29,048,42*7E
 
