%%%%%%%%%%%%%%%%%%%%%%%%%%%%%%%%%%%%%%%%%%%%%%%%%%%%%%%%%%%
%% LOG FILE:       /home/moos-ivp-douglas/log/teste_7_3_2023_____10_35_31/teste_7_3_2023_____10_35_31.alog
%% FILE OPENED ON  Wed Dec 31 21:00:00 1969
%% LOGSTART           1678196131.297208
%%%%%%%%%%%%%%%%%%%%%%%%%%%%%%%%%%%%%%%%%%%%%%%%%%%%%%%%%%%
-0.05561        MOOS_DEBUG           pHelmIvP        pHelmIvP AllStop: ManualOverride 
-0.05561        DESIRED_SPEED        pHelmIvP        0.00000      
-0.05561        DESIRED_HEADING      pHelmIvP        0.00000      
0.15297         DESIRED_RUDDER       pMarinePIDV22   0.00000      
0.15297         DESIRED_THRUST       pMarinePIDV22   0.00000      
0.59883         ANGULO_LEME          iDivisorNMEA    -0.96000     
0.67432         MSG_UDP              iDivisorNMEA    $HCHDG,284.2,0.0,E,23.3,W*6E
 
0.92982         MSG_UDP              iDivisorNMEA    $GPGSV,3,1,12,08,40,238,38,10,39,153,29,16,11,315,44,18,19,072,34*72
 
0.93083         MSG_UDP              iDivisorNMEA    $GPGSV,3,2,12,21,10,224,25,27,63,284,34,28,18,027,42,31,13,018,43*7D
 
0.94105         MSG_UDP              iDivisorNMEA    $GPGSV,3,3,12,32,78,097,42,66,15,313,41,65,62,267,40,86,31,050,42*73
 
0.95121         MSG_UDP              iDivisorNMEA    $MXPGN,00FF00,280B,0002000005049913*19
 
0.96138         MSG_UDP              iDivisorNMEA    $MXPGN,01FF0D,780B,FF030000989005E0*13
 
0.97152         MSG_UDP              iDivisorNMEA    $HCHDG,284.2,0.0,E,23.3,W*6E
 
0.98168         MSG_UDP              iDivisorNMEA    $GPHDT,260.86,T*0F
 
0.99185         MSG_UDP              iDivisorNMEA    $TIROT,0.79,A*05
 
1.00203         MSG_UDP              iDivisorNMEA    !AIVDM,1,1,,B,1:U7;pPP00LrGtijpjSWdgw02@Bm,0*0E
 
1.01220         MSG_UDP              iDivisorNMEA    $MXPGN,01F803,281C,000000000000147A*17
 
1.02239         MSG_UDP              iDivisorNMEA    $MXPGN,01F804,281C,000000D7C9C1147A*6B
 
1.03254         MSG_UDP              iDivisorNMEA    $AGRSA,-0.96,A,,V*6D
 
1.03256         ANGULO_LEME          iDivisorNMEA    -0.96000     
1.04266         MSG_UDP              iDivisorNMEA    $MXPGN,00FF28,3808,FF08FFFDFC059F41*19
 
1.05281         MSG_UDP              iDivisorNMEA    $HCHDG,284.2,0.0,E,23.3,W*6E
 
1.06307         MSG_UDP              iDivisorNMEA    $GPHDT,260.87,T*0E
 
1.07321         MSG_UDP              iDivisorNMEA    $TIROT,0.79,A*05
 
1.08338         MSG_UDP              iDivisorNMEA    $MXPGN,01F803,281C,0000000000003C7C*60
 
1.09350         MSG_UDP              iDivisorNMEA    $MXPGN,01F804,281C,0000001C37C13C7C*63
 
1.10366         MSG_UDP              iDivisorNMEA    $AGRSA,-0.96,A,,V*6D
 
1.10368         ANGULO_LEME          iDivisorNMEA    -0.96000     
1.11381         MSG_UDP              iDivisorNMEA    $MXPGN,01FF2C,7808,FFFFFFFF9F411700*6B
 
1.12398         MSG_UDP              iDivisorNMEA    $MXPGN,01FF2C,7808,FFFF7FFFFFFF7F01*16
 
1.13410         MSG_UDP              iDivisorNMEA    $MXPGN,01FF2C,7808,FF7FFFFFFFFFFF02*64
 
1.14424         MSG_UDP              iDivisorNMEA    $MXPGN,01FF2C,7808,FFFFFFFF7FFFFF03*65
 
1.15438         MSG_UDP              iDivisorNMEA    $MXPGN,01FF22,2808,FF01FFFF9F410CC0*18
 
1.16452         MSG_UDP              iDivisorNMEA    $MXPGN,01FF22,2808,FFFF00000A0039C1*6A
 
1.17468         MSG_UDP              iDivisorNMEA    $MXPGN,00FF3D,6808,7FFFFF0DFFFF9F41*6E
 
1.18484         MSG_UDP              iDivisorNMEA    $HCHDG,284.2,0.0,E,23.3,W*6E
 
1.19501         MSG_UDP              iDivisorNMEA    $GPHDT,260.87,T*0E
 
1.20518         MSG_UDP              iDivisorNMEA    $TIROT,0.79,A*05
 
1.21539         MSG_UDP              iDivisorNMEA    $MXPGN,01F803,281C,000000000000507D*12
 
1.22559         MSG_UDP              iDivisorNMEA    $MXPGN,00FF00,280B,0002000005049913*19
 
1.23579         MSG_UDP              iDivisorNMEA    $MXPGN,01F804,281C,0000001C37C1507D*11
 
1.24594         MSG_UDP              iDivisorNMEA    $MXPGN,01FF1A,680B,FF022B849F4105E0*19
 
1.25615         MSG_UDP              iDivisorNMEA    $AGRSA,-0.96,A,,V*6D
 
1.25620         ANGULO_LEME          iDivisorNMEA    -0.96000     
1.26632         MSG_UDP              iDivisorNMEA    $MXPGN,01FF1A,782B,FF010B049F410580*6E
 
1.27650         MSG_UDP              iDivisorNMEA    $MXPGN,00FF3C,3808,8000F8FE00009F41*1C
 
1.28667         MSG_UDP              iDivisorNMEA    $HCHDG,284.2,0.0,E,23.3,W*6E
 
1.29683         MSG_UDP              iDivisorNMEA    $GPHDT,260.87,T*0E
 
1.30704         MSG_UDP              iDivisorNMEA    $TIROT,0.79,A*05
 
1.31722         MSG_UDP              iDivisorNMEA    $MXPGN,01F803,281C,000000000000647E*14
 
1.32737         MSG_UDP              iDivisorNMEA    $MXPGN,01F804,281C,000000B867C1647E*1A
 
1.33755         MSG_UDP              iDivisorNMEA    $AGRSA,-0.96,A,,V*6D
 
1.33758         ANGULO_LEME          iDivisorNMEA    -0.96000     
1.34773         MSG_UDP              iDivisorNMEA    $MXPGN,00FF16,7808,FF0000002B0A9F41*1B
 
1.35790         MSG_UDP              iDivisorNMEA    $MXPGN,00FF19,7808,0000000202009F41*15
 
1.36807         MSG_UDP              iDivisorNMEA    $HCHDG,284.2,0.0,E,23.3,W*6E
 
1.37825         MSG_UDP              iDivisorNMEA    $GPHDT,260.86,T*0F
 
1.38843         MSG_UDP              iDivisorNMEA    $TIROT,0.79,A*05
 
1.39859         MSG_UDP              iDivisorNMEA    $MXPGN,00FF19,7808,0080000A0A009F41*1D
 
1.40880         MSG_UDP              iDivisorNMEA    !AIVDM,1,1,,B,1:U85d000kLrM?=jrnCh?hAD0`C5,0*11
 
1.41898         MSG_UDP              iDivisorNMEA    $MXPGN,01F803,281C,000000000000787F*1A
 
1.42916         MSG_UDP              iDivisorNMEA    $MXPGN,01F804,281C,000000B867C1787F*14
 
1.43933         MSG_UDP              iDivisorNMEA    $GPGGA,,2254.74359,S,04309.54689,W,1,,,,M,,M,,*56
 
1.44953         MSG_UDP              iDivisorNMEA    $GPGLL,2254.74359,S,04309.54689,W,,A,A*4D
 
1.45974         MSG_UDP              iDivisorNMEA    $GPVTG,334.80,T,,M,0.30,N,0.55,K,A*32
 
1.46992         MSG_UDP              iDivisorNMEA    $AGRSA,-1.01,A,,V*62
 
1.46995         ANGULO_LEME          iDivisorNMEA    -1.01000     
1.48013         MSG_UDP              iDivisorNMEA    $MXPGN,00FF8C,6808,FFF10695C9409F41*64
 
1.49031         MSG_UDP              iDivisorNMEA    $MXPGN,00FF00,280B,0002000005049913*19
 
1.50047         MSG_UDP              iDivisorNMEA    $HCHDG,284.2,0.0,E,23.3,W*6E
 
1.51063         MSG_UDP              iDivisorNMEA    $GPHDT,260.87,T*0E
 
1.52080         MSG_UDP              iDivisorNMEA    $TIROT,0.99,A*0B
 
1.53098         MSG_UDP              iDivisorNMEA    $MXPGN,01F803,281C,0000000000008C80*17
 
1.54120         MSG_UDP              iDivisorNMEA    $MXPGN,01F804,281C,000000B867C18C80*19
 
1.55135         MSG_UDP              iDivisorNMEA    $AGRSA,-1.01,A,,V*62
 
1.55138         ANGULO_LEME          iDivisorNMEA    -1.01000     
1.56153         MSG_UDP              iDivisorNMEA    $GPZDA,133531.940,07,03,2023,,*5A
 
1.84200         MSG_UDP              iDivisorNMEA    $HCHDG,284.2,0.0,E,23.3,W*6E
 
1.84208         MSG_UDP              iDivisorNMEA    $GPHDT,260.87,T*0E
 
1.85230         MSG_UDP              iDivisorNMEA    $TIROT,0.89,A*0A
 
1.86690         MSG_UDP              iDivisorNMEA    $GPGSA,A,3,08,10,16,18,21,23,26,27,,,,,2.02,1.70,1.70*06
 
1.87311         MSG_UDP              iDivisorNMEA    $GPGSV,2,1,08,08,39,237,44,10,39,154,35,16,10,314,41,18,18,071,37*7C
 
1.88330         MSG_UDP              iDivisorNMEA    $GPGSV,2,2,08,21,09,223,00,23,15,127,00,26,02,348,39,27,62,283,48*7E
 
1.89346         MSG_UDP              iDivisorNMEA    $MXPGN,01FA06,681C,8600AF00C8830F20*11
 
1.90364         MSG_UDP              iDivisorNMEA    $MXPGN,01FA06,681C,008600AFF50B0021*17
 
1.91381         MSG_UDP              iDivisorNMEA    $MXPGN,01FA06,681C,FFFFFFFFFF015722*1F
 
1.92404         MSG_UDP              iDivisorNMEA    $MXPGN,01F803,281C,0000000000000083*6F
 
1.93460         MSG_UDP              iDivisorNMEA    $MXPGN,01F804,281C,0000000EC2C10083*1E
 
1.94486         MSG_UDP              iDivisorNMEA    $GPGGA,133533.000,2254.75330,S,04309.53829,W,1,08,1.70,0.98,M,-5.00,M,,*78
 
1.95512         MSG_UDP              iDivisorNMEA    $GPGLL,2254.75330,S,04309.53829,W,133533.000,A,A*5A
 
1.96530         MSG_UDP              iDivisorNMEA    $GPRMC,133533.000,A,2254.75330,S,04309.53829,W,0.00,37.18,070323,23.39,W,A*27
 
1.97565         MSG_UDP              iDivisorNMEA    $GPVTG,37.18,T,,M,0.00,N,0.00,K,A*00
 
1.98596         MSG_UDP              iDivisorNMEA    $AGRSA,-0.96,A,,V*6D
 
1.98598         ANGULO_LEME          iDivisorNMEA    -0.96000     
1.99606         MSG_UDP              iDivisorNMEA    !AIVDO,1,1,,,B:UOH3P00W>VsbLf>i7ACwh5oP06,0*59
 
2.00634         MSG_UDP              iDivisorNMEA    $GPGSA,A,3,08,10,16,18,21,27,28,31,32,66,65,86,1.30,1.10,1.10*05
 
2.01660         MSG_UDP              iDivisorNMEA    $GPGSV,3,1,12,08,40,238,38,10,39,153,30,16,11,315,43,18,19,072,34*7D
 
2.02681         MSG_UDP              iDivisorNMEA    $GPGSV,3,2,12,21,10,224,25,27,63,284,34,28,18,027,42,31,13,018,43*7D
 
2.03705         MSG_UDP              iDivisorNMEA    $GPGSV,3,3,12,32,78,097,42,66,15,313,41,65,62,267,40,86,31,050,42*73
 
2.04734         MSG_UDP              iDivisorNMEA    $MXPGN,01FF0D,780B,FF03000098900500*66
 
2.05760         MSG_UDP              iDivisorNMEA    $MXPGN,00FF00,280B,0002000005049913*19
 
2.06785         MSG_UDP              iDivisorNMEA    $HCHDG,284.2,0.0,E,23.3,W*6E
 
2.07814         MSG_UDP              iDivisorNMEA    $GPHDT,260.87,T*0E
 
2.08841         MSG_UDP              iDivisorNMEA    $TIROT,0.89,A*0A
 
2.09860         MSG_UDP              iDivisorNMEA    $MXPGN,01F803,281C,0000000000002885*63
 
2.10887         MSG_UDP              iDivisorNMEA    $MXPGN,01F804,281C,0000000EC2C12885*12
 
2.11911         MSG_UDP              iDivisorNMEA    $AGRSA,-0.96,A,,V*6D
 
2.11916         ANGULO_LEME          iDivisorNMEA    -0.96000     
2.12939         MSG_UDP              iDivisorNMEA    $MXPGN,00FF28,3808,FF08FFFDFC059F41*19
 
2.13970         MSG_UDP              iDivisorNMEA    $HCHDG,284.2,0.0,E,23.3,W*6E
 
2.14999         MSG_UDP              iDivisorNMEA    $GPHDT,260.90,T*08
 
2.16023         MSG_UDP              iDivisorNMEA    $TIROT,1.19,A*02
 
2.17055         MSG_UDP              iDivisorNMEA    $MXPGN,01F803,281C,0000000000003C86*1A
 
2.18080         MSG_UDP              iDivisorNMEA    $MXPGN,01F804,281C,000000C7E6C13C86*68
 
2.19119         MSG_UDP              iDivisorNMEA    $AGRSA,-0.96,A,,V*6D
 
2.19126         ANGULO_LEME          iDivisorNMEA    -0.96000     
2.20145         MSG_UDP              iDivisorNMEA    $MXPGN,01FF1A,680B,FF022B849F410500*6C
 
2.21170         MSG_UDP              iDivisorNMEA    $MXPGN,01FF2C,7808,FFFFFFFF9F411720*69
 
2.22200         MSG_UDP              iDivisorNMEA    $MXPGN,01FF2C,7808,FFFF7FFFFFFF7F21*14
 
2.23222         MSG_UDP              iDivisorNMEA    $MXPGN,01FF2C,7808,FF7FFFFFFFFFFF22*66
 
2.24247         MSG_UDP              iDivisorNMEA    $MXPGN,01FF2C,7808,FFFFFFFF7FFFFF23*67
 
2.25276         MSG_UDP              iDivisorNMEA    $MXPGN,01FF1A,782B,FF010B049F4105A0*17
 
2.26300         MSG_UDP              iDivisorNMEA    $MXPGN,00FF3D,6808,7FFFFF0DFFFF9F41*6E
 
2.27319         MSG_UDP              iDivisorNMEA    $HCHDG,284.2,0.0,E,23.3,W*6E
 
2.28346         MSG_UDP              iDivisorNMEA    $GPHDT,260.89,T*00
 
2.29373         MSG_UDP              iDivisorNMEA    $TIROT,1.19,A*02
 
2.30402         MSG_UDP              iDivisorNMEA    $MXPGN,01F803,281C,0000000000005087*6E
 
2.31438         MSG_UDP              iDivisorNMEA    $MXPGN,00FF00,280B,0002000005049913*19
 
2.32475         MSG_UDP              iDivisorNMEA    $MXPGN,01F804,281C,000000C7E6C15087*1C
 
2.33509         MSG_UDP              iDivisorNMEA    $AGRSA,-0.96,A,,V*6D
 
2.33515         ANGULO_LEME          iDivisorNMEA    -0.96000     
2.34534         MSG_UDP              iDivisorNMEA    $MXPGN,00FF3C,3808,8000F8FE00009F41*1C
 
2.35559         MSG_UDP              iDivisorNMEA    $HCHDG,284.2,0.0,E,23.3,W*6E
 
2.36585         MSG_UDP              iDivisorNMEA    $GPHDT,260.87,T*0E
 
2.37607         MSG_UDP              iDivisorNMEA    $TIROT,0.99,A*0B
 
2.38637         MSG_UDP              iDivisorNMEA    $MXPGN,01F803,281C,0000000000006488*66
 
2.39666         MSG_UDP              iDivisorNMEA    $MXPGN,01F804,281C,000000530AC16488*64
 
2.40693         MSG_UDP              iDivisorNMEA    !AIVDM,1,1,,B,33moet1000LrCEijria1M4a40DpJ,0*25
 
2.41716         MSG_UDP              iDivisorNMEA    $AGRSA,-0.96,A,,V*6D
 
2.41721         ANGULO_LEME          iDivisorNMEA    -0.96000     
2.42742         MSG_UDP              iDivisorNMEA    $MXPGN,00FF16,7808,FF0000002B0A9F41*1B
 
2.43816         MSG_UDP              iDivisorNMEA    $MXPGN,00FF19,7808,0000000202009F41*15
 
2.44844         MSG_UDP              iDivisorNMEA    $HCHDG,284.2,0.0,E,23.3,W*6E
 
2.45868         MSG_UDP              iDivisorNMEA    $GPHDT,260.88,T*01
 
2.46899         MSG_UDP              iDivisorNMEA    $TIROT,0.99,A*0B
 
2.47926         MSG_UDP              iDivisorNMEA    $MXPGN,00FF19,7808,0080000A0A009F41*1D
 
2.74206         MSG_UDP              iDivisorNMEA    $HCHDG,284.2,0.0,E,23.3,W*6E
 
2.74243         MSG_UDP              iDivisorNMEA    $GPHDT,260.85,T*0C
 
2.75277         MSG_UDP              iDivisorNMEA    $TIROT,0.69,A*04
 
2.77618         MSG_UDP              iDivisorNMEA    $MXPGN,01F803,281C,000000000000C88D*63
 
2.77631         MSG_UDP              iDivisorNMEA    $MXPGN,01F804,281C,0000002AC2C1C88D*14
 
2.79108         MSG_UDP              iDivisorNMEA    $AGRSA,-0.96,A,,V*6D
 
2.79117         ANGULO_LEME          iDivisorNMEA    -0.96000     
2.84218         MSG_UDP              iDivisorNMEA    $HCHDG,284.2,0.0,E,23.3,W*6E
 
2.84228         MSG_UDP              iDivisorNMEA    $GPHDT,260.85,T*0C
 
2.85258         MSG_UDP              iDivisorNMEA    $TIROT,0.79,A*05
 
2.87309         MSG_UDP              iDivisorNMEA    $GPGSA,A,3,08,10,16,18,21,23,26,27,,,,,2.02,1.70,1.70*06
 
2.87399         MSG_UDP              iDivisorNMEA    $GPGSV,2,1,08,08,39,237,44,10,39,154,35,16,10,314,42,18,18,071,36*7E
 
2.88416         MSG_UDP              iDivisorNMEA    $GPGSV,2,2,08,21,09,223,00,23,15,127,00,26,02,348,40,27,62,283,48*70
 
2.89433         MSG_UDP              iDivisorNMEA    $MXPGN,01FA06,681C,8600AF00C88D0F40*60
 
2.90452         MSG_UDP              iDivisorNMEA    $MXPGN,01FA06,681C,008600AFF50B0041*11
 
2.91465         MSG_UDP              iDivisorNMEA    $MXPGN,01FA06,681C,FFFFFFFFFF015742*19
 
2.92482         MSG_UDP              iDivisorNMEA    $MXPGN,01F803,281C,000000000000008D*18
 
2.93502         MSG_UDP              iDivisorNMEA    $MXPGN,01F804,281C,0000002AC2C1008D*6F
 
2.94540         MSG_UDP              iDivisorNMEA    $GPGGA,133534.000,2254.75330,S,04309.53829,W,1,08,1.70,0.98,M,-5.00,M,,*7F
 
2.95577         MSG_UDP              iDivisorNMEA    $GPGLL,2254.75330,S,04309.53829,W,133534.000,A,A*5D
 
2.96608         MSG_UDP              iDivisorNMEA    $GPRMC,133534.000,A,2254.75330,S,04309.53829,W,0.01,261.06,070323,23.39,W,A*1F
 
2.97629         MSG_UDP              iDivisorNMEA    $GPVTG,261.06,T,,M,0.01,N,0.01,K,A*3E
 
2.98643         MSG_UDP              iDivisorNMEA    $AGRSA,-0.96,A,,V*6D
 
2.98645         ANGULO_LEME          iDivisorNMEA    -0.96000     
2.99666         MSG_UDP              iDivisorNMEA    $GPGSA,A,3,08,10,16,18,21,27,28,31,32,66,65,86,1.30,1.10,1.10*05
 
3.00691         MSG_UDP              iDivisorNMEA    $GPGSV,3,1,12,08,40,238,38,10,39,153,29,16,11,315,43,18,19,071,34*76
 
3.01723         MSG_UDP              iDivisorNMEA    $GPGSV,3,2,12,21,10,224,25,27,63,284,34,28,18,027,42,31,13,018,43*7D
 
3.02754         MSG_UDP              iDivisorNMEA    $GPGSV,3,3,12,32,78,097,42,66,15,313,41,65,62,267,40,86,31,050,41*70
 
3.03782         MSG_UDP              iDivisorNMEA    $MXPGN,00FF00,280B,0002000005049913*19
 
3.04806         MSG_UDP              iDivisorNMEA    $HCHDG,284.2,0.0,E,23.3,W*6E
 
3.05825         MSG_UDP              iDivisorNMEA    $GPHDT,260.85,T*0C
 
3.06853         MSG_UDP              iDivisorNMEA    $TIROT,0.79,A*05
 
3.07877         MSG_UDP              iDivisorNMEA    $MXPGN,01FF0D,780B,FF03000098900520*64
 
3.08902         MSG_UDP              iDivisorNMEA    $MXPGN,01F803,281C,000000000000288F*10
 
3.09928         MSG_UDP              iDivisorNMEA    $MXPGN,01F804,281C,0000002AC2C1288F*67
 
3.10953         MSG_UDP              iDivisorNMEA    $AGRSA,-0.96,A,,V*6D
 
3.10959         ANGULO_LEME          iDivisorNMEA    -0.96000     
3.11980         MSG_UDP              iDivisorNMEA    $MXPGN,00FF28,3808,FF08FFFDFC059F41*19
 
3.13005         MSG_UDP              iDivisorNMEA    $HCHDG,284.1,0.0,E,23.3,W*6D
 
3.14031         MSG_UDP              iDivisorNMEA    $GPHDT,260.84,T*0D
 
3.15054         MSG_UDP              iDivisorNMEA    $TIROT,0.59,A*07
 
3.16082         MSG_UDP              iDivisorNMEA    $MXPGN,01F803,281C,0000000000003C90*1D
 
3.17111         MSG_UDP              iDivisorNMEA    $MXPGN,01F804,281C,0000009C8FC13C90*6C
 
3.18135         MSG_UDP              iDivisorNMEA    $AGRSA,-0.96,A,,V*6D
 
3.18140         ANGULO_LEME          iDivisorNMEA    -0.96000     
3.19162         MSG_UDP              iDivisorNMEA    $MXPGN,01FF1A,680B,FF022B849F410520*6E
 
3.20192         MSG_UDP              iDivisorNMEA    $MXPGN,01FF2C,7808,FFFFFFFF9F411740*6F
 
3.21222         MSG_UDP              iDivisorNMEA    $MXPGN,01FF2C,7808,FFFF7FFFFFFF7F41*12
 
3.22273         MSG_UDP              iDivisorNMEA    $MXPGN,01FF2C,7808,FF7FFFFFFFFFFF42*60
 
3.23319         MSG_UDP              iDivisorNMEA    $MXPGN,01FF2C,7808,FFFFFFFF7FFFFF43*61
 
3.24347         MSG_UDP              iDivisorNMEA    !AIVDM,2,1,7,B,5:U8vhT2CPbM1G;WK21E20<u84j222222222221J1q86=76<0<4RCp11H2PC,0*3A
 
3.25370         MSG_UDP              iDivisorNMEA    !AIVDM,2,2,7,B,QBDSp888880,2*6C
 
3.26399         MSG_UDP              iDivisorNMEA    $MXPGN,00FF3D,6808,7FFFFF0DFFFF9F41*6E
 
3.27425         MSG_UDP              iDivisorNMEA    $MXPGN,01FF1A,782B,FF010B049F4105C0*15
 
3.28449         MSG_UDP              iDivisorNMEA    $HCHDG,284.1,0.0,E,23.3,W*6D
 
3.29475         MSG_UDP              iDivisorNMEA    $GPHDT,260.84,T*0D
 
3.30517         MSG_UDP              iDivisorNMEA    $TIROT,0.59,A*07
 
3.31543         MSG_UDP              iDivisorNMEA    $MXPGN,01F803,281C,0000000000005091*69
 
3.32590         MSG_UDP              iDivisorNMEA    $MXPGN,00FF00,280B,0002000005049913*19
 
3.33620         MSG_UDP              iDivisorNMEA    $MXPGN,01F804,281C,0000009C8FC15091*18
 
3.34649         MSG_UDP              iDivisorNMEA    $AGRSA,-0.96,A,,V*6D
 
3.34657         ANGULO_LEME          iDivisorNMEA    -0.96000     
3.35679         MSG_UDP              iDivisorNMEA    $MXPGN,00FF3C,3808,8000F8FE00009F41*1C
 
3.36704         MSG_UDP              iDivisorNMEA    $HCHDG,284.1,0.0,E,23.3,W*6D
 
3.37734         MSG_UDP              iDivisorNMEA    $GPHDT,260.84,T*0D
 
3.38763         MSG_UDP              iDivisorNMEA    $TIROT,0.49,A*06
 
3.39788         MSG_UDP              iDivisorNMEA    $MXPGN,01F803,281C,0000000000006492*6D
 
3.40814         MSG_UDP              iDivisorNMEA    $MXPGN,01F804,281C,0000008216C16492*15
 
3.41840         MSG_UDP              iDivisorNMEA    $AGRSA,-0.96,A,,V*6D
 
3.41849         ANGULO_LEME          iDivisorNMEA    -0.96000     
3.64427         MSG_UDP              iDivisorNMEA    $GPGGA,133534.000,2254.75355,S,04309.54066,W,1,12,0.70,11.46,M,-5.60,M,,*47
 
3.64528         MSG_UDP              iDivisorNMEA    $GPGLL,2254.75355,S,04309.54066,W,133534.000,A,A*5A
 
3.65518         MSG_UDP              iDivisorNMEA    $GPRMC,133534.000,A,2254.75355,S,04309.54066,W,0.09,0.00,070323,23.30,W,A*1A
 
3.66545         MSG_UDP              iDivisorNMEA    $GPVTG,0.00,T,,M,0.09,N,0.16,K,A*33
 
3.67571         MSG_UDP              iDivisorNMEA    $HCHDG,284.1,0.0,E,23.3,W*6D
 
3.68596         MSG_UDP              iDivisorNMEA    $GPHDT,260.83,T*0A
 
3.69621         MSG_UDP              iDivisorNMEA    $TIROT,0.00,A*0B
 
3.70650         MSG_UDP              iDivisorNMEA    $MXPGN,01F803,281C,000000000000A095*19
 
3.71679         MSG_UDP              iDivisorNMEA    $MXPGN,00FF00,280B,0002000005049913*19
 
3.72702         MSG_UDP              iDivisorNMEA    $MXPGN,01F804,281C,00000088FEC1A095*6F
 
3.73721         MSG_UDP              iDivisorNMEA    $AGRSA,-0.96,A,,V*6D
 
3.73728         ANGULO_LEME          iDivisorNMEA    -0.96000     
3.74750         MSG_UDP              iDivisorNMEA    $SDDPT,1.79,0.00,*74
 
3.75777         MSG_UDP              iDivisorNMEA    $HCHDG,284.1,0.0,E,23.3,W*6D
 
3.76811         MSG_UDP              iDivisorNMEA    $GPHDT,260.83,T*0A
 
3.77842         MSG_UDP              iDivisorNMEA    $TIROT,0.00,A*0B
 
3.78873         MSG_UDP              iDivisorNMEA    $MXPGN,01F803,281C,000000000000A095*19
 
3.79893         MSG_UDP              iDivisorNMEA    $MXPGN,01F804,281C,00000088FEC1A095*6F
 
3.80914         MSG_UDP              iDivisorNMEA    $AGRSA,-0.96,A,,V*6D
 
3.80920         ANGULO_LEME          iDivisorNMEA    -0.96000     
3.84231         MSG_UDP              iDivisorNMEA    $HCHDG,284.1,0.0,E,23.3,W*6D
 
3.84236         MSG_UDP              iDivisorNMEA    $GPHDT,260.83,T*0A
 
3.85255         MSG_UDP              iDivisorNMEA    $TIROT,0.00,A*0B
 
3.86621         MSG_UDP              iDivisorNMEA    $GPGSA,A,3,08,10,16,18,21,23,26,27,,,,,2.02,1.70,1.70*06
 
3.87339         MSG_UDP              iDivisorNMEA    $GPGSV,2,1,08,08,39,237,44,10,39,154,35,16,10,314,42,18,18,071,36*7E
 
3.88358         MSG_UDP              iDivisorNMEA    $GPGSV,2,2,08,21,09,223,00,23,15,127,00,26,02,348,40,27,62,283,48*70
 
3.89376         MSG_UDP              iDivisorNMEA    $MXPGN,01FA06,681C,8600AF00C8960F60*11
 
3.90392         MSG_UDP              iDivisorNMEA    $MXPGN,01FA06,681C,008600AFF50B0061*13
 
3.91410         MSG_UDP              iDivisorNMEA    $MXPGN,01FA06,681C,FFFFFFFFFF015762*1B
 
3.92428         MSG_UDP              iDivisorNMEA    $MXPGN,01F803,281C,0000000000000096*6B
 
3.93443         MSG_UDP              iDivisorNMEA    $MXPGN,01F804,281C,00000088FEC10096*1D
 
3.94460         MSG_UDP              iDivisorNMEA    $GPGGA,133534.900,2254.75330,S,04309.53829,W,1,08,1.70,0.98,M,-5.00,M,,*76
 
3.95476         MSG_UDP              iDivisorNMEA    $GPGLL,2254.75330,S,04309.53829,W,133534.900,A,A*54
 
3.96489         MSG_UDP              iDivisorNMEA    $GPRMC,133534.900,A,2254.75330,S,04309.53829,W,0.03,200.93,070323,23.39,W,A*1F
 
3.97508         MSG_UDP              iDivisorNMEA    $GPVTG,200.93,T,,M,0.03,N,0.05,K,A*33
 
3.98525         MSG_UDP              iDivisorNMEA    $AGRSA,-0.96,A,,V*6D
 
3.98529         ANGULO_LEME          iDivisorNMEA    -0.96000     
3.99547         MSG_UDP              iDivisorNMEA    !AIVDO,1,1,,,B:UOH3P007>VsdLf>hsACwiUoP06,0*1B
 
4.00564         MSG_UDP              iDivisorNMEA    $GPGSA,A,3,08,10,16,18,21,27,28,31,32,66,65,86,1.30,1.10,1.10*05
 
4.01583         MSG_UDP              iDivisorNMEA    $GPGSV,3,1,12,08,40,238,38,10,39,153,29,16,11,315,43,18,19,071,34*76
 
4.02600         MSG_UDP              iDivisorNMEA    $GPGSV,3,2,12,21,10,224,25,27,63,284,34,28,18,027,42,31,13,018,43*7D
 
4.03618         MSG_UDP              iDivisorNMEA    $GPGSV,3,3,12,32,78,097,42,66,15,313,41,65,62,267,40,86,31,050,41*70
 
4.04638         MSG_UDP              iDivisorNMEA    $MXPGN,00FF00,280B,0002000005049913*19
 
4.05654         MSG_UDP              iDivisorNMEA    $HCHDG,284.1,0.0,E,23.3,W*6D
 
4.06673         MSG_UDP              iDivisorNMEA    $GPHDT,260.84,T*0D
 
4.07685         MSG_UDP              iDivisorNMEA    $TIROT,0.00,A*0B
 
4.08700         MSG_UDP              iDivisorNMEA    $MXPGN,01FF0D,780B,FF03000098900540*62
 
4.09714         MSG_UDP              iDivisorNMEA    $MXPGN,01F803,281C,0000000000001497*6F
 
4.10731         MSG_UDP              iDivisorNMEA    $MXPGN,01F804,281C,000000529AC11497*65
 
4.11742         MSG_UDP              iDivisorNMEA    $AGRSA,-0.96,A,,V*6D
 
4.11747         ANGULO_LEME          iDivisorNMEA    -0.96000     
4.12766         MSG_UDP              iDivisorNMEA    $MXPGN,00FF28,3808,FF08FFFDFC059F41*19
 
4.13784         MSG_UDP              iDivisorNMEA    $HCHDG,284.1,0.0,E,23.3,W*6D
 
4.14804         MSG_UDP              iDivisorNMEA    $GPHDT,260.82,T*0B
 
4.15839         MSG_UDP              iDivisorNMEA    $TIROT,-0.09,A*2F
 
4.16857         MSG_UDP              iDivisorNMEA    $MXPGN,01F803,281C,0000000000001497*6F
 
4.17873         MSG_UDP              iDivisorNMEA    $MXPGN,01F804,281C,000000529AC11497*65
 
4.18886         MSG_UDP              iDivisorNMEA    $AGRSA,-0.96,A,,V*6D
 
4.18889         ANGULO_LEME          iDivisorNMEA    -0.96000     
4.19903         MSG_UDP              iDivisorNMEA    $MXPGN,01FF1A,680B,FF022B849F410540*68
 
4.20922         MSG_UDP              iDivisorNMEA    $MXPGN,01FF2C,7808,FFFFFFFF9F411760*6D
 
4.21941         MSG_UDP              iDivisorNMEA    $MXPGN,01FF2C,7808,FFFF7FFFFFFF7F61*10
 
4.22960         MSG_UDP              iDivisorNMEA    $MXPGN,01FF2C,7808,FF7FFFFFFFFFFF62*62
 
4.23980         MSG_UDP              iDivisorNMEA    $MXPGN,01FF2C,7808,FFFFFFFF7FFFFF63*63
 
4.24994         MSG_UDP              iDivisorNMEA    $MXPGN,01FF1A,782B,FF010B049F4105E0*13
 
4.26011         MSG_UDP              iDivisorNMEA    $MXPGN,00FF3D,6808,7FFFFF0DFFFF9F41*6E
 
4.27029         MSG_UDP              iDivisorNMEA    $HCHDG,284.1,0.0,E,23.3,W*6D
 
4.28045         MSG_UDP              iDivisorNMEA    $GPHDT,260.80,T*09
 
4.29062         MSG_UDP              iDivisorNMEA    $TIROT,-0.09,A*2F
 
4.54237         MSG_UDP              iDivisorNMEA    $HCHDG,284.1,0.0,E,23.3,W*6D
 
4.54263         MSG_UDP              iDivisorNMEA    $GPHDT,260.82,T*0B
 
4.55302         MSG_UDP              iDivisorNMEA    $TIROT,0.00,A*0B
 
4.57631         MSG_UDP              iDivisorNMEA    $MXPGN,01F803,281C,000000000000B49F*6D
 
4.57642         MSG_UDP              iDivisorNMEA    $MXPGN,01F804,281C,0000005C61C1B49F*69
 
4.59221         MSG_UDP              iDivisorNMEA    $AGRSA,-0.96,A,,V*6D
 
4.59224         ANGULO_LEME          iDivisorNMEA    -0.96000     
4.64436         MSG_UDP              iDivisorNMEA    $GPGGA,133535.000,2254.75366,S,04309.54076,W,1,12,0.70,11.79,M,-5.60,M,,*4B
 
4.64520         MSG_UDP              iDivisorNMEA    $GPGLL,2254.75366,S,04309.54076,W,133535.000,A,A*5A
 
4.65541         MSG_UDP              iDivisorNMEA    $GPRMC,133535.000,A,2254.75366,S,04309.54076,W,0.09,0.00,070323,23.30,W,A*1A
 
4.66597         MSG_UDP              iDivisorNMEA    $GPVTG,0.00,T,,M,0.09,N,0.16,K,A*33
 
4.67617         MSG_UDP              iDivisorNMEA    $HCHDG,284.1,0.0,E,23.3,W*6D
 
4.68633         MSG_UDP              iDivisorNMEA    $GPHDT,260.81,T*08
 
4.69657         MSG_UDP              iDivisorNMEA    $TIROT,0.00,A*0B
 
4.70672         MSG_UDP              iDivisorNMEA    $MXPGN,01F803,281C,000000000000C8A0*6E
 
4.71689         MSG_UDP              iDivisorNMEA    $MXPGN,00FF00,280B,0002000005049913*19
 
4.72707         MSG_UDP              iDivisorNMEA    $MXPGN,01F804,281C,0000005C61C1C8A0*6A
 
4.73727         MSG_UDP              iDivisorNMEA    $AGRSA,-0.96,A,,V*6D
 
4.73729         ANGULO_LEME          iDivisorNMEA    -0.96000     
4.74746         MSG_UDP              iDivisorNMEA    $SDDPT,1.77,0.00,*7A
 
4.75767         MSG_UDP              iDivisorNMEA    $HCHDG,284.1,0.0,E,23.3,W*6D
 
4.76781         MSG_UDP              iDivisorNMEA    $GPHDT,260.81,T*08
 
4.77800         MSG_UDP              iDivisorNMEA    $TIROT,0.00,A*0B
 
4.78814         MSG_UDP              iDivisorNMEA    $MXPGN,01F803,281C,000000000000DCA1*13
 
4.79830         MSG_UDP              iDivisorNMEA    $MXPGN,01F804,281C,000000477DC1DCA1*16
 
4.80844         MSG_UDP              iDivisorNMEA    $AGRSA,-0.96,A,,V*6D
 
4.80847         ANGULO_LEME          iDivisorNMEA    -0.96000     
4.84260         MSG_UDP              iDivisorNMEA    $HCHDG,284.1,0.0,E,23.3,W*6D
 
4.84269         MSG_UDP              iDivisorNMEA    $GPHDT,260.82,T*0B
 
4.85284         MSG_UDP              iDivisorNMEA    $TIROT,0.09,A*02
 
4.87352         MSG_UDP              iDivisorNMEA    $GPGSA,A,3,08,10,16,18,21,23,26,27,,,,,2.02,1.70,1.70*06
 
4.87438         MSG_UDP              iDivisorNMEA    $GPGSV,2,1,08,08,39,237,44,10,39,154,35,16,10,314,42,18,18,071,36*7E
 
4.88465         MSG_UDP              iDivisorNMEA    $GPGSV,2,2,08,21,09,223,00,23,15,127,00,26,02,348,40,27,62,283,48*70
 
4.89481         MSG_UDP              iDivisorNMEA    $MXPGN,01FA06,681C,8600AF00C8A10F80*60
 
4.90496         MSG_UDP              iDivisorNMEA    $MXPGN,01FA06,681C,008600AFF5110081*6F
 
4.91514         MSG_UDP              iDivisorNMEA    $MXPGN,01FA06,681C,FFFFFFFFFF015782*15
 
4.92535         MSG_UDP              iDivisorNMEA    $MXPGN,01F803,281C,00000000000000A1*14
 
4.93555         MSG_UDP              iDivisorNMEA    $MXPGN,01F804,281C,000000477DC100A1*11
 
4.94573         MSG_UDP              iDivisorNMEA    $GPGGA,133536.000,2254.75330,S,04309.53829,W,1,08,1.70,0.98,M,-5.00,M,,*7D
 
4.95586         MSG_UDP              iDivisorNMEA    $GPGLL,2254.75330,S,04309.53829,W,133536.000,A,A*5F
 
4.96605         MSG_UDP              iDivisorNMEA    $GPRMC,133536.000,A,2254.75330,S,04309.53829,W,0.05,135.49,070323,23.39,W,A*10
 
4.97628         MSG_UDP              iDivisorNMEA    $GPVTG,135.49,T,,M,0.05,N,0.09,K,A*3B
 
4.98642         MSG_UDP              iDivisorNMEA    $AGRSA,-0.96,A,,V*6D
 
4.98650         ANGULO_LEME          iDivisorNMEA    -0.96000     
4.99659         MSG_UDP              iDivisorNMEA    $GPGSA,A,3,08,10,16,18,21,27,28,31,32,66,65,86,1.30,1.10,1.10*05
 
5.00678         MSG_UDP              iDivisorNMEA    $GPGSV,3,1,12,08,40,238,38,10,39,153,29,16,11,315,43,18,19,071,35*77
 
5.01699         MSG_UDP              iDivisorNMEA    $GPGSV,3,2,12,21,10,224,25,27,63,284,34,28,18,027,42,31,13,018,44*7A
 
5.02715         MSG_UDP              iDivisorNMEA    $GPGSV,3,3,12,32,78,097,42,66,15,313,41,65,62,267,40,86,31,050,41*70
 
5.03734         MSG_UDP              iDivisorNMEA    $MXPGN,00FF00,280B,0002000005049913*19
 
5.04750         MSG_UDP              iDivisorNMEA    $HCHDG,284.1,0.0,E,23.3,W*6D
 
5.05763         MSG_UDP              iDivisorNMEA    $GPHDT,260.82,T*0B
 
5.06778         MSG_UDP              iDivisorNMEA    $TIROT,0.09,A*02
 
5.07793         MSG_UDP              iDivisorNMEA    $MXPGN,01FF0D,780B,FF03000098900560*60
 
5.08804         MSG_UDP              iDivisorNMEA    $MXPGN,01F803,281C,00000000000028A3*1C
 
5.09818         MSG_UDP              iDivisorNMEA    $MXPGN,01F804,281C,000000477DC128A3*19
 
5.10831         MSG_UDP              iDivisorNMEA    $AGRSA,-0.96,A,,V*6D
 
5.10835         ANGULO_LEME          iDivisorNMEA    -0.96000     
5.11845         MSG_UDP              iDivisorNMEA    $MXPGN,00FF28,3808,FF08FFFDFC059F41*19
 
5.12864         MSG_UDP              iDivisorNMEA    $HCHDG,284.1,0.0,E,23.3,W*6D
 
5.13878         MSG_UDP              iDivisorNMEA    $GPHDT,260.81,T*08
 
5.14898         MSG_UDP              iDivisorNMEA    $TIROT,0.29,A*00
 
5.15911         MSG_UDP              iDivisorNMEA    $MXPGN,01F803,281C,0000000000003CA4*61
 
5.16946         MSG_UDP              iDivisorNMEA    $MXPGN,01F804,281C,000000AECEC13CA4*16
 
5.17960         MSG_UDP              iDivisorNMEA    $AGRSA,-0.96,A,,V*6D
 
5.17964         ANGULO_LEME          iDivisorNMEA    -0.96000     
5.18975         MSG_UDP              iDivisorNMEA    $MXPGN,01FF1A,680B,FF022B849F410560*6A
 
5.19992         MSG_UDP              iDivisorNMEA    $MXPGN,01FF2C,7808,FFFFFFFF9F411780*63
 
5.21008         MSG_UDP              iDivisorNMEA    $MXPGN,01FF2C,7808,FFFF7FFFFFFF7F81*1E
 
5.22024         MSG_UDP              iDivisorNMEA    $MXPGN,01FF2C,7808,FF7FFFFFFFFFFF82*6C
 
5.23043         MSG_UDP              iDivisorNMEA    $MXPGN,01FF2C,7808,FFFFFFFF7FFFFF83*6D
 
5.40333         MSG_UDP              iDivisorNMEA    $MXPGN,00FF8C,6808,FFF10695C9409F41*64
 
5.42637         MSG_UDP              iDivisorNMEA    $MXPGN,00FF00,280B,0002000005049913*19
 
5.44243         MSG_UDP              iDivisorNMEA    $HCHDG,284.1,0.0,E,23.3,W*6D
 
5.44258         MSG_UDP              iDivisorNMEA    $GPHDT,260.78,T*0E
 
5.45273         MSG_UDP              iDivisorNMEA    $TIROT,0.59,A*07
 
5.47657         MSG_UDP              iDivisorNMEA    $MXPGN,01F803,281C,0000000000008CA8*66
 
5.47734         MSG_UDP              iDivisorNMEA    $MXPGN,01F804,281C,0000009A3CC18CA8*1B
 
5.49238         MSG_UDP              iDivisorNMEA    $AGRSA,-0.96,A,,V*6D
 
5.49244         ANGULO_LEME          iDivisorNMEA    -0.96000     
5.49853         MSG_UDP              iDivisorNMEA    $GPZDA,133535.900,07,03,2023,,*5A
 
5.54260         MSG_UDP              iDivisorNMEA    $HCHDG,284.1,0.0,E,23.3,W*6D
 
5.54265         MSG_UDP              iDivisorNMEA    $GPHDT,260.77,T*01
 
5.55280         MSG_UDP              iDivisorNMEA    $TIROT,0.59,A*07
 
5.57657         MSG_UDP              iDivisorNMEA    $MXPGN,01F803,281C,0000000000008CA8*66
 
5.57660         MSG_UDP              iDivisorNMEA    $MXPGN,01F804,281C,000000AA99C18CA8*13
 
5.59226         MSG_UDP              iDivisorNMEA    $AGRSA,-0.96,A,,V*6D
 
5.59229         ANGULO_LEME          iDivisorNMEA    -0.96000     
5.64448         MSG_UDP              iDivisorNMEA    $GPGGA,133536.000,2254.75357,S,04309.54072,W,1,12,0.70,11.86,M,-5.60,M,,*4E
 
5.64547         MSG_UDP              iDivisorNMEA    $GPGLL,2254.75357,S,04309.54072,W,133536.000,A,A*5F
 
5.65569         MSG_UDP              iDivisorNMEA    $GPRMC,133536.000,A,2254.75357,S,04309.54072,W,0.09,0.00,070323,23.30,W,A*1F
 
5.66590         MSG_UDP              iDivisorNMEA    $GPVTG,0.00,T,,M,0.09,N,0.16,K,A*33
 
5.67623         MSG_UDP              iDivisorNMEA    $HCHDG,284.1,0.0,E,23.3,W*6D
 
5.68645         MSG_UDP              iDivisorNMEA    $GPHDT,260.77,T*01
 
5.69666         MSG_UDP              iDivisorNMEA    $TIROT,0.59,A*07
 
5.70682         MSG_UDP              iDivisorNMEA    $MXPGN,01F803,281C,000000000000A0A9*6D
 
5.71697         MSG_UDP              iDivisorNMEA    $MXPGN,00FF00,280B,0002000005049913*19
 
5.72712         MSG_UDP              iDivisorNMEA    $MXPGN,01F804,281C,000000AA99C1A0A9*18
 
5.73730         MSG_UDP              iDivisorNMEA    $AGRSA,-0.96,A,,V*6D
 
5.73734         ANGULO_LEME          iDivisorNMEA    -0.96000     
5.74749         MSG_UDP              iDivisorNMEA    $SDDPT,1.79,0.00,*74
 
5.75767         MSG_UDP              iDivisorNMEA    $MXPGN,01FF1A,782B,FFFAFF859F410520*19
 
5.76785         MSG_UDP              iDivisorNMEA    $HCHDG,284.1,0.0,E,23.3,W*6D
 
5.77803         MSG_UDP              iDivisorNMEA    $GPHDT,260.76,T*00
 
5.78823         MSG_UDP              iDivisorNMEA    $TIROT,0.39,A*01
 
5.79842         MSG_UDP              iDivisorNMEA    $MXPGN,01F803,281C,000000000000C8AB*1C
 
5.80863         MSG_UDP              iDivisorNMEA    $MXPGN,01F804,281C,00000065AAC1C8AB*6A
 
5.81883         MSG_UDP              iDivisorNMEA    $AGRSA,-1.01,A,,V*62
 
5.81888         ANGULO_LEME          iDivisorNMEA    -1.01000     
5.84253         MSG_UDP              iDivisorNMEA    $HCHDG,284.1,0.0,E,23.3,W*6D
 
5.84260         MSG_UDP              iDivisorNMEA    $GPHDT,260.75,T*03
 
5.85275         MSG_UDP              iDivisorNMEA    $TIROT,0.59,A*07
 
5.86836         MSG_UDP              iDivisorNMEA    $GPGSA,A,3,08,10,16,18,21,23,26,27,,,,,2.02,1.70,1.70*06
 
5.87359         MSG_UDP              iDivisorNMEA    $GPGSV,2,1,08,08,39,237,44,10,39,154,34,16,10,314,43,18,18,071,36*7E
 
5.88376         MSG_UDP              iDivisorNMEA    $GPGSV,2,2,08,21,09,223,00,23,15,127,00,26,02,348,40,27,62,283,48*70
 
5.89393         MSG_UDP              iDivisorNMEA    $MXPGN,01FA06,681C,8600AF00C8AB0FA0*6A
 
5.90406         MSG_UDP              iDivisorNMEA    $MXPGN,01FA06,681C,008600AFF51100A1*16
 
5.91422         MSG_UDP              iDivisorNMEA    $MXPGN,01FA06,681C,FFFFFFFFFF0157A2*6C
 
5.92437         MSG_UDP              iDivisorNMEA    $MXPGN,01F803,281C,00000000000000AB*67
 
5.93453         MSG_UDP              iDivisorNMEA    $MXPGN,01F804,281C,00000065AAC100AB*11
 
5.94467         MSG_UDP              iDivisorNMEA    $GPGGA,133537.000,2254.75330,S,04309.53829,W,1,08,1.70,0.98,M,-5.00,M,,*7C
 
5.95487         MSG_UDP              iDivisorNMEA    $GPGLL,2254.75330,S,04309.53829,W,133537.000,A,A*5E
 
5.96505         MSG_UDP              iDivisorNMEA    $GPRMC,133537.000,A,2254.75330,S,04309.53829,W,0.01,250.22,070323,23.39,W,A*18
 
5.97524         MSG_UDP              iDivisorNMEA    $GPVTG,250.22,T,,M,0.01,N,0.01,K,A*3A
 
5.98542         MSG_UDP              iDivisorNMEA    $AGRSA,-1.01,A,,V*62
 
5.98547         ANGULO_LEME          iDivisorNMEA    -1.01000     
5.99562         MSG_UDP              iDivisorNMEA    $GPGSA,A,3,08,10,16,18,21,27,28,31,32,66,65,86,1.30,1.10,1.10*05
 
6.00579         MSG_UDP              iDivisorNMEA    $GPGSV,3,1,12,08,40,238,38,10,39,153,29,16,11,315,43,18,19,071,35*77
 
6.01598         MSG_UDP              iDivisorNMEA    $GPGSV,3,2,12,21,10,224,24,27,63,284,34,28,18,027,42,31,13,018,44*7B
 
6.02618         MSG_UDP              iDivisorNMEA    $GPGSV,3,3,12,32,78,097,42,66,15,313,42,65,62,267,40,86,31,050,41*73
 
6.03635         MSG_UDP              iDivisorNMEA    $MXPGN,00FF00,280B,0002000005049913*19
 
6.04653         MSG_UDP              iDivisorNMEA    $HCHDG,284.1,0.0,E,23.3,W*6D
 
6.05668         MSG_UDP              iDivisorNMEA    $GPHDT,260.75,T*03
 
6.06689         MSG_UDP              iDivisorNMEA    $TIROT,0.59,A*07
 
6.07709         MSG_UDP              iDivisorNMEA    !AIVDO,1,1,,,B:UOH3P00G>VsfLf>hcACwjUoP06,0*7A
 
6.08723         MSG_UDP              iDivisorNMEA    $MXPGN,01FF0D,780B,FF03000098900580*6E
 
6.09743         MSG_UDP              iDivisorNMEA    $MXPGN,01F803,281C,00000000000014AC*63
 
6.10758         MSG_UDP              iDivisorNMEA    $MXPGN,01F804,281C,00000065AAC114AC*15
 
6.11777         MSG_UDP              iDivisorNMEA    $AGRSA,-0.96,A,,V*6D
 
6.11781         ANGULO_LEME          iDivisorNMEA    -0.96000     
6.12795         MSG_UDP              iDivisorNMEA    $MXPGN,00FF28,3808,FF08FFFDFC059F41*19
 
6.30735         MSG_UDP              iDivisorNMEA    $MXPGN,00FF16,7808,FF0000002B0A9F41*1B
 
6.32757         MSG_UDP              iDivisorNMEA    $MXPGN,00FF19,7808,0000000202009F41*15
 
6.34263         MSG_UDP              iDivisorNMEA    $HCHDG,284.0,0.0,E,23.3,W*6C
 
6.34280         MSG_UDP              iDivisorNMEA    $GPHDT,260.72,T*04
 
6.35312         MSG_UDP              iDivisorNMEA    $TIROT,0.59,A*07
 
6.36345         MSG_UDP              iDivisorNMEA    $MXPGN,00FF19,7808,0080000A0A009F41*1D
 
6.37378         MSG_UDP              iDivisorNMEA    !AIVDM,1,1,,B,35UhrF5000LrPtQjrtG8;i=:0Dg:,0*0B
 
6.38408         MSG_UDP              iDivisorNMEA    $MXPGN,01F803,281C,00000000000078B1*18
 
6.39437         MSG_UDP              iDivisorNMEA    $MXPGN,01F804,281C,00000087F8C178B1*1C
 
6.40469         MSG_UDP              iDivisorNMEA    $GPGGA,,2254.74469,S,04309.54609,W,1,,,,M,,M,,*5A
 
6.41498         MSG_UDP              iDivisorNMEA    $GPGLL,2254.74469,S,04309.54609,W,,A,A*41
 
6.42527         MSG_UDP              iDivisorNMEA    $GPVTG,334.80,T,,M,0.10,N,0.18,K,A*39
 
6.43559         MSG_UDP              iDivisorNMEA    $AGRSA,-0.96,A,,V*6D
 
6.43569         ANGULO_LEME          iDivisorNMEA    -0.96000     
6.44585         MSG_UDP              iDivisorNMEA    $MXPGN,00FF8C,6808,FFF10695C9409F41*64
 
6.45616         MSG_UDP              iDivisorNMEA    $HCHDG,284.0,0.0,E,23.3,W*6C
 
6.46645         MSG_UDP              iDivisorNMEA    $GPHDT,260.72,T*04
 
6.47671         MSG_UDP              iDivisorNMEA    $TIROT,0.59,A*07
 
6.48690         MSG_UDP              iDivisorNMEA    $MXPGN,00FF00,280B,0002000005049913*19
 
6.49718         MSG_UDP              iDivisorNMEA    $MXPGN,01F803,281C,0000000000008CB2*6F
 
6.50745         MSG_UDP              iDivisorNMEA    $MXPGN,01F804,281C,00000087F8C18CB2*6B
 
6.51772         MSG_UDP              iDivisorNMEA    $AGRSA,-0.96,A,,V*6D
 
6.51782         ANGULO_LEME          iDivisorNMEA    -0.96000     
6.52806         MSG_UDP              iDivisorNMEA    $GPZDA,133536.900,07,03,2023,,*59
 
6.54271         MSG_UDP              iDivisorNMEA    $HCHDG,284.0,0.0,E,23.3,W*6C
 
6.54899         MSG_UDP              iDivisorNMEA    $GPHDT,260.72,T*04
 
6.55926         MSG_UDP              iDivisorNMEA    $TIROT,0.59,A*07
 
6.57665         MSG_UDP              iDivisorNMEA    $MXPGN,01F803,281C,000000000000A0B3*64
 
6.57992         MSG_UDP              iDivisorNMEA    $MXPGN,01F804,281C,00000066B0C1A0B3*63
 
6.59262         MSG_UDP              iDivisorNMEA    $AGRSA,-0.96,A,,V*6D
 
6.59269         ANGULO_LEME          iDivisorNMEA    -0.96000     
6.64479         MSG_UDP              iDivisorNMEA    $GPGGA,133537.000,2254.75358,S,04309.54075,W,1,12,0.70,11.79,M,-5.60,M,,*47
 
6.64553         MSG_UDP              iDivisorNMEA    $GPGLL,2254.75358,S,04309.54075,W,133537.000,A,A*56
 
6.65584         MSG_UDP              iDivisorNMEA    $GPRMC,133537.000,A,2254.75358,S,04309.54075,W,0.09,0.00,070323,23.30,W,A*16
 
6.66599         MSG_UDP              iDivisorNMEA    $GPVTG,0.00,T,,M,0.09,N,0.16,K,A*33
 
6.67625         MSG_UDP              iDivisorNMEA    $HCHDG,284.0,0.0,E,23.3,W*6C
 
6.68653         MSG_UDP              iDivisorNMEA    $GPHDT,260.72,T*04
 
6.69684         MSG_UDP              iDivisorNMEA    $TIROT,0.79,A*05
 
6.70714         MSG_UDP              iDivisorNMEA    $MXPGN,01F803,281C,000000000000B4B4*64
 
6.71741         MSG_UDP              iDivisorNMEA    $MXPGN,01F804,281C,00000066B0C1B4B4*63
 
6.72768         MSG_UDP              iDivisorNMEA    $AGRSA,-0.96,A,,V*6D
 
6.72774         ANGULO_LEME          iDivisorNMEA    -0.96000     
6.73792         MSG_UDP              iDivisorNMEA    $SDDPT,1.78,0.00,*75
 
6.74821         MSG_UDP              iDivisorNMEA    $MXPGN,00FF00,280B,0002000005049913*19
 
6.75847         MSG_UDP              iDivisorNMEA    !AIVDM,1,1,,B,1:U8JFPP02trUgIjq`31ogw<2<2J,0*7C
 
6.76871         MSG_UDP              iDivisorNMEA    $HCHDG,284.0,0.0,E,23.3,W*6C
 
6.77896         MSG_UDP              iDivisorNMEA    $GPHDT,260.72,T*04
 
6.78921         MSG_UDP              iDivisorNMEA    $TIROT,0.79,A*05
 
6.79948         MSG_UDP              iDivisorNMEA    $MXPGN,01F803,281C,000000000000C8B5*68
 
6.80972         MSG_UDP              iDivisorNMEA    $MXPGN,01F804,281C,0000004C9AC1C8B5*12
 
6.81998         MSG_UDP              iDivisorNMEA    $AGRSA,-0.96,A,,V*6D
 
6.82003         ANGULO_LEME          iDivisorNMEA    -0.96000     
6.84260         MSG_UDP              iDivisorNMEA    $HCHDG,284.0,0.0,E,23.3,W*6C
 
6.84277         MSG_UDP              iDivisorNMEA    $GPHDT,260.72,T*04
 
6.85304         MSG_UDP              iDivisorNMEA    $TIROT,0.49,A*06
 
6.87367         MSG_UDP              iDivisorNMEA    $GPGSA,A,3,08,10,16,18,21,23,26,27,,,,,2.02,1.70,1.70*06
 
6.87476         MSG_UDP              iDivisorNMEA    $GPGSV,2,1,08,08,39,237,44,10,39,154,35,16,10,314,43,18,18,071,36*7F
 
6.88402         MSG_UDP              iDivisorNMEA    $GPGSV,2,2,08,21,09,223,00,23,15,127,00,26,02,348,40,27,62,283,48*70
 
6.89432         MSG_UDP              iDivisorNMEA    $MXPGN,01FA06,681C,8600AF00C8B50FC0*1C
 
6.90461         MSG_UDP              iDivisorNMEA    $MXPGN,01FA06,681C,008600AFF51100C1*14
 
6.91484         MSG_UDP              iDivisorNMEA    $MXPGN,01FA06,681C,FFFFFFFFFF0157C2*6E
 
6.92513         MSG_UDP              iDivisorNMEA    $MXPGN,01F803,281C,00000000000000B5*13
 
6.93538         MSG_UDP              iDivisorNMEA    $MXPGN,01F804,281C,0000004C9AC100B5*69
 
6.94577         MSG_UDP              iDivisorNMEA    $GPGGA,133538.000,2254.75330,S,04309.53829,W,1,08,1.70,0.98,M,-5.00,M,,*73
 
6.95605         MSG_UDP              iDivisorNMEA    $GPGLL,2254.75330,S,04309.53829,W,133538.000,A,A*51
 
6.96630         MSG_UDP              iDivisorNMEA    $GPRMC,133538.000,A,2254.75330,S,04309.53829,W,0.01,150.61,070323,23.39,W,A*13
 
6.97658         MSG_UDP              iDivisorNMEA    $GPVTG,150.61,T,,M,0.01,N,0.01,K,A*3E
 
6.98681         MSG_UDP              iDivisorNMEA    $AGRSA,-0.96,A,,V*6D
 
6.98686         ANGULO_LEME          iDivisorNMEA    -0.96000     
6.99707         MSG_UDP              iDivisorNMEA    $GPGSA,A,3,08,10,16,18,21,27,28,31,32,66,65,86,1.30,1.10,1.10*05
 
7.20376         MSG_UDP              iDivisorNMEA    $MXPGN,00FF3C,3808,8000F8FE00009F41*1C
 
7.22265         MSG_UDP              iDivisorNMEA    $MXPGN,00FF00,280B,0002000005049913*19
 
7.24276         MSG_UDP              iDivisorNMEA    $HCHDG,284.1,0.0,E,23.3,W*6D
 
7.24287         MSG_UDP              iDivisorNMEA    $GPHDT,260.76,T*00
 
7.25309         MSG_UDP              iDivisorNMEA    $TIROT,0.49,A*06
 
7.27677         MSG_UDP              iDivisorNMEA    $MXPGN,01F803,281C,00000000000064BA*65
 
7.27752         MSG_UDP              iDivisorNMEA    $MXPGN,01F804,281C,0000000469C164BA*1B
 
7.29267         MSG_UDP              iDivisorNMEA    $AGRSA,-0.96,A,,V*6D
 
7.29274         ANGULO_LEME          iDivisorNMEA    -0.96000     
7.30769         MSG_UDP              iDivisorNMEA    $MXPGN,00FF16,7808,FF0000002B0A9F41*1B
 
7.32781         MSG_UDP              iDivisorNMEA    $MXPGN,00FF19,7808,0000000202009F41*15
 
7.34273         MSG_UDP              iDivisorNMEA    $HCHDG,284.1,0.0,E,23.3,W*6D
 
7.34290         MSG_UDP              iDivisorNMEA    $GPHDT,260.76,T*00
 
7.35323         MSG_UDP              iDivisorNMEA    $TIROT,0.49,A*06
 
7.36355         MSG_UDP              iDivisorNMEA    $MXPGN,00FF19,7808,0080000A0A009F41*1D
 
7.37679         MSG_UDP              iDivisorNMEA    $MXPGN,01F803,281C,00000000000078BB*6B
 
7.38402         MSG_UDP              iDivisorNMEA    $MXPGN,01F804,281C,0000000469C178BB*15
 
7.39426         MSG_UDP              iDivisorNMEA    $GPGGA,,2254.74469,S,04309.54609,W,1,,,,M,,M,,*5A
 
7.40458         MSG_UDP              iDivisorNMEA    $GPGLL,2254.74469,S,04309.54609,W,,A,A*41
 
7.41487         MSG_UDP              iDivisorNMEA    $GPVTG,334.80,T,,M,0.10,N,0.18,K,A*39
 
7.42513         MSG_UDP              iDivisorNMEA    $AGRSA,-0.96,A,,V*6D
 
7.42519         ANGULO_LEME          iDivisorNMEA    -0.96000     
7.43541         MSG_UDP              iDivisorNMEA    $MXPGN,00FF8C,6808,FFF10695C9409F41*64
 
7.44569         MSG_UDP              iDivisorNMEA    $HCHDG,284.1,0.0,E,23.3,W*6D
 
7.45595         MSG_UDP              iDivisorNMEA    $GPHDT,260.75,T*03
 
7.46620         MSG_UDP              iDivisorNMEA    $TIROT,0.49,A*06
 
7.47646         MSG_UDP              iDivisorNMEA    $MXPGN,00FF00,280B,0002000005049913*19
 
7.48665         MSG_UDP              iDivisorNMEA    $MXPGN,01F803,281C,0000000000008CBC*1E
 
7.49689         MSG_UDP              iDivisorNMEA    $MXPGN,01F804,281C,0000000469C18CBC*60
 
7.50711         MSG_UDP              iDivisorNMEA    $AGRSA,-0.96,A,,V*6D
 
7.50719         ANGULO_LEME          iDivisorNMEA    -0.96000     
7.51734         MSG_UDP              iDivisorNMEA    $GPZDA,133537.900,07,03,2023,,*58
 
7.54282         MSG_UDP              iDivisorNMEA    $HCHDG,284.1,0.0,E,23.3,W*6D
 
7.54293         MSG_UDP              iDivisorNMEA    $GPHDT,260.77,T*01
 
7.55322         MSG_UDP              iDivisorNMEA    $TIROT,0.49,A*06
 
7.57678         MSG_UDP              iDivisorNMEA    $MXPGN,01F803,281C,000000000000A0BD*13
 
7.57693         MSG_UDP              iDivisorNMEA    $MXPGN,01F804,281C,000000E195C1A0BD*1E
 
7.59290         MSG_UDP              iDivisorNMEA    $AGRSA,-0.96,A,,V*6D
 
7.59300         ANGULO_LEME          iDivisorNMEA    -0.96000     
7.64486         MSG_UDP              iDivisorNMEA    $GPGGA,133538.000,2254.75366,S,04309.54087,W,1,12,0.70,11.66,M,-5.60,M,,*46
 
7.64586         MSG_UDP              iDivisorNMEA    $GPGLL,2254.75366,S,04309.54087,W,133538.000,A,A*59
 
7.65617         MSG_UDP              iDivisorNMEA    $GPRMC,133538.000,A,2254.75366,S,04309.54087,W,0.00,0.00,070323,23.30,W,A*10
 
7.66651         MSG_UDP              iDivisorNMEA    $GPVTG,0.00,T,,M,0.00,N,0.00,K,A*3D
 
7.67683         MSG_UDP              iDivisorNMEA    $HCHDG,284.1,0.0,E,23.3,W*6D
 
7.68714         MSG_UDP              iDivisorNMEA    $GPHDT,260.77,T*01
 
7.69747         MSG_UDP              iDivisorNMEA    $TIROT,0.39,A*01
 
7.70779         MSG_UDP              iDivisorNMEA    $MXPGN,01F803,281C,000000000000B4BE*15
 
7.71857         MSG_UDP              iDivisorNMEA    $MXPGN,01F804,281C,000000E195C1B4BE*18
 
7.72886         MSG_UDP              iDivisorNMEA    $AGRSA,-0.96,A,,V*6D
 
7.72894         ANGULO_LEME          iDivisorNMEA    -0.96000     
7.73916         MSG_UDP              iDivisorNMEA    $SDDPT,1.79,0.00,*74
 
7.74962         MSG_UDP              iDivisorNMEA    $MXPGN,00FF00,280B,0002000005049913*19
 
7.75989         MSG_UDP              iDivisorNMEA    $HCHDG,284.1,0.0,E,23.3,W*6D
 
7.77018         MSG_UDP              iDivisorNMEA    $GPHDT,260.77,T*01
 
7.78048         MSG_UDP              iDivisorNMEA    $TIROT,0.39,A*01
 
7.79077         MSG_UDP              iDivisorNMEA    $MXPGN,01F803,281C,000000000000C8BF*1B
 
7.80128         MSG_UDP              iDivisorNMEA    $MXPGN,01F804,281C,000000AF7CC1C8BF*1D
 
7.81163         MSG_UDP              iDivisorNMEA    $AGRSA,-0.96,A,,V*6D
 
7.81172         ANGULO_LEME          iDivisorNMEA    -0.96000     
7.82212         MSG_UDP              iDivisorNMEA    !AIVDM,1,1,,B,3:U75511P0LrNRqjs>8nF@U>0E0J,0*6E
 
7.84286         MSG_UDP              iDivisorNMEA    $HCHDG,284.1,0.0,E,23.3,W*6D
 
7.84300         MSG_UDP              iDivisorNMEA    $GPHDT,260.78,T*0E
 
7.85328         MSG_UDP              iDivisorNMEA    $TIROT,0.39,A*01
 
7.86691         MSG_UDP              iDivisorNMEA    $GPGSA,A,3,08,10,16,18,21,23,26,27,,,,,2.02,1.70,1.70*06
 
7.87433         MSG_UDP              iDivisorNMEA    $GPGSV,2,1,08,08,39,237,44,10,39,154,35,16,10,314,43,18,18,071,35*7C
 
7.88467         MSG_UDP              iDivisorNMEA    $GPGSV,2,2,08,21,09,223,00,23,15,127,00,26,02,348,40,27,62,283,48*70
 
7.89499         MSG_UDP              iDivisorNMEA    $MXPGN,01FA06,681C,8600AF00C8BF0FE0*69
 
7.90524         MSG_UDP              iDivisorNMEA    $MXPGN,01FA06,681C,008600AFF51800E1*1B
 
7.91555         MSG_UDP              iDivisorNMEA    $MXPGN,01FA06,681C,FFFFFFFFFF0157E2*68
 
7.92587         MSG_UDP              iDivisorNMEA    $MXPGN,01F803,281C,00000000000000BF*60
 
8.09280         MSG_UDP              iDivisorNMEA    $AGRSA,-0.96,A,,V*6D
 
8.09286         ANGULO_LEME          iDivisorNMEA    -0.96000     
8.09885         MSG_UDP              iDivisorNMEA    $MXPGN,01FF1A,680B,FF022B849F4105C0*1F
 
8.10383         MSG_UDP              iDivisorNMEA    $MXPGN,01FF2C,7808,FFFFFFFF9F4117E0*1E
 
8.11408         MSG_UDP              iDivisorNMEA    $MXPGN,01FF2C,7808,FFFF7FFFFFFF7FE1*63
 
8.12430         MSG_UDP              iDivisorNMEA    $MXPGN,01FF2C,7808,FF7FFFFFFFFFFFE2*11
 
8.13452         MSG_UDP              iDivisorNMEA    $MXPGN,01FF2C,7808,FFFFFFFF7FFFFFE3*10
 
8.14472         MSG_UDP              iDivisorNMEA    $MXPGN,01FF1A,782B,FF010B049F410560*60
 
8.15488         MSG_UDP              iDivisorNMEA    $MXPGN,00FF3D,6808,7FFFFF0DFFFF9F41*6E
 
8.16500         MSG_UDP              iDivisorNMEA    $HCHDG,284.1,0.0,E,23.3,W*6D
 
8.17534         MSG_UDP              iDivisorNMEA    $GPHDT,260.77,T*01
 
8.18567         MSG_UDP              iDivisorNMEA    $TIROT,0.19,A*03
 
8.19602         MSG_UDP              iDivisorNMEA    $MXPGN,01F803,281C,00000000000050C3*11
 
8.20622         MSG_UDP              iDivisorNMEA    $MXPGN,01F804,281C,000000E45BC150C3*62
 
8.21640         MSG_UDP              iDivisorNMEA    $AGRSA,-0.96,A,,V*6D
 
8.21643         ANGULO_LEME          iDivisorNMEA    -0.96000     
8.22665         MSG_UDP              iDivisorNMEA    $MXPGN,00FF3C,3808,8000F8FE00009F41*1C
 
8.23678         MSG_UDP              iDivisorNMEA    $MXPGN,00FF00,280B,0002000005049913*19
 
8.24700         MSG_UDP              iDivisorNMEA    $HCHDG,284.1,0.0,E,23.3,W*6D
 
8.25726         MSG_UDP              iDivisorNMEA    $GPHDT,260.76,T*00
 
8.26750         MSG_UDP              iDivisorNMEA    $TIROT,0.19,A*03
 
8.27776         MSG_UDP              iDivisorNMEA    $MXPGN,01F803,281C,00000000000064C4*11
 
8.28796         MSG_UDP              iDivisorNMEA    $MXPGN,01F804,281C,00000011B8C164C4*1E
 
8.29822         MSG_UDP              iDivisorNMEA    $AGRSA,-0.96,A,,V*6D
 
8.29827         ANGULO_LEME          iDivisorNMEA    -0.96000     
8.30842         MSG_UDP              iDivisorNMEA    $MXPGN,00FF16,7808,FF0000002B0A9F41*1B
 
8.32788         MSG_UDP              iDivisorNMEA    $MXPGN,00FF19,7808,0000000202009F41*15
 
8.34296         MSG_UDP              iDivisorNMEA    $HCHDG,284.0,0.0,E,23.3,W*6C
 
8.34383         MSG_UDP              iDivisorNMEA    $GPHDT,260.74,T*02
 
8.35411         MSG_UDP              iDivisorNMEA    $TIROT,0.19,A*03
 
8.36434         MSG_UDP              iDivisorNMEA    $MXPGN,00FF19,7808,0080000A0A009F41*1D
 
8.37692         MSG_UDP              iDivisorNMEA    $MXPGN,01F803,281C,00000000000078C5*1D
 
8.38518         MSG_UDP              iDivisorNMEA    $MXPGN,01F804,281C,00000011B8C178C5*12
 
8.39547         MSG_UDP              iDivisorNMEA    $GPGGA,,2254.74569,S,04309.54539,W,1,,,,M,,M,,*5B
 
8.40569         MSG_UDP              iDivisorNMEA    $GPGLL,2254.74569,S,04309.54539,W,,A,A*40
 
8.41597         MSG_UDP              iDivisorNMEA    $GPVTG,334.80,T,,M,0.20,N,0.37,K,A*37
 
8.42623         MSG_UDP              iDivisorNMEA    $AGRSA,-0.96,A,,V*6D
 
8.42629         ANGULO_LEME          iDivisorNMEA    -0.96000     
8.43651         MSG_UDP              iDivisorNMEA    $MXPGN,00FF8C,6808,FFF10695C9409F41*64
 
8.44673         MSG_UDP              iDivisorNMEA    $HCHDG,284.1,0.0,E,23.3,W*6D
 
8.45697         MSG_UDP              iDivisorNMEA    $GPHDT,260.75,T*03
 
8.46723         MSG_UDP              iDivisorNMEA    $TIROT,0.00,A*0B
 
8.47748         MSG_UDP              iDivisorNMEA    $MXPGN,00FF00,280B,0002000005049913*19
 
8.48776         MSG_UDP              iDivisorNMEA    $MXPGN,01F803,281C,0000000000008CC6*6A
 
8.49803         MSG_UDP              iDivisorNMEA    $MXPGN,01F804,281C,00000011B8C18CC6*65
 
8.50831         MSG_UDP              iDivisorNMEA    $AGRSA,-0.96,A,,V*6D
 
8.50836         ANGULO_LEME          iDivisorNMEA    -0.96000     
8.51854         MSG_UDP              iDivisorNMEA    $GPZDA,133538.900,07,03,2023,,*57
 
8.54298         MSG_UDP              iDivisorNMEA    $HCHDG,284.0,0.0,E,23.3,W*6C
 
8.54309         MSG_UDP              iDivisorNMEA    $GPHDT,260.74,T*02
 
8.55336         MSG_UDP              iDivisorNMEA    $TIROT,0.00,A*0B
 
8.57691         MSG_UDP              iDivisorNMEA    $MXPGN,01F803,281C,0000000000008CC6*6A
 
8.57780         MSG_UDP              iDivisorNMEA    $MXPGN,01F804,281C,0000003BF6C18CC6*1E
 
8.59287         MSG_UDP              iDivisorNMEA    $AGRSA,-0.96,A,,V*6D
 
8.59296         ANGULO_LEME          iDivisorNMEA    -0.96000     
8.64510         MSG_UDP              iDivisorNMEA    $GPGGA,133539.000,2254.75366,S,04309.54088,W,1,12,0.70,11.59,M,-5.60,M,,*44
 
8.64577         MSG_UDP              iDivisorNMEA    $GPGLL,2254.75366,S,04309.54088,W,133539.000,A,A*57
 
8.65609         MSG_UDP              iDivisorNMEA    $GPRMC,133539.000,A,2254.75366,S,04309.54088,W,0.09,0.00,070323,23.30,W,A*17
 
8.66650         MSG_UDP              iDivisorNMEA    $GPVTG,0.00,T,,M,0.09,N,0.16,K,A*33
 
8.67682         MSG_UDP              iDivisorNMEA    $HCHDG,284.0,0.0,E,23.3,W*6C
 
8.68713         MSG_UDP              iDivisorNMEA    $GPHDT,260.74,T*02
 
8.69741         MSG_UDP              iDivisorNMEA    $TIROT,0.00,A*0B
 
8.70767         MSG_UDP              iDivisorNMEA    $MXPGN,01F803,281C,000000000000A0C7*61
 
8.71790         MSG_UDP              iDivisorNMEA    $MXPGN,01F804,281C,0000003BF6C1A0C7*15
 
8.72867         MSG_UDP              iDivisorNMEA    $AGRSA,-0.96,A,,V*6D
 
8.72875         ANGULO_LEME          iDivisorNMEA    -0.96000     
8.73889         MSG_UDP              iDivisorNMEA    $SDDPT,1.79,0.00,*74
 
8.74921         MSG_UDP              iDivisorNMEA    $MXPGN,01FF1A,782B,FFFAFF859F410580*13
 
8.75936         MSG_UDP              iDivisorNMEA    $MXPGN,00FF00,280B,0002000005049913*19
 
8.76963         MSG_UDP              iDivisorNMEA    $HCHDG,284.0,0.0,E,23.3,W*6C
 
8.77987         MSG_UDP              iDivisorNMEA    $GPHDT,260.73,T*05
 
8.99277         MSG_UDP              iDivisorNMEA    $AGRSA,-0.96,A,,V*6D
 
8.99283         ANGULO_LEME          iDivisorNMEA    -0.96000     
8.99892         MSG_UDP              iDivisorNMEA    $MXPGN,01FF0D,780B,FF030000989005E0*13
 
9.00393         MSG_UDP              iDivisorNMEA    $MXPGN,00FF28,3808,FF08FFFDFC059F41*19
 
9.04315         MSG_UDP              iDivisorNMEA    $HCHDG,284.0,0.0,E,23.3,W*6C
 
9.04379         MSG_UDP              iDivisorNMEA    $GPHDT,260.71,T*07
 
9.05405         MSG_UDP              iDivisorNMEA    $TIROT,0.09,A*02
 
9.07697         MSG_UDP              iDivisorNMEA    $MXPGN,01F803,281C,0000000000003CCC*14
 
9.07779         MSG_UDP              iDivisorNMEA    $MXPGN,01F804,281C,0000003116C13CCC*64
 
9.09294         MSG_UDP              iDivisorNMEA    $AGRSA,-0.96,A,,V*6D
 
9.09303         ANGULO_LEME          iDivisorNMEA    -0.96000     
9.09895         MSG_UDP              iDivisorNMEA    $MXPGN,01FF1A,680B,FF022B849F4105E0*19
 
9.10917         MSG_UDP              iDivisorNMEA    $MXPGN,01FF2C,7808,FFFFFFFF9F411700*6B
 
9.11941         MSG_UDP              iDivisorNMEA    $MXPGN,01FF2C,7808,FFFF7FFFFFFF7F01*16
 
9.12962         MSG_UDP              iDivisorNMEA    $MXPGN,01FF2C,7808,FF7FFFFFFFFFFF02*64
 
9.13982         MSG_UDP              iDivisorNMEA    $MXPGN,01FF2C,7808,FFFFFFFF7FFFFF03*65
 
9.15001         MSG_UDP              iDivisorNMEA    $MXPGN,01FF1A,782B,FF010B049F410580*6E
 
9.16026         MSG_UDP              iDivisorNMEA    $MXPGN,00FF3D,6808,7FFFFF0DFFFF9F41*6E
 
9.17046         MSG_UDP              iDivisorNMEA    $HCHDG,284.0,0.0,E,23.3,W*6C
 
9.18070         MSG_UDP              iDivisorNMEA    $GPHDT,260.71,T*07
 
9.19092         MSG_UDP              iDivisorNMEA    $TIROT,0.09,A*02
 
9.20119         MSG_UDP              iDivisorNMEA    $MXPGN,01F803,281C,00000000000050CD*66
 
9.21144         MSG_UDP              iDivisorNMEA    $MXPGN,01F804,281C,0000003116C150CD*16
 
9.22172         MSG_UDP              iDivisorNMEA    $AGRSA,-0.96,A,,V*6D
 
9.22178         ANGULO_LEME          iDivisorNMEA    -0.96000     
9.23240         MSG_UDP              iDivisorNMEA    $MXPGN,00FF3C,3808,8000F8FE00009F41*1C
 
9.24262         MSG_UDP              iDivisorNMEA    $MXPGN,00FF00,280B,0002000005049913*19
 
9.25287         MSG_UDP              iDivisorNMEA    $HCHDG,284.0,0.0,E,23.3,W*6C
 
