%%%%%%%%%%%%%%%%%%%%%%%%%%%%%%%%%%%%%%%%%%%%%%%%%%%%%%%%%%%
%% LOG FILE:       /home/moos-ivp-douglas/log/teste_7_3_2023_____10_36_30/teste_7_3_2023_____10_36_30.alog
%% FILE OPENED ON  Wed Dec 31 21:00:00 1969
%% LOGSTART           1678196190.238346
%%%%%%%%%%%%%%%%%%%%%%%%%%%%%%%%%%%%%%%%%%%%%%%%%%%%%%%%%%%
-0.04628        MOOS_DEBUG           pHelmIvP        pHelmIvP AllStop: ManualOverride 
-0.04627        DESIRED_SPEED        pHelmIvP        0.00000      
-0.04627        DESIRED_HEADING      pHelmIvP        0.00000      
0.15430         DESIRED_RUDDER       pMarinePIDV22   0.00000      
0.15431         DESIRED_THRUST       pMarinePIDV22   0.00000      
0.65932         MSG_UDP              iDivisorNMEA    $AGRSA,-0.96,A,,V*6D
 
0.65937         ANGULO_LEME          iDivisorNMEA    -0.96000     
0.70924         MSG_UDP              iDivisorNMEA    $HCHDG,284.6,0.0,E,23.3,W*6A
 
0.71036         MSG_UDP              iDivisorNMEA    $GPHDT,261.27,T*05
 
0.71957         MSG_UDP              iDivisorNMEA    $TIROT,0.99,A*0B
 
0.74242         MSG_UDP              iDivisorNMEA    $MXPGN,01F803,281C,000000000000A0CF*10
 
0.74323         MSG_UDP              iDivisorNMEA    $MXPGN,01F804,281C,000000EC7CC1A0CF*17
 
0.75945         MSG_UDP              iDivisorNMEA    $AGRSA,-0.96,A,,V*6D
 
0.75951         ANGULO_LEME          iDivisorNMEA    -0.96000     
0.76367         MSG_UDP              iDivisorNMEA    $SDDPT,1.79,0.00,*74
 
0.77386         MSG_UDP              iDivisorNMEA    $MXPGN,01FF1A,782B,FFFAFF859F410520*19
 
0.78405         MSG_UDP              iDivisorNMEA    $MXPGN,00FF00,280B,0002000005049913*19
 
1.05940         MSG_UDP              iDivisorNMEA    $AGRSA,-0.96,A,,V*6D
 
1.05947         ANGULO_LEME          iDivisorNMEA    -0.96000     
1.06741         MSG_UDP              iDivisorNMEA    $MXPGN,00FF28,3808,FF08FFFDFC059F41*19
 
1.11031         MSG_UDP              iDivisorNMEA    $HCHDG,284.6,0.0,E,23.3,W*6A
 
1.11060         MSG_UDP              iDivisorNMEA    $GPHDT,261.25,T*07
 
1.12074         MSG_UDP              iDivisorNMEA    $TIROT,0.49,A*06
 
1.14242         MSG_UDP              iDivisorNMEA    $MXPGN,01F803,281C,0000000000003CD4*64
 
1.14330         MSG_UDP              iDivisorNMEA    $MXPGN,01F804,281C,0000004E65C13CD4*63
 
1.15940         MSG_UDP              iDivisorNMEA    $AGRSA,-0.96,A,,V*6D
 
1.15947         ANGULO_LEME          iDivisorNMEA    -0.96000     
1.16745         MSG_UDP              iDivisorNMEA    $MXPGN,01FF2C,7808,FFFFFFFF9F411760*6D
 
1.17460         MSG_UDP              iDivisorNMEA    $MXPGN,01FF2C,7808,FFFF7FFFFFFF7F61*10
 
1.18476         MSG_UDP              iDivisorNMEA    $MXPGN,01FF2C,7808,FF7FFFFFFFFFFF62*62
 
1.19489         MSG_UDP              iDivisorNMEA    $MXPGN,01FF2C,7808,FFFFFFFF7FFFFF63*63
 
1.20503         MSG_UDP              iDivisorNMEA    $MXPGN,00FF3D,6808,7FFFFF0DFFFF9F41*6E
 
1.21519         MSG_UDP              iDivisorNMEA    $HCHDG,284.5,0.0,E,23.3,W*69
 
1.22534         MSG_UDP              iDivisorNMEA    $GPHDT,261.24,T*06
 
1.23551         MSG_UDP              iDivisorNMEA    $TIROT,0.49,A*06
 
1.24566         MSG_UDP              iDivisorNMEA    $MXPGN,00FF3D,6808,0000FF0BFFFF9F41*19
 
1.25579         MSG_UDP              iDivisorNMEA    $MXPGN,01F803,281C,00000000000050D5*10
 
1.26598         MSG_UDP              iDivisorNMEA    $MXPGN,01F804,281C,0000004E65C150D5*17
 
1.27615         MSG_UDP              iDivisorNMEA    $MXPGN,00FF3D,6808,FFFFFF0CFFFF9F41*18
 
1.28633         MSG_UDP              iDivisorNMEA    $AGRSA,-0.96,A,,V*6D
 
1.28636         ANGULO_LEME          iDivisorNMEA    -0.96000     
1.29648         MSG_UDP              iDivisorNMEA    $MXPGN,00FF3D,6808,FFFFFF03FFFF9F41*68
 
1.30662         MSG_UDP              iDivisorNMEA    $MXPGN,00FF3C,3808,8000F8FE00009F41*1C
 
1.31677         MSG_UDP              iDivisorNMEA    $MXPGN,00FF00,280B,0002000005049913*19
 
1.32692         MSG_UDP              iDivisorNMEA    $MXPGN,00FF3D,6808,FFFFFF02FFFF9F41*69
 
1.33708         MSG_UDP              iDivisorNMEA    $HCHDG,284.5,0.0,E,23.3,W*69
 
1.34725         MSG_UDP              iDivisorNMEA    $GPHDT,261.23,T*01
 
1.35739         MSG_UDP              iDivisorNMEA    $TIROT,0.59,A*07
 
1.36756         MSG_UDP              iDivisorNMEA    $MXPGN,01F803,281C,00000000000064D6*14
 
1.37771         MSG_UDP              iDivisorNMEA    $MXPGN,01F804,281C,00000021B3C164D6*13
 
1.38787         MSG_UDP              iDivisorNMEA    $AGRSA,-0.96,A,,V*6D
 
1.38794         ANGULO_LEME          iDivisorNMEA    -0.96000     
1.39806         MSG_UDP              iDivisorNMEA    $MXPGN,00FF16,7808,FF0000002B0A9F41*1B
 
1.40826         MSG_UDP              iDivisorNMEA    $MXPGN,00FF19,7808,0000000202009F41*15
 
1.41841         MSG_UDP              iDivisorNMEA    $HCHDG,284.5,0.0,E,23.3,W*69
 
1.42858         MSG_UDP              iDivisorNMEA    $GPHDT,261.23,T*01
 
1.43877         MSG_UDP              iDivisorNMEA    $TIROT,0.59,A*07
 
1.44895         MSG_UDP              iDivisorNMEA    $MXPGN,00FF19,7808,0080000A0A009F41*1D
 
1.45913         MSG_UDP              iDivisorNMEA    $MXPGN,01F803,281C,00000000000078D7*18
 
1.46929         MSG_UDP              iDivisorNMEA    $MXPGN,01F804,281C,00000021B3C178D7*1F
 
1.47946         MSG_UDP              iDivisorNMEA    $GPGGA,,2254.75229,S,04309.54089,W,1,,,,M,,M,,*57
 
1.48965         MSG_UDP              iDivisorNMEA    $GPGLL,2254.75229,S,04309.54089,W,,A,A*4C
 
1.49981         MSG_UDP              iDivisorNMEA    $GPVTG,334.80,T,,M,0.30,N,0.55,K,A*32
 
1.50997         MSG_UDP              iDivisorNMEA    $AGRSA,-0.96,A,,V*6D
 
1.51000         ANGULO_LEME          iDivisorNMEA    -0.96000     
1.52013         MSG_UDP              iDivisorNMEA    $MXPGN,00FF8C,6808,FFF10695C9409F41*64
 
1.53028         MSG_UDP              iDivisorNMEA    $GPGSA,A,3,08,10,16,18,21,27,28,31,32,66,65,86,1.30,1.10,1.10*05
 
1.54049         MSG_UDP              iDivisorNMEA    $GPGSV,3,1,12,08,40,238,35,10,39,153,27,16,11,315,43,18,19,071,35*74
 
1.55069         MSG_UDP              iDivisorNMEA    $GPGSV,3,2,12,21,10,224,22,27,63,285,23,28,18,027,37,31,13,018,44*78
 
1.56092         MSG_UDP              iDivisorNMEA    $GPGSV,3,3,12,32,77,100,41,66,15,313,43,65,62,266,41,86,30,049,41*78
 
1.57140         MSG_UDP              iDivisorNMEA    $MXPGN,01FF0D,780B,FF03000098900540*62
 
1.58153         MSG_UDP              iDivisorNMEA    $HCHDG,284.5,0.0,E,23.3,W*69
 
1.59169         MSG_UDP              iDivisorNMEA    $GPHDT,261.23,T*01
 
1.60184         MSG_UDP              iDivisorNMEA    $TIROT,0.59,A*07
 
1.61202         MSG_UDP              iDivisorNMEA    $MXPGN,00FF00,280B,0002000005049913*19
 
1.62220         MSG_UDP              iDivisorNMEA    $MXPGN,01FF1A,680B,FF022B849F4105C0*1F
 
1.63238         MSG_UDP              iDivisorNMEA    $MXPGN,01FF1A,782B,FF010B049F410520*64
 
1.64249         MSG_UDP              iDivisorNMEA    $MXPGN,01F803,281C,0000000000008CD8*63
 
1.65269         MSG_UDP              iDivisorNMEA    $MXPGN,01F804,281C,00000021B3C18CD8*64
 
1.66284         MSG_UDP              iDivisorNMEA    $AGRSA,-0.96,A,,V*6D
 
1.66286         ANGULO_LEME          iDivisorNMEA    -0.96000     
1.67299         MSG_UDP              iDivisorNMEA    $GPZDA,133630.720,07,03,2023,,*50
 
1.68310         MSG_UDP              iDivisorNMEA    $HCHDG,284.5,0.0,E,23.3,W*69
 
1.69330         MSG_UDP              iDivisorNMEA    $GPHDT,261.23,T*01
 
1.70346         MSG_UDP              iDivisorNMEA    $TIROT,0.59,A*07
 
1.71362         MSG_UDP              iDivisorNMEA    $MXPGN,01F803,281C,000000000000A0D9*68
 
1.72377         MSG_UDP              iDivisorNMEA    $MXPGN,01F804,281C,00000024A5C1A0D9*6F
 
1.96143         MSG_UDP              iDivisorNMEA    $GPGGA,133632.000,2254.75330,S,04309.53829,W,1,08,1.70,1.04,M,-5.00,M,,*7E
 
1.96237         MSG_UDP              iDivisorNMEA    $GPGLL,2254.75330,S,04309.53829,W,133632.000,A,A*58
 
1.97171         MSG_UDP              iDivisorNMEA    $GPRMC,133632.000,A,2254.75330,S,04309.53829,W,0.01,53.74,070323,23.39,W,A*2C
 
1.98190         MSG_UDP              iDivisorNMEA    $GPVTG,53.74,T,,M,0.01,N,0.01,K,A*08
 
1.99204         MSG_UDP              iDivisorNMEA    $AGRSA,-0.96,A,,V*6D
 
1.99206         ANGULO_LEME          iDivisorNMEA    -0.96000     
2.01048         MSG_UDP              iDivisorNMEA    $HCHDG,284.5,0.0,E,23.3,W*69
 
2.01272         MSG_UDP              iDivisorNMEA    $GPHDT,261.24,T*06
 
2.02299         MSG_UDP              iDivisorNMEA    $TIROT,0.39,A*01
 
2.03327         MSG_UDP              iDivisorNMEA    $MXPGN,00FF00,280B,0002000005049913*19
 
2.04368         MSG_UDP              iDivisorNMEA    $MXPGN,01F803,281C,00000000000014DC*66
 
2.05398         MSG_UDP              iDivisorNMEA    $MXPGN,01F804,281C,0000000ABCC114DC*63
 
2.06422         MSG_UDP              iDivisorNMEA    $AGRSA,-0.96,A,,V*6D
 
2.06428         ANGULO_LEME          iDivisorNMEA    -0.96000     
2.07448         MSG_UDP              iDivisorNMEA    $MXPGN,00FF28,3808,FF08FFFDFC059F41*19
 
2.11049         MSG_UDP              iDivisorNMEA    $HCHDG,284.6,0.0,E,23.3,W*6A
 
2.11059         MSG_UDP              iDivisorNMEA    $GPHDT,261.26,T*04
 
2.12083         MSG_UDP              iDivisorNMEA    $TIROT,0.39,A*01
 
2.14252         MSG_UDP              iDivisorNMEA    $MXPGN,01F803,281C,0000000000003CDE*15
 
2.14336         MSG_UDP              iDivisorNMEA    $MXPGN,01F804,281C,0000005BAFC13CDE*10
 
2.15953         MSG_UDP              iDivisorNMEA    $AGRSA,-0.96,A,,V*6D
 
2.15960         ANGULO_LEME          iDivisorNMEA    -0.96000     
2.16762         MSG_UDP              iDivisorNMEA    $MXPGN,01FF2C,7808,FFFFFFFF9F411780*63
 
2.17488         MSG_UDP              iDivisorNMEA    $MXPGN,01FF2C,7808,FFFF7FFFFFFF7F81*1E
 
2.18511         MSG_UDP              iDivisorNMEA    $MXPGN,01FF2C,7808,FF7FFFFFFFFFFF82*6C
 
2.19538         MSG_UDP              iDivisorNMEA    $MXPGN,01FF2C,7808,FFFFFFFF7FFFFF83*6D
 
2.20559         MSG_UDP              iDivisorNMEA    $MXPGN,00FF3D,6808,7FFFFF0DFFFF9F41*6E
 
2.21582         MSG_UDP              iDivisorNMEA    $HCHDG,284.6,0.0,E,23.3,W*6A
 
2.22610         MSG_UDP              iDivisorNMEA    $GPHDT,261.28,T*0A
 
2.23640         MSG_UDP              iDivisorNMEA    $TIROT,0.39,A*01
 
2.24668         MSG_UDP              iDivisorNMEA    $MXPGN,01F803,281C,00000000000050DF*63
 
2.25700         MSG_UDP              iDivisorNMEA    $MXPGN,01F804,281C,0000005BAFC150DF*66
 
2.26721         MSG_UDP              iDivisorNMEA    $AGRSA,-0.90,A,,V*6B
 
2.26727         ANGULO_LEME          iDivisorNMEA    -0.90000     
2.27745         MSG_UDP              iDivisorNMEA    $MXPGN,00FF3C,3808,8000F8FE00009F41*1C
 
2.28776         MSG_UDP              iDivisorNMEA    $MXPGN,00FF00,280B,0002000005049913*19
 
2.31054         MSG_UDP              iDivisorNMEA    $HCHDG,284.6,0.0,E,23.3,W*6A
 
2.31065         MSG_UDP              iDivisorNMEA    $GPHDT,261.27,T*05
 
2.32088         MSG_UDP              iDivisorNMEA    $TIROT,0.29,A*00
 
2.34247         MSG_UDP              iDivisorNMEA    $MXPGN,01F803,281C,00000000000064E0*13
 
2.34352         MSG_UDP              iDivisorNMEA    $MXPGN,01F804,281C,0000001A6CC164E0*63
 
2.35950         MSG_UDP              iDivisorNMEA    $AGRSA,-0.90,A,,V*6B
 
2.35958         ANGULO_LEME          iDivisorNMEA    -0.90000     
2.37166         MSG_UDP              iDivisorNMEA    $MXPGN,00FF16,7808,FF0000002B0A9F41*1B
 
2.39254         MSG_UDP              iDivisorNMEA    $MXPGN,00FF19,7808,0000000202009F41*15
 
2.41060         MSG_UDP              iDivisorNMEA    $HCHDG,284.6,0.0,E,23.3,W*6A
 
2.41071         MSG_UDP              iDivisorNMEA    $GPHDT,261.28,T*0A
 
2.42097         MSG_UDP              iDivisorNMEA    $TIROT,0.29,A*00
 
2.43115         MSG_UDP              iDivisorNMEA    $MXPGN,00FF19,7808,0080000A0A009F41*1D
 
2.44258         MSG_UDP              iDivisorNMEA    $MXPGN,01F803,281C,00000000000078E1*1F
 
2.45189         MSG_UDP              iDivisorNMEA    $MXPGN,01F804,281C,0000001A6CC178E1*6F
 
2.46215         MSG_UDP              iDivisorNMEA    $GPGGA,,2254.75319,S,04309.54009,W,1,,,,M,,M,,*5D
 
2.47297         MSG_UDP              iDivisorNMEA    $GPGLL,2254.75319,S,04309.54009,W,,A,A*46
 
2.48325         MSG_UDP              iDivisorNMEA    $GPVTG,334.80,T,,M,0.30,N,0.55,K,A*32
 
2.49361         MSG_UDP              iDivisorNMEA    $AGRSA,-0.96,A,,V*6D
 
2.49370         ANGULO_LEME          iDivisorNMEA    -0.96000     
2.50391         MSG_UDP              iDivisorNMEA    $MXPGN,00FF8C,6808,FFF10695C9409F41*64
 
2.51418         MSG_UDP              iDivisorNMEA    $GPGSA,A,3,08,10,16,18,21,27,28,31,32,66,65,86,1.30,1.10,1.10*05
 
2.52447         MSG_UDP              iDivisorNMEA    $GPGSV,3,1,12,08,40,238,35,10,39,153,27,16,11,315,43,18,19,071,35*74
 
2.53487         MSG_UDP              iDivisorNMEA    $GPGSV,3,2,12,21,10,224,22,27,63,285,23,28,18,027,36,31,13,018,44*79
 
2.54520         MSG_UDP              iDivisorNMEA    $GPGSV,3,3,12,32,77,100,41,66,15,313,43,65,62,266,41,86,30,049,41*78
 
2.55557         MSG_UDP              iDivisorNMEA    $MXPGN,01FF0D,780B,FF03000098900560*60
 
2.56592         MSG_UDP              iDivisorNMEA    $HCHDG,284.6,0.0,E,23.3,W*6A
 
2.57621         MSG_UDP              iDivisorNMEA    $GPHDT,261.29,T*0B
 
2.58652         MSG_UDP              iDivisorNMEA    $TIROT,0.29,A*00
 
2.59676         MSG_UDP              iDivisorNMEA    $MXPGN,00FF00,280B,0002000005049913*19
 
2.60702         MSG_UDP              iDivisorNMEA    $MXPGN,01FF1A,680B,FF022B849F4105E0*19
 
2.61730         MSG_UDP              iDivisorNMEA    $MXPGN,01FF1A,782B,FF010B049F410540*62
 
2.62757         MSG_UDP              iDivisorNMEA    $MXPGN,01F803,281C,0000000000008CE2*68
 
2.63787         MSG_UDP              iDivisorNMEA    $MXPGN,01F804,281C,0000001A6CC18CE2*18
 
2.84362         MSG_UDP              iDivisorNMEA    $MXPGN,01F803,281C,000000000000C8E5*6F
 
2.84374         MSG_UDP              iDivisorNMEA    $MXPGN,01F804,281C,0000001DB4C1C8E5*19
 
2.85951         MSG_UDP              iDivisorNMEA    $AGRSA,-0.96,A,,V*6D
 
2.85956         ANGULO_LEME          iDivisorNMEA    -0.96000     
2.91160         MSG_UDP              iDivisorNMEA    $GPGGA,133632.000,2254.75336,S,04309.53865,W,1,12,0.70,14.35,M,-5.60,M,,*4A
 
2.91256         MSG_UDP              iDivisorNMEA    $GPGLL,2254.75336,S,04309.53865,W,133632.000,A,A*56
 
2.92276         MSG_UDP              iDivisorNMEA    $GPRMC,133632.000,A,2254.75336,S,04309.53865,W,0.09,0.00,070323,23.30,W,A*16
 
2.93305         MSG_UDP              iDivisorNMEA    $GPVTG,0.00,T,,M,0.09,N,0.16,K,A*33
 
2.94346         MSG_UDP              iDivisorNMEA    $HCHDG,284.7,0.0,E,23.3,W*6B
 
2.95372         MSG_UDP              iDivisorNMEA    $GPHDT,261.38,T*0B
 
2.96392         MSG_UDP              iDivisorNMEA    $TIROT,0.59,A*07
 
2.97453         MSG_UDP              iDivisorNMEA    $GPGSA,A,3,08,10,16,18,21,23,26,27,,,,,2.02,1.70,1.70*06
 
2.98480         MSG_UDP              iDivisorNMEA    $GPGSV,2,1,08,08,39,237,44,10,39,153,34,16,10,314,44,18,18,071,36*7E
 
2.99506         MSG_UDP              iDivisorNMEA    $GPGSV,2,2,08,21,10,223,00,23,15,126,00,26,02,349,43,27,62,284,48*7C
 
3.00541         MSG_UDP              iDivisorNMEA    $MXPGN,01FA06,681C,8600AF00C8E50FA0*19
 
3.01574         MSG_UDP              iDivisorNMEA    $MXPGN,01FA06,681C,008600AF001E00A1*11
 
3.02600         MSG_UDP              iDivisorNMEA    $MXPGN,01FA06,681C,FFFFFFFFFF0157A2*6C
 
3.03624         MSG_UDP              iDivisorNMEA    $MXPGN,01F803,281C,00000000000000E5*14
 
3.04653         MSG_UDP              iDivisorNMEA    $MXPGN,01F804,281C,0000001DB4C100E5*62
 
3.05681         MSG_UDP              iDivisorNMEA    $GPGGA,133633.000,2254.75330,S,04309.53829,W,1,08,1.70,1.04,M,-5.00,M,,*7F
 
3.06715         MSG_UDP              iDivisorNMEA    $GPGLL,2254.75330,S,04309.53829,W,133633.000,A,A*59
 
3.07740         MSG_UDP              iDivisorNMEA    $GPRMC,133633.000,A,2254.75330,S,04309.53829,W,0.00,58.63,070323,23.39,W,A*21
 
3.08771         MSG_UDP              iDivisorNMEA    $GPVTG,58.63,T,,M,0.00,N,0.00,K,A*05
 
3.09796         MSG_UDP              iDivisorNMEA    $AGRSA,-0.96,A,,V*6D
 
3.09801         ANGULO_LEME          iDivisorNMEA    -0.96000     
3.10823         MSG_UDP              iDivisorNMEA    $HCHDG,284.7,0.0,E,23.3,W*6B
 
3.11847         MSG_UDP              iDivisorNMEA    $GPHDT,261.38,T*0B
 
3.12873         MSG_UDP              iDivisorNMEA    $TIROT,0.59,A*07
 
3.13899         MSG_UDP              iDivisorNMEA    $MXPGN,00FF00,280B,0002000005049913*19
 
3.14929         MSG_UDP              iDivisorNMEA    $MXPGN,01F803,281C,00000000000028E7*1C
 
3.15958         MSG_UDP              iDivisorNMEA    $MXPGN,01F804,281C,0000001DB4C128E7*6A
 
3.16992         MSG_UDP              iDivisorNMEA    $AGRSA,-0.96,A,,V*6D
 
3.16999         ANGULO_LEME          iDivisorNMEA    -0.96000     
3.18020         MSG_UDP              iDivisorNMEA    $MXPGN,00FF28,3808,FF08FFFDFC059F41*19
 
3.19040         MSG_UDP              iDivisorNMEA    $HCHDG,284.7,0.0,E,23.3,W*6B
 
3.20067         MSG_UDP              iDivisorNMEA    $GPHDT,261.43,T*07
 
3.21093         MSG_UDP              iDivisorNMEA    $TIROT,0.89,A*0A
 
3.22117         MSG_UDP              iDivisorNMEA    $MXPGN,01F803,281C,0000000000003CE8*69
 
3.23151         MSG_UDP              iDivisorNMEA    $MXPGN,01F804,281C,000000128DC13CE8*63
 
3.24176         MSG_UDP              iDivisorNMEA    $AGRSA,-0.96,A,,V*6D
 
3.24185         ANGULO_LEME          iDivisorNMEA    -0.96000     
3.25206         MSG_UDP              iDivisorNMEA    $MXPGN,01FF2C,7808,FFFFFFFF9F4117A0*1A
 
3.26230         MSG_UDP              iDivisorNMEA    $MXPGN,01FF2C,7808,FFFF7FFFFFFF7FA1*67
 
3.27257         MSG_UDP              iDivisorNMEA    $MXPGN,01FF2C,7808,FF7FFFFFFFFFFFA2*15
 
3.28283         MSG_UDP              iDivisorNMEA    $MXPGN,01FF2C,7808,FFFFFFFF7FFFFFA3*14
 
3.29308         MSG_UDP              iDivisorNMEA    $MXPGN,00FF3D,6808,7FFFFF0DFFFF9F41*6E
 
3.30340         MSG_UDP              iDivisorNMEA    $HCHDG,284.7,0.0,E,23.3,W*6B
 
3.31363         MSG_UDP              iDivisorNMEA    $GPHDT,261.44,T*00
 
3.32390         MSG_UDP              iDivisorNMEA    $TIROT,0.89,A*0A
 
3.33421         MSG_UDP              iDivisorNMEA    $MXPGN,01F803,281C,00000000000050E9*1D
 
3.34444         MSG_UDP              iDivisorNMEA    $MXPGN,01F804,281C,000000128DC150E9*17
 
3.35469         MSG_UDP              iDivisorNMEA    $AGRSA,-0.96,A,,V*6D
 
3.35475         ANGULO_LEME          iDivisorNMEA    -0.96000     
3.36490         MSG_UDP              iDivisorNMEA    $MXPGN,00FF3C,3808,8000F8FE00009F41*1C
 
3.37516         MSG_UDP              iDivisorNMEA    $MXPGN,00FF00,280B,0002000005049913*19
 
3.38541         MSG_UDP              iDivisorNMEA    $HCHDG,284.8,0.0,E,23.3,W*64
 
3.39565         MSG_UDP              iDivisorNMEA    $GPHDT,261.45,T*01
 
3.40595         MSG_UDP              iDivisorNMEA    $TIROT,0.89,A*0A
 
3.41617         MSG_UDP              iDivisorNMEA    $MXPGN,01F803,281C,00000000000064EA*62
 
3.42646         MSG_UDP              iDivisorNMEA    $MXPGN,01F804,281C,000000E24EC164EA*11
 
3.43673         MSG_UDP              iDivisorNMEA    $AGRSA,-0.96,A,,V*6D
 
3.43679         ANGULO_LEME          iDivisorNMEA    -0.96000     
3.44699         MSG_UDP              iDivisorNMEA    $MXPGN,01FF22,2808,FF01FFFF9F410C80*63
 
3.45725         MSG_UDP              iDivisorNMEA    $MXPGN,01FF22,2808,FFFF00000A003981*11
 
3.46755         MSG_UDP              iDivisorNMEA    $MXPGN,00FF16,7808,FF0000002B0A9F41*1B
 
3.47824         MSG_UDP              iDivisorNMEA    $MXPGN,00FF19,7808,0000000202009F41*15
 
3.48850         MSG_UDP              iDivisorNMEA    $HCHDG,284.8,0.0,E,23.3,W*64
 
3.49877         MSG_UDP              iDivisorNMEA    $GPHDT,261.47,T*03
 
3.50906         MSG_UDP              iDivisorNMEA    $TIROT,0.89,A*0A
 
3.51941         MSG_UDP              iDivisorNMEA    $MXPGN,00FF19,7808,0080000A0A009F41*1D
 
3.74270         MSG_UDP              iDivisorNMEA    $MXPGN,01F803,281C,000000000000A0ED*14
 
3.74363         MSG_UDP              iDivisorNMEA    $MXPGN,01F804,281C,000000CE64C1A0ED*65
 
3.75869         MSG_UDP              iDivisorNMEA    !AIVDO,1,1,,,B:UOH3P017>Vt@Lf>b?ACwhUoP06,0*7E
 
3.76492         MSG_UDP              iDivisorNMEA    $AGRSA,-0.96,A,,V*6D
 
3.76498         ANGULO_LEME          iDivisorNMEA    -0.96000     
3.77516         MSG_UDP              iDivisorNMEA    $SDDPT,1.80,0.00,*72
 
3.78541         MSG_UDP              iDivisorNMEA    $MXPGN,01FF1A,782B,FFFAFF859F410580*13
 
3.79561         MSG_UDP              iDivisorNMEA    $MXPGN,00FF00,280B,0002000005049913*19
 
3.81056         MSG_UDP              iDivisorNMEA    $HCHDG,284.8,0.0,E,23.3,W*64
 
3.81686         MSG_UDP              iDivisorNMEA    $GPHDT,261.50,T*05
 
3.82716         MSG_UDP              iDivisorNMEA    $TIROT,0.99,A*0B
 
3.84374         MSG_UDP              iDivisorNMEA    $MXPGN,01F803,281C,000000000000C8EF*1C
 
3.84795         MSG_UDP              iDivisorNMEA    $MXPGN,01F804,281C,000000AF12C1C8EF*6D
 
3.85968         MSG_UDP              iDivisorNMEA    $AGRSA,-0.96,A,,V*6D
 
3.85975         ANGULO_LEME          iDivisorNMEA    -0.96000     
3.91178         MSG_UDP              iDivisorNMEA    $GPGGA,133633.000,2254.75337,S,04309.53872,W,1,12,0.70,14.28,M,-5.60,M,,*40
 
3.91276         MSG_UDP              iDivisorNMEA    $GPGLL,2254.75337,S,04309.53872,W,133633.000,A,A*50
 
3.92299         MSG_UDP              iDivisorNMEA    $GPRMC,133633.000,A,2254.75337,S,04309.53872,W,0.09,0.00,070323,23.30,W,A*10
 
3.93327         MSG_UDP              iDivisorNMEA    $GPVTG,0.00,T,,M,0.09,N,0.16,K,A*33
 
3.94375         MSG_UDP              iDivisorNMEA    $HCHDG,284.8,0.0,E,23.3,W*64
 
3.95390         MSG_UDP              iDivisorNMEA    $GPHDT,261.52,T*07
 
3.96403         MSG_UDP              iDivisorNMEA    $TIROT,1.19,A*02
 
3.97416         MSG_UDP              iDivisorNMEA    $GPGSA,A,3,08,10,16,18,21,23,26,27,,,,,2.02,1.70,1.70*06
 
3.98451         MSG_UDP              iDivisorNMEA    $GPGSV,2,1,08,08,39,237,44,10,39,153,34,16,10,314,44,18,18,071,37*7F
 
3.99466         MSG_UDP              iDivisorNMEA    $GPGSV,2,2,08,21,10,223,00,23,15,126,00,26,02,349,43,27,62,284,48*7C
 
4.00481         MSG_UDP              iDivisorNMEA    $MXPGN,01FA06,681C,8600AF00C8EF0FC0*68
 
4.01497         MSG_UDP              iDivisorNMEA    $MXPGN,01FA06,681C,008600AF001E00C1*13
 
4.02511         MSG_UDP              iDivisorNMEA    $MXPGN,01FA06,681C,FFFFFFFFFF0157C2*6E
 
4.03526         MSG_UDP              iDivisorNMEA    $MXPGN,01F803,281C,00000000000000EF*67
 
4.04543         MSG_UDP              iDivisorNMEA    $MXPGN,01F804,281C,000000AF12C100EF*16
 
4.05559         MSG_UDP              iDivisorNMEA    $GPGGA,133634.000,2254.75330,S,04309.53829,W,1,08,1.70,1.04,M,-5.00,M,,*78
 
4.06578         MSG_UDP              iDivisorNMEA    $GPGLL,2254.75330,S,04309.53829,W,133634.000,A,A*5E
 
4.07596         MSG_UDP              iDivisorNMEA    $GPRMC,133634.000,A,2254.75330,S,04309.53829,W,0.00,302.72,070323,23.39,W,A*1A
 
4.08617         MSG_UDP              iDivisorNMEA    $GPVTG,302.72,T,,M,0.00,N,0.00,K,A*39
 
4.09635         MSG_UDP              iDivisorNMEA    $AGRSA,-0.96,A,,V*6D
 
4.09640         ANGULO_LEME          iDivisorNMEA    -0.96000     
4.10652         MSG_UDP              iDivisorNMEA    !AIVDM,1,1,,A,16:>J;?P00LrE9Ajr;1G4ww600SS,0*6F
 
4.11673         MSG_UDP              iDivisorNMEA    $HCHDG,284.8,0.0,E,23.3,W*64
 
4.12687         MSG_UDP              iDivisorNMEA    $GPHDT,261.52,T*07
 
4.13705         MSG_UDP              iDivisorNMEA    $TIROT,1.19,A*02
 
4.14722         MSG_UDP              iDivisorNMEA    $MXPGN,00FF00,280B,0002000005049913*19
 
4.15748         MSG_UDP              iDivisorNMEA    $MXPGN,01F803,281C,00000000000028F1*19
 
4.16769         MSG_UDP              iDivisorNMEA    $MXPGN,01F804,281C,000000AF12C128F1*68
 
4.17790         MSG_UDP              iDivisorNMEA    $AGRSA,-0.96,A,,V*6D
 
4.17792         ANGULO_LEME          iDivisorNMEA    -0.96000     
4.18809         MSG_UDP              iDivisorNMEA    $MXPGN,00FF28,3808,FF08FFFDFC059F41*19
 
4.19832         MSG_UDP              iDivisorNMEA    $HCHDG,284.9,0.0,E,23.3,W*65
 
4.20850         MSG_UDP              iDivisorNMEA    $GPHDT,261.55,T*00
 
4.21869         MSG_UDP              iDivisorNMEA    $TIROT,1.19,A*02
 
4.22887         MSG_UDP              iDivisorNMEA    $MXPGN,01F803,281C,0000000000003CF2*60
 
4.23903         MSG_UDP              iDivisorNMEA    $MXPGN,01F804,281C,00000069CCC13CF2*1A
 
4.24920         MSG_UDP              iDivisorNMEA    $AGRSA,-0.96,A,,V*6D
 
4.24923         ANGULO_LEME          iDivisorNMEA    -0.96000     
4.25940         MSG_UDP              iDivisorNMEA    $MXPGN,01FF2C,7808,FFFFFFFF9F4117C0*18
 
4.26954         MSG_UDP              iDivisorNMEA    $MXPGN,01FF2C,7808,FFFF7FFFFFFF7FC1*65
 
4.27972         MSG_UDP              iDivisorNMEA    $MXPGN,01FF2C,7808,FF7FFFFFFFFFFFC2*17
 
4.28990         MSG_UDP              iDivisorNMEA    $MXPGN,01FF2C,7808,FFFFFFFF7FFFFFC3*16
 
4.30007         MSG_UDP              iDivisorNMEA    $MXPGN,00FF3D,6808,7FFFFF0DFFFF9F41*6E
 
4.31024         MSG_UDP              iDivisorNMEA    $HCHDG,284.9,0.0,E,23.3,W*65
 
4.32039         MSG_UDP              iDivisorNMEA    $GPHDT,261.56,T*03
 
4.33056         MSG_UDP              iDivisorNMEA    $TIROT,1.19,A*02
 
4.34072         MSG_UDP              iDivisorNMEA    $MXPGN,01F803,281C,00000000000050F3*14
 
4.35095         MSG_UDP              iDivisorNMEA    $MXPGN,01F804,281C,00000069CCC150F3*6E
 
4.36110         MSG_UDP              iDivisorNMEA    $AGRSA,-0.96,A,,V*6D
 
4.36112         ANGULO_LEME          iDivisorNMEA    -0.96000     
4.37126         MSG_UDP              iDivisorNMEA    $MXPGN,00FF3C,3808,8000F8FE00009F41*1C
 
4.38139         MSG_UDP              iDivisorNMEA    $MXPGN,00FF00,280B,0002000005049913*19
 
4.39156         MSG_UDP              iDivisorNMEA    $HCHDG,284.9,0.0,E,23.3,W*65
 
4.40171         MSG_UDP              iDivisorNMEA    $GPHDT,261.57,T*02
 
4.41185         MSG_UDP              iDivisorNMEA    $TIROT,1.39,A*00
 
4.64381         MSG_UDP              iDivisorNMEA    $MXPGN,01F803,281C,0000000000008CF6*6F
 
4.64408         MSG_UDP              iDivisorNMEA    $MXPGN,01F804,281C,0000002926C18CF6*15
 
4.65970         MSG_UDP              iDivisorNMEA    $AGRSA,-0.96,A,,V*6D
 
4.65977         ANGULO_LEME          iDivisorNMEA    -0.96000     
4.67875         MSG_UDP              iDivisorNMEA    !AIVDM,1,1,,A,1:U6v;gP00LrHVajpgV;FOwp2hDI,0*3C
 
4.71080         MSG_UDP              iDivisorNMEA    $HCHDG,284.9,0.0,E,23.3,W*65
 
4.71088         MSG_UDP              iDivisorNMEA    $GPHDT,261.61,T*07
 
4.72102         MSG_UDP              iDivisorNMEA    $TIROT,1.29,A*01
 
4.74290         MSG_UDP              iDivisorNMEA    $MXPGN,01F803,281C,000000000000A0F7*64
 
4.74359         MSG_UDP              iDivisorNMEA    $MXPGN,01F804,281C,0000002926C1A0F7*1E
 
4.75972         MSG_UDP              iDivisorNMEA    $AGRSA,-0.96,A,,V*6D
 
4.75977         ANGULO_LEME          iDivisorNMEA    -0.96000     
4.76389         MSG_UDP              iDivisorNMEA    $SDDPT,1.78,0.00,*75
 
4.77409         MSG_UDP              iDivisorNMEA    $MXPGN,00FF00,280B,0002000005049913*19
 
4.81074         MSG_UDP              iDivisorNMEA    $HCHDG,284.9,0.0,E,23.3,W*65
 
4.81081         MSG_UDP              iDivisorNMEA    $GPHDT,261.61,T*07
 
4.82096         MSG_UDP              iDivisorNMEA    $TIROT,1.19,A*02
 
4.84372         MSG_UDP              iDivisorNMEA    $MXPGN,01F803,281C,000000000000A0F7*64
 
4.84380         MSG_UDP              iDivisorNMEA    $MXPGN,01F804,281C,0000002926C1A0F7*1E
 
4.85967         MSG_UDP              iDivisorNMEA    $AGRSA,-0.96,A,,V*6D
 
4.85972         ANGULO_LEME          iDivisorNMEA    -0.96000     
4.91183         MSG_UDP              iDivisorNMEA    $GPGGA,133634.000,2254.75349,S,04309.53874,W,1,12,0.70,14.48,M,-5.60,M,,*4E
 
4.91276         MSG_UDP              iDivisorNMEA    $GPGLL,2254.75349,S,04309.53874,W,133634.000,A,A*58
 
4.92295         MSG_UDP              iDivisorNMEA    $GPRMC,133634.000,A,2254.75349,S,04309.53874,W,0.09,0.00,070323,23.30,W,A*18
 
4.93314         MSG_UDP              iDivisorNMEA    $GPVTG,0.00,T,,M,0.09,N,0.16,K,A*33
 
4.94330         MSG_UDP              iDivisorNMEA    $HCHDG,284.9,0.0,E,23.3,W*65
 
4.95344         MSG_UDP              iDivisorNMEA    $GPHDT,261.61,T*07
 
4.96378         MSG_UDP              iDivisorNMEA    $TIROT,1.19,A*02
 
4.97395         MSG_UDP              iDivisorNMEA    $GPGSA,A,3,08,10,16,18,21,23,26,27,,,,,2.02,1.70,1.70*06
 
4.98417         MSG_UDP              iDivisorNMEA    $GPGSV,2,1,08,08,39,237,44,10,39,153,34,16,10,314,44,18,18,071,37*7F
 
4.99439         MSG_UDP              iDivisorNMEA    $GPGSV,2,2,08,21,10,223,00,23,15,126,00,26,02,349,43,27,62,284,48*7C
 
5.00455         MSG_UDP              iDivisorNMEA    $MXPGN,01FA06,681C,8600AF00C8F80FE0*13
 
5.01474         MSG_UDP              iDivisorNMEA    $MXPGN,01FA06,681C,008600AF001E00E1*15
 
5.02487         MSG_UDP              iDivisorNMEA    $MXPGN,01FA06,681C,FFFFFFFFFF0157E2*68
 
5.03506         MSG_UDP              iDivisorNMEA    $MXPGN,01F803,281C,00000000000000F8*1A
 
5.04531         MSG_UDP              iDivisorNMEA    $MXPGN,01F804,281C,0000002926C100F8*60
 
5.05550         MSG_UDP              iDivisorNMEA    $GPGGA,133634.900,2254.75330,S,04309.53829,W,1,08,1.70,1.04,M,-5.00,M,,*71
 
5.06571         MSG_UDP              iDivisorNMEA    $GPGLL,2254.75330,S,04309.53829,W,133634.900,A,A*57
 
5.07587         MSG_UDP              iDivisorNMEA    $GPRMC,133634.900,A,2254.75330,S,04309.53829,W,0.01,60.35,070323,23.39,W,A*26
 
5.08605         MSG_UDP              iDivisorNMEA    $GPVTG,60.35,T,,M,0.01,N,0.01,K,A*0D
 
5.09625         MSG_UDP              iDivisorNMEA    $AGRSA,-0.96,A,,V*6D
 
5.09627         ANGULO_LEME          iDivisorNMEA    -0.96000     
5.10642         MSG_UDP              iDivisorNMEA    $HCHDG,284.9,0.0,E,23.3,W*65
 
5.11660         MSG_UDP              iDivisorNMEA    $GPHDT,261.61,T*07
 
5.12675         MSG_UDP              iDivisorNMEA    $TIROT,1.19,A*02
 
5.13694         MSG_UDP              iDivisorNMEA    $MXPGN,00FF00,280B,0002000005049913*19
 
5.14710         MSG_UDP              iDivisorNMEA    $MXPGN,01F803,281C,00000000000014F9*1E
 
5.15748         MSG_UDP              iDivisorNMEA    $MXPGN,01F804,281C,00000043D7C114F9*1F
 
5.16762         MSG_UDP              iDivisorNMEA    $AGRSA,-0.96,A,,V*6D
 
5.16767         ANGULO_LEME          iDivisorNMEA    -0.96000     
5.17777         MSG_UDP              iDivisorNMEA    $MXPGN,00FF28,3808,FF08FFFDFC059F41*19
 
5.18790         MSG_UDP              iDivisorNMEA    $HCHDG,284.9,0.0,E,23.3,W*65
 
5.19806         MSG_UDP              iDivisorNMEA    $GPHDT,261.61,T*07
 
5.20828         MSG_UDP              iDivisorNMEA    $TIROT,1.19,A*02
 
5.21841         MSG_UDP              iDivisorNMEA    $MXPGN,01F803,281C,00000000000014F9*1E
 
5.22854         MSG_UDP              iDivisorNMEA    $MXPGN,01F804,281C,00000043D7C114F9*1F
 
5.23869         MSG_UDP              iDivisorNMEA    $AGRSA,-0.96,A,,V*6D
 
5.23875         ANGULO_LEME          iDivisorNMEA    -0.96000     
5.24884         MSG_UDP              iDivisorNMEA    $MXPGN,01FF2C,7808,FFFFFFFF9F4117E0*1E
 
5.25896         MSG_UDP              iDivisorNMEA    $MXPGN,01FF2C,7808,FFFF7FFFFFFF7FE1*63
 
5.26911         MSG_UDP              iDivisorNMEA    $MXPGN,01FF2C,7808,FF7FFFFFFFFFFFE2*11
 
5.27926         MSG_UDP              iDivisorNMEA    $MXPGN,01FF2C,7808,FFFFFFFF7FFFFFE3*10
 
5.28939         MSG_UDP              iDivisorNMEA    $MXPGN,00FF3D,6808,7FFFFF0DFFFF9F41*6E
 
5.29953         MSG_UDP              iDivisorNMEA    $HCHDG,284.9,0.0,E,23.3,W*65
 
5.30968         MSG_UDP              iDivisorNMEA    $GPHDT,261.62,T*04
 
5.31984         MSG_UDP              iDivisorNMEA    $TIROT,1.19,A*02
 
5.33001         MSG_UDP              iDivisorNMEA    $MXPGN,01F803,281C,0000000000005001*60
 
5.34015         MSG_UDP              iDivisorNMEA    $MXPGN,01F804,281C,000000ED74C15001*17
 
5.35033         MSG_UDP              iDivisorNMEA    $AGRSA,-0.96,A,,V*6D
 
5.35039         ANGULO_LEME          iDivisorNMEA    -0.96000     
5.36054         MSG_UDP              iDivisorNMEA    $MXPGN,00FF3C,3808,8000F8FE00009F41*1C
 
5.54384         MSG_UDP              iDivisorNMEA    $MXPGN,01F803,281C,000000000000A005*10
 
5.54476         MSG_UDP              iDivisorNMEA    $MXPGN,01F804,281C,00000077B9C1A005*1E
 
5.55496         MSG_UDP              iDivisorNMEA    $GPGSA,A,3,08,10,16,18,21,27,28,31,32,66,65,86,1.30,1.10,1.10*05
 
5.56514         MSG_UDP              iDivisorNMEA    $GPGSV,3,1,12,08,40,238,34,10,39,153,27,16,11,316,43,18,19,071,35*76
 
5.57534         MSG_UDP              iDivisorNMEA    $GPGSV,3,2,12,21,10,224,20,27,63,285,24,28,18,027,36,31,13,018,43*7B
 
5.58550         MSG_UDP              iDivisorNMEA    $GPGSV,3,3,12,32,77,100,41,66,15,313,43,65,62,266,41,86,30,049,41*78
 
5.59565         MSG_UDP              iDivisorNMEA    $MXPGN,01FF0D,780B,FF030000989005C0*15
 
5.60582         MSG_UDP              iDivisorNMEA    $MXPGN,00FF00,280B,0002000005049913*19
 
5.61598         MSG_UDP              iDivisorNMEA    $MXPGN,01FF1A,680B,FF022B849F410540*68
 
5.62616         MSG_UDP              iDivisorNMEA    $AGRSA,-0.96,A,,V*6D
 
5.62619         ANGULO_LEME          iDivisorNMEA    -0.96000     
5.63634         MSG_UDP              iDivisorNMEA    $GPZDA,133634.720,07,03,2023,,*54
 
5.64651         MSG_UDP              iDivisorNMEA    $MXPGN,01FF1A,782B,FF010B049F4105A0*17
 
5.65668         MSG_UDP              iDivisorNMEA    $HCHDG,284.9,0.0,E,23.3,W*65
 
5.66698         MSG_UDP              iDivisorNMEA    $GPHDT,261.63,T*05
 
5.67711         MSG_UDP              iDivisorNMEA    $TIROT,1.39,A*00
 
5.68729         MSG_UDP              iDivisorNMEA    $MXPGN,01F803,281C,000000000000B406*14
 
5.69747         MSG_UDP              iDivisorNMEA    $MXPGN,01F804,281C,0000003F56C1B406*17
 
5.70763         MSG_UDP              iDivisorNMEA    $AGRSA,-0.96,A,,V*6D
 
5.70767         ANGULO_LEME          iDivisorNMEA    -0.96000     
5.71779         MSG_UDP              iDivisorNMEA    !AIVDM,1,1,,A,3:U7?1@P0mtrHaEjqBWaqgw622ti,0*41
 
5.72795         MSG_UDP              iDivisorNMEA    $HCHDG,284.9,0.0,E,23.3,W*65
 
5.73814         MSG_UDP              iDivisorNMEA    $GPHDT,261.62,T*04
 
5.74829         MSG_UDP              iDivisorNMEA    $TIROT,1.39,A*00
 
5.75849         MSG_UDP              iDivisorNMEA    !AIVDM,1,1,,A,1:U8M80P1OLrIuqjqHMq1Ow82D2M,0*0F
 
5.76862         MSG_UDP              iDivisorNMEA    $MXPGN,01F803,281C,000000000000C807*18
 
5.77880         MSG_UDP              iDivisorNMEA    $MXPGN,01F804,281C,0000003F56C1C807*1B
 
5.78893         MSG_UDP              iDivisorNMEA    $AGRSA,-0.96,A,,V*6D
 
5.78896         ANGULO_LEME          iDivisorNMEA    -0.96000     
5.79914         MSG_UDP              iDivisorNMEA    $SDDPT,1.83,0.00,*71
 
5.80928         MSG_UDP              iDivisorNMEA    $MXPGN,00FF00,280B,0002000005049913*19
 
5.81943         MSG_UDP              iDivisorNMEA    !AIVDO,1,1,,,B:UOH3P007>VtCLf>aKACwiUoP06,0*0A
 
5.82957         MSG_UDP              iDivisorNMEA    $HCHDG,284.9,0.0,E,23.3,W*65
 
5.83972         MSG_UDP              iDivisorNMEA    $GPHDT,261.63,T*05
 
5.84986         MSG_UDP              iDivisorNMEA    $TIROT,1.39,A*00
 
5.86004         MSG_UDP              iDivisorNMEA    $MXPGN,01F803,281C,000000000000DC08*6B
 
5.87019         MSG_UDP              iDivisorNMEA    $MXPGN,01F804,281C,00000057C8C1DC08*67
 
5.88035         MSG_UDP              iDivisorNMEA    $AGRSA,-0.96,A,,V*6D
 
5.88041         ANGULO_LEME          iDivisorNMEA    -0.96000     
5.91193         MSG_UDP              iDivisorNMEA    $GPGGA,133635.000,2254.75351,S,04309.53879,W,1,12,0.70,14.54,M,-5.60,M,,*46
 
5.91284         MSG_UDP              iDivisorNMEA    $GPGLL,2254.75351,S,04309.53879,W,133635.000,A,A*5D
 
5.92304         MSG_UDP              iDivisorNMEA    $GPRMC,133635.000,A,2254.75351,S,04309.53879,W,0.09,0.00,070323,23.30,W,A*1D
 
5.93327         MSG_UDP              iDivisorNMEA    $GPVTG,0.00,T,,M,0.09,N,0.16,K,A*33
 
5.94344         MSG_UDP              iDivisorNMEA    $HCHDG,284.9,0.0,E,23.3,W*65
 
5.95356         MSG_UDP              iDivisorNMEA    $GPHDT,261.61,T*07
 
5.96391         MSG_UDP              iDivisorNMEA    $TIROT,1.39,A*00
 
5.97406         MSG_UDP              iDivisorNMEA    $GPGSA,A,3,08,10,16,18,21,23,26,27,,,,,2.02,1.70,1.70*06
 
5.98425         MSG_UDP              iDivisorNMEA    $GPGSV,2,1,08,08,39,237,44,10,39,153,34,16,10,314,44,18,18,071,37*7F
 
5.99441         MSG_UDP              iDivisorNMEA    $GPGSV,2,2,08,21,10,223,00,23,15,126,00,26,02,349,43,27,62,284,48*7C
 
6.00462         MSG_UDP              iDivisorNMEA    $MXPGN,01FA06,681C,8600AF00C8080F00*10
 
6.01480         MSG_UDP              iDivisorNMEA    $MXPGN,01FA06,681C,008600AF00240001*12
 
6.02494         MSG_UDP              iDivisorNMEA    $MXPGN,01FA06,681C,FFFFFFFFFF015702*1D
 
6.03513         MSG_UDP              iDivisorNMEA    $MXPGN,01F803,281C,0000000000000008*6C
 
6.04531         MSG_UDP              iDivisorNMEA    $MXPGN,01F804,281C,00000057C8C10008*60
 
6.05547         MSG_UDP              iDivisorNMEA    $GPGGA,133636.000,2254.75330,S,04309.53829,W,1,08,1.70,1.04,M,-5.00,M,,*7A
 
6.06568         MSG_UDP              iDivisorNMEA    $GPGLL,2254.75330,S,04309.53829,W,133636.000,A,A*5C
 
6.07586         MSG_UDP              iDivisorNMEA    $GPRMC,133636.000,A,2254.75330,S,04309.53829,W,0.01,92.89,070323,23.39,W,A*27
 
6.08606         MSG_UDP              iDivisorNMEA    $GPVTG,92.89,T,,M,0.01,N,0.01,K,A*07
 
6.09624         MSG_UDP              iDivisorNMEA    $AGRSA,-0.96,A,,V*6D
 
6.09627         ANGULO_LEME          iDivisorNMEA    -0.96000     
6.10642         MSG_UDP              iDivisorNMEA    $HCHDG,284.9,0.0,E,23.3,W*65
 
6.11659         MSG_UDP              iDivisorNMEA    $GPHDT,261.61,T*07
 
6.12677         MSG_UDP              iDivisorNMEA    $TIROT,1.39,A*00
 
6.13695         MSG_UDP              iDivisorNMEA    $MXPGN,00FF00,280B,0002000005049913*19
 
6.14713         MSG_UDP              iDivisorNMEA    $MXPGN,01F803,281C,000000000000280A*1F
 
6.15725         MSG_UDP              iDivisorNMEA    $MXPGN,01F804,281C,00000057C8C1280A*13
 
6.16764         MSG_UDP              iDivisorNMEA    $AGRSA,-0.96,A,,V*6D
 
6.16769         ANGULO_LEME          iDivisorNMEA    -0.96000     
6.17784         MSG_UDP              iDivisorNMEA    $MXPGN,00FF28,3808,FF08FFFDFC059F41*19
 
6.18805         MSG_UDP              iDivisorNMEA    $HCHDG,284.9,0.0,E,23.3,W*65
 
6.41801         MSG_UDP              iDivisorNMEA    $MXPGN,00FF19,7808,0080000A0A009F41*1D
 
6.44397         MSG_UDP              iDivisorNMEA    $MXPGN,01F803,281C,000000000000780E*1E
 
6.44407         MSG_UDP              iDivisorNMEA    $MXPGN,01F804,281C,00000088EDC1780E*6A
 
6.46105         MSG_UDP              iDivisorNMEA    $GPGGA,,2254.75619,S,04309.53859,W,1,,,,M,,M,,*52
 
6.46537         MSG_UDP              iDivisorNMEA    $GPGLL,2254.75619,S,04309.53859,W,,A,A*49
 
6.47562         MSG_UDP              iDivisorNMEA    $GPVTG,334.80,T,,M,0.00,N,0.00,K,A*31
 
6.48586         MSG_UDP              iDivisorNMEA    $AGRSA,-0.90,A,,V*6B
 
6.48597         ANGULO_LEME          iDivisorNMEA    -0.90000     
6.49613         MSG_UDP              iDivisorNMEA    $MXPGN,00FF8C,6808,FFF10695C9409F41*64
 
6.51103         MSG_UDP              iDivisorNMEA    $HCHDG,284.9,0.0,E,23.3,W*65
 
6.51741         MSG_UDP              iDivisorNMEA    $GPHDT,261.58,T*0D
 
6.52766         MSG_UDP              iDivisorNMEA    $TIROT,1.69,A*05
 
6.54395         MSG_UDP              iDivisorNMEA    $MXPGN,01F803,281C,0000000000008C0F*69
 
6.54823         MSG_UDP              iDivisorNMEA    $MXPGN,01F804,281C,00000088EDC18C0F*1D
 
6.55845         MSG_UDP              iDivisorNMEA    $GPGSA,A,3,08,10,16,18,21,27,28,31,32,66,65,86,1.30,1.10,1.10*05
 
6.56886         MSG_UDP              iDivisorNMEA    $GPGSV,3,1,12,08,40,238,34,10,39,153,27,16,11,316,43,18,19,071,35*76
 
6.57916         MSG_UDP              iDivisorNMEA    $GPGSV,3,2,12,21,10,224,20,27,63,285,26,28,18,027,37,31,13,018,43*78
 
6.58945         MSG_UDP              iDivisorNMEA    $GPGSV,3,3,12,32,77,100,41,66,15,313,43,65,62,266,41,86,30,049,42*7B
 
6.59971         MSG_UDP              iDivisorNMEA    $MXPGN,01FF0D,780B,FF030000989005E0*13
 
6.60994         MSG_UDP              iDivisorNMEA    $MXPGN,00FF00,280B,0002000005049913*19
 
6.62016         MSG_UDP              iDivisorNMEA    $MXPGN,01FF1A,680B,FF022B849F410560*6A
 
6.63040         MSG_UDP              iDivisorNMEA    $AGRSA,-0.90,A,,V*6B
 
6.63050         ANGULO_LEME          iDivisorNMEA    -0.90000     
6.64070         MSG_UDP              iDivisorNMEA    $GPZDA,133635.720,07,03,2023,,*55
 
6.65104         MSG_UDP              iDivisorNMEA    $MXPGN,01FF1A,782B,FF010B049F4105C0*15
 
6.66137         MSG_UDP              iDivisorNMEA    $HCHDG,284.9,0.0,E,23.3,W*65
 
6.67201         MSG_UDP              iDivisorNMEA    $GPHDT,261.58,T*0D
 
6.68221         MSG_UDP              iDivisorNMEA    $TIROT,1.69,A*05
 
6.69242         MSG_UDP              iDivisorNMEA    $MXPGN,01F803,281C,0000000000008C0F*69
 
6.70270         MSG_UDP              iDivisorNMEA    $MXPGN,01F804,281C,0000002F2DC18C0F*1E
 
6.71303         MSG_UDP              iDivisorNMEA    $AGRSA,-0.96,A,,V*6D
 
6.71313         ANGULO_LEME          iDivisorNMEA    -0.96000     
6.72336         MSG_UDP              iDivisorNMEA    $HCHDG,284.9,0.0,E,23.3,W*65
 
6.73364         MSG_UDP              iDivisorNMEA    $GPHDT,261.58,T*0D
 
6.74395         MSG_UDP              iDivisorNMEA    $TIROT,1.69,A*05
 
6.75428         MSG_UDP              iDivisorNMEA    $MXPGN,01F803,281C,0000000000008C0F*69
 
6.76457         MSG_UDP              iDivisorNMEA    $MXPGN,01F804,281C,0000002F2DC18C0F*1E
 
6.77488         MSG_UDP              iDivisorNMEA    $AGRSA,-0.96,A,,V*6D
 
6.77499         ANGULO_LEME          iDivisorNMEA    -0.96000     
6.78523         MSG_UDP              iDivisorNMEA    $SDDPT,1.77,0.00,*7A
 
6.79555         MSG_UDP              iDivisorNMEA    $MXPGN,01FF1A,782B,FFFAFF859F4105E0*6E
 
6.80581         MSG_UDP              iDivisorNMEA    $MXPGN,00FF00,280B,0002000005049913*19
 
6.81616         MSG_UDP              iDivisorNMEA    $HCHDG,284.9,0.0,E,23.3,W*65
 
6.82650         MSG_UDP              iDivisorNMEA    $GPHDT,261.58,T*0D
 
6.83682         MSG_UDP              iDivisorNMEA    $TIROT,1.59,A*06
 
6.84717         MSG_UDP              iDivisorNMEA    $MXPGN,01F803,281C,000000000000C812*1C
 
6.85745         MSG_UDP              iDivisorNMEA    $MXPGN,01F804,281C,000000E5E9C1C812*65
 
6.86774         MSG_UDP              iDivisorNMEA    $AGRSA,-0.96,A,,V*6D
 
6.86783         ANGULO_LEME          iDivisorNMEA    -0.96000     
6.91208         MSG_UDP              iDivisorNMEA    $GPGGA,133636.000,2254.75360,S,04309.53883,W,1,12,0.70,14.61,M,-5.60,M,,*44
 
6.91402         MSG_UDP              iDivisorNMEA    $GPGLL,2254.75360,S,04309.53883,W,133636.000,A,A*59
 
6.92329         MSG_UDP              iDivisorNMEA    $GPRMC,133636.000,A,2254.75360,S,04309.53883,W,0.19,240.29,070323,23.30,W,A*15
 
6.93362         MSG_UDP              iDivisorNMEA    $GPVTG,240.29,T,,M,0.19,N,0.35,K,A*3E
 
6.94389         MSG_UDP              iDivisorNMEA    $HCHDG,284.9,0.0,E,23.3,W*65
 
6.95416         MSG_UDP              iDivisorNMEA    $GPHDT,261.58,T*0D
 
6.96440         MSG_UDP              iDivisorNMEA    $TIROT,1.79,A*04
 
6.97472         MSG_UDP              iDivisorNMEA    $GPGSA,A,3,08,10,16,18,21,23,26,27,,,,,2.02,1.70,1.70*06
 
6.98494         MSG_UDP              iDivisorNMEA    $GPGSV,2,1,08,08,39,237,44,10,39,153,34,16,10,314,44,18,18,071,37*7F
 
6.99516         MSG_UDP              iDivisorNMEA    $GPGSV,2,2,08,21,10,223,00,23,15,126,00,26,02,349,43,27,62,284,48*7C
 
7.00537         MSG_UDP              iDivisorNMEA    $MXPGN,01FA06,681C,8600AF00C8120F20*19
 
7.01557         MSG_UDP              iDivisorNMEA    $MXPGN,01FA06,681C,008600AF00240021*10
 
7.02577         MSG_UDP              iDivisorNMEA    $MXPGN,01FA06,681C,FFFFFFFFFF015722*1F
 
7.03597         MSG_UDP              iDivisorNMEA    $MXPGN,01F803,281C,0000000000000012*67
 
7.04617         MSG_UDP              iDivisorNMEA    $MXPGN,01F804,281C,000000E5E9C10012*1E
 
7.05637         MSG_UDP              iDivisorNMEA    $GPGGA,133637.000,2254.75330,S,04309.53829,W,1,08,1.70,1.04,M,-5.00,M,,*7B
 
7.06663         MSG_UDP              iDivisorNMEA    $GPGLL,2254.75330,S,04309.53829,W,133637.000,A,A*5D
 
7.07688         MSG_UDP              iDivisorNMEA    $GPRMC,133637.000,A,2254.75330,S,04309.53829,W,0.00,69.19,070323,23.39,W,A*2A
 
7.08716         MSG_UDP              iDivisorNMEA    $GPVTG,69.19,T,,M,0.00,N,0.00,K,A*0A
 
7.09735         MSG_UDP              iDivisorNMEA    $AGRSA,-0.96,A,,V*6D
 
7.09742         ANGULO_LEME          iDivisorNMEA    -0.96000     
7.34308         MSG_UDP              iDivisorNMEA    $MXPGN,01F803,281C,0000000000006417*60
 
7.34405         MSG_UDP              iDivisorNMEA    $MXPGN,01F804,281C,0000009FCCC16417*6A
 
7.36003         MSG_UDP              iDivisorNMEA    $AGRSA,-0.90,A,,V*6B
 
7.36012         ANGULO_LEME          iDivisorNMEA    -0.90000     
7.37205         MSG_UDP              iDivisorNMEA    $MXPGN,00FF16,7808,FF0000002B0A9F41*1B
 
7.39293         MSG_UDP              iDivisorNMEA    $MXPGN,00FF19,7808,0000000202009F41*15
 
7.41123         MSG_UDP              iDivisorNMEA    $HCHDG,284.8,0.0,E,23.3,W*64
 
7.41135         MSG_UDP              iDivisorNMEA    $GPHDT,261.53,T*06
 
7.42159         MSG_UDP              iDivisorNMEA    $TIROT,1.59,A*06
 
7.43187         MSG_UDP              iDivisorNMEA    $MXPGN,00FF19,7808,0080000A0A009F41*1D
 
7.44427         MSG_UDP              iDivisorNMEA    $MXPGN,01F803,281C,0000000000007818*62
 
7.45257         MSG_UDP              iDivisorNMEA    $MXPGN,01F804,281C,0000009FCCC17818*68
 
7.46286         MSG_UDP              iDivisorNMEA    $GPGGA,,2254.75619,S,04309.53859,W,1,,,,M,,M,,*52
 
7.47318         MSG_UDP              iDivisorNMEA    $GPGLL,2254.75619,S,04309.53859,W,,A,A*49
 
7.48348         MSG_UDP              iDivisorNMEA    $GPVTG,334.80,T,,M,0.00,N,0.00,K,A*31
 
7.49376         MSG_UDP              iDivisorNMEA    $AGRSA,-0.96,A,,V*6D
 
7.49385         ANGULO_LEME          iDivisorNMEA    -0.96000     
7.50402         MSG_UDP              iDivisorNMEA    $MXPGN,00FF8C,6808,FFF10695C9409F41*64
 
7.51430         MSG_UDP              iDivisorNMEA    $HCHDG,284.8,0.0,E,23.3,W*64
 
7.52455         MSG_UDP              iDivisorNMEA    $GPHDT,261.53,T*06
 
7.53481         MSG_UDP              iDivisorNMEA    $TIROT,1.59,A*06
 
7.54508         MSG_UDP              iDivisorNMEA    $MXPGN,00FF00,280B,0002000005049913*19
 
7.55536         MSG_UDP              iDivisorNMEA    $MXPGN,01FF1A,680B,FF022B849F410580*64
 
7.56561         MSG_UDP              iDivisorNMEA    $MXPGN,01FF1A,782B,FF010B049F4105E0*13
 
7.57587         MSG_UDP              iDivisorNMEA    $MXPGN,01F803,281C,0000000000008C19*17
 
7.58612         MSG_UDP              iDivisorNMEA    $MXPGN,01F804,281C,0000009FCCC18C19*1D
 
7.59632         MSG_UDP              iDivisorNMEA    $AGRSA,-0.96,A,,V*6D
 
7.59639         ANGULO_LEME          iDivisorNMEA    -0.96000     
7.60656         MSG_UDP              iDivisorNMEA    $GPZDA,133636.720,07,03,2023,,*56
 
7.61684         MSG_UDP              iDivisorNMEA    $GPGSA,A,3,08,10,16,18,21,27,28,31,32,66,65,86,1.30,1.10,1.10*05
 
7.62720         MSG_UDP              iDivisorNMEA    $GPGSV,3,1,12,08,40,238,34,10,39,153,27,16,11,316,43,18,18,071,35*77
 
7.63754         MSG_UDP              iDivisorNMEA    $GPGSV,3,2,12,21,10,224,19,27,63,285,27,28,18,027,37,31,13,018,43*73
 
7.64788         MSG_UDP              iDivisorNMEA    $GPGSV,3,3,12,32,77,100,41,66,15,313,44,65,62,266,41,86,30,049,41*7F
 
7.65837         MSG_UDP              iDivisorNMEA    $MXPGN,01FF0D,780B,FF03000098900500*66
 
7.66876         MSG_UDP              iDivisorNMEA    $HCHDG,284.8,0.0,E,23.3,W*64
 
7.67904         MSG_UDP              iDivisorNMEA    $GPHDT,261.54,T*01
 
7.68931         MSG_UDP              iDivisorNMEA    $TIROT,1.59,A*06
 
7.69954         MSG_UDP              iDivisorNMEA    $MXPGN,01F803,281C,000000000000A01A*65
 
7.70975         MSG_UDP              iDivisorNMEA    $MXPGN,01F804,281C,000000F2B9C1A01A*1F
 
7.71997         MSG_UDP              iDivisorNMEA    $AGRSA,-0.96,A,,V*6D
 
7.72004         ANGULO_LEME          iDivisorNMEA    -0.96000     
7.73020         MSG_UDP              iDivisorNMEA    $HCHDG,284.8,0.0,E,23.3,W*64
 
7.74041         MSG_UDP              iDivisorNMEA    $GPHDT,261.54,T*01
 
7.75070         MSG_UDP              iDivisorNMEA    $TIROT,1.69,A*05
 
7.76096         MSG_UDP              iDivisorNMEA    $MXPGN,01F803,281C,000000000000B41B*61
 
7.77126         MSG_UDP              iDivisorNMEA    $MXPGN,01F804,281C,000000F2B9C1B41B*1B
 
7.78152         MSG_UDP              iDivisorNMEA    !AIVDM,1,1,,A,3:U8l=PP10LrM59jrSO01c960Pw0,0*23
 
7.79176         MSG_UDP              iDivisorNMEA    $AGRSA,-0.96,A,,V*6D
 
7.79187         ANGULO_LEME          iDivisorNMEA    -0.96000     
7.80203         MSG_UDP              iDivisorNMEA    $SDDPT,1.77,0.00,*7A
 
7.81230         MSG_UDP              iDivisorNMEA    $MXPGN,00FF00,280B,0002000005049913*19
 
7.82314         MSG_UDP              iDivisorNMEA    !AIVDO,1,1,,,B:UOH3P00G>VtDLf>a3ACwjUoP06,0*06
 
7.83330         MSG_UDP              iDivisorNMEA    $HCHDG,284.8,0.0,E,23.3,W*64
 
7.84356         MSG_UDP              iDivisorNMEA    $GPHDT,261.54,T*01
 
7.85423         MSG_UDP              iDivisorNMEA    $TIROT,1.69,A*05
 
7.86444         MSG_UDP              iDivisorNMEA    $MXPGN,01F803,281C,000000000000C81C*6D
 
7.87465         MSG_UDP              iDivisorNMEA    $MXPGN,01F804,281C,0000008010C1C81C*11
 
7.88486         MSG_UDP              iDivisorNMEA    $AGRSA,-0.90,A,,V*6B
 
7.88492         ANGULO_LEME          iDivisorNMEA    -0.90000     
7.91241         MSG_UDP              iDivisorNMEA    $GPGGA,133637.000,2254.75359,S,04309.53874,W,1,12,0.70,14.74,M,-5.60,M,,*43
 
7.91408         MSG_UDP              iDivisorNMEA    $GPGLL,2254.75359,S,04309.53874,W,133637.000,A,A*5A
 
7.92337         MSG_UDP              iDivisorNMEA    $GPRMC,133637.000,A,2254.75359,S,04309.53874,W,0.19,0.00,070323,23.30,W,A*1B
 
7.93365         MSG_UDP              iDivisorNMEA    $GPVTG,0.00,T,,M,0.19,N,0.35,K,A*33
 
7.94391         MSG_UDP              iDivisorNMEA    $HCHDG,284.8,0.0,E,23.3,W*64
 
7.95418         MSG_UDP              iDivisorNMEA    $GPHDT,261.54,T*01
 
7.96447         MSG_UDP              iDivisorNMEA    $TIROT,1.89,A*0B
 
7.97471         MSG_UDP              iDivisorNMEA    $GPGSA,A,3,08,10,16,18,21,23,26,27,,,,,2.02,1.70,1.70*06
 
7.98496         MSG_UDP              iDivisorNMEA    $GPGSV,2,1,08,08,39,237,44,10,39,153,33,16,10,314,44,18,18,071,37*78
 
7.99521         MSG_UDP              iDivisorNMEA    $GPGSV,2,2,08,21,10,223,00,23,15,126,00,26,02,349,43,27,62,284,48*7C
 
8.00549         MSG_UDP              iDivisorNMEA    $MXPGN,01FA06,681C,8600AF00C81C0F40*6E
 
8.21114         MSG_UDP              iDivisorNMEA    $HCHDG,284.8,0.0,E,23.3,W*64
 
8.21130         MSG_UDP              iDivisorNMEA    $GPHDT,261.54,T*01
 
8.22154         MSG_UDP              iDivisorNMEA    $TIROT,1.99,A*0A
 
8.24420         MSG_UDP              iDivisorNMEA    $MXPGN,01F803,281C,0000000000005020*63
 
8.24430         MSG_UDP              iDivisorNMEA    $MXPGN,01F804,281C,000000144FC15020*61
 
8.26011         MSG_UDP              iDivisorNMEA    $AGRSA,-0.96,A,,V*6D
 
8.26027         ANGULO_LEME          iDivisorNMEA    -0.96000     
8.26801         MSG_UDP              iDivisorNMEA    $MXPGN,00FF3C,3808,8000F8FE00009F41*1C
 
8.27629         MSG_UDP              iDivisorNMEA    $MXPGN,00FF00,280B,0002000005049913*19
 
8.31134         MSG_UDP              iDivisorNMEA    $HCHDG,284.9,0.0,E,23.3,W*65
 
8.31148         MSG_UDP              iDivisorNMEA    $GPHDT,261.55,T*00
 
8.32173         MSG_UDP              iDivisorNMEA    $TIROT,1.89,A*0B
 
8.34335         MSG_UDP              iDivisorNMEA    $MXPGN,01F803,281C,0000000000006421*65
 
8.34398         MSG_UDP              iDivisorNMEA    $MXPGN,01F804,281C,00000060BFC16421*12
 
8.36017         MSG_UDP              iDivisorNMEA    $AGRSA,-0.96,A,,V*6D
 
8.36027         ANGULO_LEME          iDivisorNMEA    -0.96000     
8.37215         MSG_UDP              iDivisorNMEA    $MXPGN,00FF16,7808,FF0000002B0A9F41*1B
 
8.39309         MSG_UDP              iDivisorNMEA    $MXPGN,00FF19,7808,0000000202009F41*15
 
8.41118         MSG_UDP              iDivisorNMEA    $HCHDG,284.9,0.0,E,23.3,W*65
 
8.41136         MSG_UDP              iDivisorNMEA    $GPHDT,261.55,T*00
 
8.42164         MSG_UDP              iDivisorNMEA    $TIROT,1.89,A*0B
 
8.43190         MSG_UDP              iDivisorNMEA    $MXPGN,00FF19,7808,0080000A0A009F41*1D
 
8.44417         MSG_UDP              iDivisorNMEA    $MXPGN,01F803,281C,0000000000007822*6B
 
8.45245         MSG_UDP              iDivisorNMEA    $MXPGN,01F804,281C,00000060BFC17822*1C
 
8.46271         MSG_UDP              iDivisorNMEA    $GPGGA,,2254.75689,S,04309.53829,W,1,,,,M,,M,,*5C
 
8.47300         MSG_UDP              iDivisorNMEA    $GPGLL,2254.75689,S,04309.53829,W,,A,A*47
 
8.48325         MSG_UDP              iDivisorNMEA    $GPVTG,334.80,T,,M,0.10,N,0.18,K,A*39
 
8.49344         MSG_UDP              iDivisorNMEA    $AGRSA,-0.90,A,,V*6B
 
8.49350         ANGULO_LEME          iDivisorNMEA    -0.90000     
8.50371         MSG_UDP              iDivisorNMEA    $MXPGN,00FF8C,6808,FFF10695C9409F41*64
 
8.51396         MSG_UDP              iDivisorNMEA    $HCHDG,284.9,0.0,E,23.3,W*65
 
8.52424         MSG_UDP              iDivisorNMEA    $GPHDT,261.55,T*00
 
8.53450         MSG_UDP              iDivisorNMEA    $TIROT,1.89,A*0B
 
8.54476         MSG_UDP              iDivisorNMEA    $MXPGN,00FF00,280B,0002000005049913*19
 
8.55507         MSG_UDP              iDivisorNMEA    $MXPGN,01FF1A,680B,FF022B849F4105A0*1D
 
8.56533         MSG_UDP              iDivisorNMEA    $MXPGN,01FF1A,782B,FF010B049F410500*66
 
8.57553         MSG_UDP              iDivisorNMEA    $MXPGN,01F803,281C,0000000000008C23*1E
 
8.58588         MSG_UDP              iDivisorNMEA    $MXPGN,01F804,281C,00000060BFC18C23*69
 
8.59619         MSG_UDP              iDivisorNMEA    $AGRSA,-0.90,A,,V*6B
 
8.59629         ANGULO_LEME          iDivisorNMEA    -0.90000     
8.60654         MSG_UDP              iDivisorNMEA    $GPZDA,133637.720,07,03,2023,,*57
 
8.61703         MSG_UDP              iDivisorNMEA    !AIVDM,1,1,,A,1:U8Qv0tQktrNLqjqTC=6rHv0<2r,0*6B
 
8.62728         MSG_UDP              iDivisorNMEA    $GPGSA,A,3,08,10,16,18,21,27,28,31,32,66,65,86,1.30,1.10,1.10*05
 
8.63762         MSG_UDP              iDivisorNMEA    $GPGSV,3,1,12,08,40,238,33,10,39,153,28,16,11,316,43,18,18,071,35*7F
 
8.64797         MSG_UDP              iDivisorNMEA    $GPGSV,3,2,12,21,10,224,18,27,63,285,28,28,18,027,37,31,13,018,43*7D
 
8.65837         MSG_UDP              iDivisorNMEA    $GPGSV,3,3,12,32,77,100,41,66,15,313,44,65,62,266,41,86,30,049,42*7C
 
8.66875         MSG_UDP              iDivisorNMEA    $MXPGN,01FF0D,780B,FF03000098900520*64
 
8.67911         MSG_UDP              iDivisorNMEA    $HCHDG,284.8,0.0,E,23.3,W*64
 
8.68939         MSG_UDP              iDivisorNMEA    $GPHDT,261.54,T*01
 
8.69971         MSG_UDP              iDivisorNMEA    $TIROT,1.89,A*0B
 
8.70994         MSG_UDP              iDivisorNMEA    $MXPGN,01F803,281C,000000000000A024*13
 
8.72025         MSG_UDP              iDivisorNMEA    $MXPGN,01F804,281C,000000E263C1A024*14
 
8.73048         MSG_UDP              iDivisorNMEA    $AGRSA,-0.96,A,,V*6D
 
8.73054         ANGULO_LEME          iDivisorNMEA    -0.96000     
8.74075         MSG_UDP              iDivisorNMEA    $HCHDG,284.8,0.0,E,23.3,W*64
 
8.75105         MSG_UDP              iDivisorNMEA    $GPHDT,261.53,T*06
 
8.76133         MSG_UDP              iDivisorNMEA    $TIROT,1.59,A*06
 
8.77164         MSG_UDP              iDivisorNMEA    $MXPGN,01F803,281C,000000000000B425*15
 
8.78189         MSG_UDP              iDivisorNMEA    $MXPGN,01F804,281C,000000E263C1B425*12
 
8.79212         MSG_UDP              iDivisorNMEA    $AGRSA,-0.96,A,,V*6D
 
8.79217         ANGULO_LEME          iDivisorNMEA    -0.96000     
8.80233         MSG_UDP              iDivisorNMEA    $SDDPT,1.80,0.00,*72
 
8.81250         MSG_UDP              iDivisorNMEA    $MXPGN,00FF00,280B,0002000005049913*19
 
8.82290         MSG_UDP              iDivisorNMEA    $HCHDG,284.8,0.0,E,23.3,W*64
 
8.83324         MSG_UDP              iDivisorNMEA    $GPHDT,261.51,T*04
 
8.84345         MSG_UDP              iDivisorNMEA    $TIROT,1.59,A*06
 
8.85369         MSG_UDP              iDivisorNMEA    $MXPGN,01F803,281C,000000000000C826*1B
 
8.86399         MSG_UDP              iDivisorNMEA    $MXPGN,01F804,281C,0000005BC5C1C826*6F
 
8.87473         MSG_UDP              iDivisorNMEA    $AGRSA,-0.90,A,,V*6B
 
8.87479         ANGULO_LEME          iDivisorNMEA    -0.90000     
8.91228         MSG_UDP              iDivisorNMEA    $GPGGA,133638.000,2254.75373,S,04309.53879,W,1,12,0.70,14.61,M,-5.60,M,,*4D
 
9.11143         MSG_UDP              iDivisorNMEA    $HCHDG,284.8,0.0,E,23.3,W*64
 
9.11154         MSG_UDP              iDivisorNMEA    $GPHDT,261.51,T*04
 
9.12179         MSG_UDP              iDivisorNMEA    $TIROT,1.49,A*07
 
9.14328         MSG_UDP              iDivisorNMEA    $MXPGN,01F803,281C,0000000000003C29*1F
 
9.14416         MSG_UDP              iDivisorNMEA    $MXPGN,01F804,281C,0000006473C13C29*6C
 
9.16105         MSG_UDP              iDivisorNMEA    $AGRSA,-0.96,A,,V*6D
 
9.16115         ANGULO_LEME          iDivisorNMEA    -0.96000     
9.16822         MSG_UDP              iDivisorNMEA    $MXPGN,01FF2C,7808,FFFFFFFF9F411760*6D
 
9.17650         MSG_UDP              iDivisorNMEA    $MXPGN,01FF2C,7808,FFFF7FFFFFFF7F61*10
 
9.18676         MSG_UDP              iDivisorNMEA    $MXPGN,01FF2C,7808,FF7FFFFFFFFFFF62*62
 
9.19724         MSG_UDP              iDivisorNMEA    $MXPGN,01FF2C,7808,FFFFFFFF7FFFFF63*63
 
9.20754         MSG_UDP              iDivisorNMEA    $MXPGN,00FF3D,6808,7FFFFF0DFFFF9F41*6E
 
9.21784         MSG_UDP              iDivisorNMEA    $HCHDG,284.8,0.0,E,23.3,W*64
 
9.22811         MSG_UDP              iDivisorNMEA    $GPHDT,261.52,T*07
 
9.23836         MSG_UDP              iDivisorNMEA    $TIROT,1.49,A*07
 
9.24863         MSG_UDP              iDivisorNMEA    $MXPGN,01F803,281C,000000000000502A*12
 
