%%%%%%%%%%%%%%%%%%%%%%%%%%%%%%%%%%%%%%%%%%%%%%%%%%%%%%%%%%%
%% LOG FILE:       /home/moos-ivp-douglas/log/teste_7_3_2023_____10_19_43/teste_7_3_2023_____10_19_43.alog
%% FILE OPENED ON  Wed Dec 31 21:00:00 1969
%% LOGSTART           1678195182.566924
%%%%%%%%%%%%%%%%%%%%%%%%%%%%%%%%%%%%%%%%%%%%%%%%%%%%%%%%%%%
-0.03965        MOOS_DEBUG           pHelmIvP        pHelmIvP AllStop: ManualOverride 
-0.03965        DESIRED_SPEED        pHelmIvP        0.00000      
-0.03965        DESIRED_HEADING      pHelmIvP        0.00000      
0.16080         DESIRED_RUDDER       pMarinePIDV22   0.00000      
0.16081         DESIRED_THRUST       pMarinePIDV22   0.00000      
0.65988         ANGULO_LEME          iDivisorNMEA    -0.84000     
0.75140         MSG_UDP              iDivisorNMEA    $TIROT,-0.09,A*2F
 
0.76157         MSG_UDP              iDivisorNMEA    $MXPGN,00FF00,280B,0002000005049913*19
 
0.77173         MSG_UDP              iDivisorNMEA    $AGRSA,-0.84,A,,V*6E
 
0.77175         ANGULO_LEME          iDivisorNMEA    -0.84000     
0.78189         MSG_UDP              iDivisorNMEA    $MXPGN,01F803,281C,00000000000014AA*61
 
0.79211         MSG_UDP              iDivisorNMEA    $MXPGN,01F804,281C,000000D44FC114AA*16
 
0.80228         MSG_UDP              iDivisorNMEA    $HCHDG,284.5,0.0,E,23.3,W*69
 
0.81247         MSG_UDP              iDivisorNMEA    $GPHDT,261.17,T*06
 
0.82266         MSG_UDP              iDivisorNMEA    $TIROT,0.00,A*0B
 
0.83283         MSG_UDP              iDivisorNMEA    $MXPGN,00FF28,3808,FF08FFFDFC059F41*19
 
0.84299         MSG_UDP              iDivisorNMEA    $AGRSA,-0.84,A,,V*6E
 
0.84304         ANGULO_LEME          iDivisorNMEA    -0.84000     
0.85319         MSG_UDP              iDivisorNMEA    $MXPGN,01F803,281C,0000000000003CAC*16
 
0.86335         MSG_UDP              iDivisorNMEA    $MXPGN,01F804,281C,000000C2B1C13CAC*61
 
0.87353         MSG_UDP              iDivisorNMEA    $HCHDG,284.5,0.0,E,23.3,W*69
 
0.88370         MSG_UDP              iDivisorNMEA    $GPHDT,261.17,T*06
 
0.89389         MSG_UDP              iDivisorNMEA    $TIROT,0.00,A*0B
 
0.90408         MSG_UDP              iDivisorNMEA    $MXPGN,01FF2C,7808,FFFFFFFF9F411760*6D
 
0.91424         MSG_UDP              iDivisorNMEA    $MXPGN,01FF2C,7808,FFFF7FFFFFFF7F61*10
 
0.92445         MSG_UDP              iDivisorNMEA    $MXPGN,01FF2C,7808,FF7FFFFFFFFFFF62*62
 
0.93462         MSG_UDP              iDivisorNMEA    $MXPGN,01FF2C,7808,FFFFFFFF7FFFFF63*63
 
0.94477         MSG_UDP              iDivisorNMEA    $MXPGN,00FF3D,6808,7FFFFF0DFFFF9F41*6E
 
1.22926         MSG_UDP              iDivisorNMEA    $HCHDG,284.5,0.0,E,23.3,W*69
 
1.23009         MSG_UDP              iDivisorNMEA    $GPHDT,261.18,T*09
 
1.23946         MSG_UDP              iDivisorNMEA    $TIROT,0.29,A*00
 
1.24965         MSG_UDP              iDivisorNMEA    !AIVDM,1,1,,A,1:U6vLPP00trHfQjpdr<OgwF2@IW,0*48
 
1.27910         MSG_UDP              iDivisorNMEA    $AGRSA,-0.84,A,,V*6E
 
1.27916         ANGULO_LEME          iDivisorNMEA    -0.84000     
1.28327         MSG_UDP              iDivisorNMEA    $MXPGN,01F803,281C,000000000000A0B1*66
 
1.28945         MSG_UDP              iDivisorNMEA    $MXPGN,01F804,281C,0000003F56C1A0B1*65
 
1.32918         MSG_UDP              iDivisorNMEA    $HCHDG,284.5,0.0,E,23.3,W*69
 
1.33010         MSG_UDP              iDivisorNMEA    $GPHDT,261.18,T*09
 
1.34024         MSG_UDP              iDivisorNMEA    $TIROT,0.19,A*03
 
1.38128         MSG_UDP              iDivisorNMEA    $GPGGA,131943.000,2254.75249,S,04309.53787,W,1,12,0.90,9.30,M,-5.60,M,,*7C
 
1.38224         MSG_UDP              iDivisorNMEA    $GPGLL,2254.75249,S,04309.53787,W,131943.000,A,A*57
 
1.39239         MSG_UDP              iDivisorNMEA    $GPRMC,131943.000,A,2254.75249,S,04309.53787,W,0.29,287.59,070323,23.30,W,A*14
 
1.40257         MSG_UDP              iDivisorNMEA    $GPVTG,287.59,T,,M,0.29,N,0.53,K,A*31
 
1.41272         MSG_UDP              iDivisorNMEA    $AGRSA,-0.84,A,,V*6E
 
1.41277         ANGULO_LEME          iDivisorNMEA    -0.84000     
1.42290         MSG_UDP              iDivisorNMEA    $SDDPT,1.76,0.00,*7B
 
1.43311         MSG_UDP              iDivisorNMEA    $MXPGN,01F803,281C,000000000000B4B2*62
 
1.44329         MSG_UDP              iDivisorNMEA    $MXPGN,01F804,281C,0000003F56C1B4B2*61
 
1.45347         MSG_UDP              iDivisorNMEA    $MXPGN,00FF00,280B,0002000005049913*19
 
1.46366         MSG_UDP              iDivisorNMEA    $HCHDG,284.5,0.0,E,23.3,W*69
 
1.47387         MSG_UDP              iDivisorNMEA    $GPHDT,261.20,T*02
 
1.48411         MSG_UDP              iDivisorNMEA    $TIROT,0.19,A*03
 
1.49427         MSG_UDP              iDivisorNMEA    $AGRSA,-0.84,A,,V*6E
 
1.49434         ANGULO_LEME          iDivisorNMEA    -0.84000     
1.50454         MSG_UDP              iDivisorNMEA    $MXPGN,01F803,281C,000000000000B4B2*62
 
1.51474         MSG_UDP              iDivisorNMEA    $MXPGN,01F804,281C,0000003F56C1B4B2*61
 
1.52489         MSG_UDP              iDivisorNMEA    $GPGSA,A,3,08,10,16,18,26,27,28,31,32,66,65,86,1.60,1.40,1.40*07
 
1.53507         MSG_UDP              iDivisorNMEA    $GPGSV,3,1,12,08,35,230,36,10,44,161,29,16,15,309,40,18,22,078,34*72
 
1.54525         MSG_UDP              iDivisorNMEA    $GPGSV,3,2,12,26,05,344,37,27,63,264,44,28,13,022,45,31,09,013,38*76
 
1.55545         MSG_UDP              iDivisorNMEA    $GPGSV,3,3,12,32,77,054,46,66,09,319,43,65,59,287,39,86,36,059,43*75
 
1.56564         MSG_UDP              iDivisorNMEA    $HCHDG,284.5,0.0,E,23.3,W*69
 
1.57581         MSG_UDP              iDivisorNMEA    $GPHDT,261.18,T*09
 
1.58595         MSG_UDP              iDivisorNMEA    $TIROT,0.39,A*01
 
1.59611         MSG_UDP              iDivisorNMEA    $GPGSA,A,3,08,10,16,18,21,23,24,26,27,,,,1.88,1.60,1.60*01
 
1.60631         MSG_UDP              iDivisorNMEA    $GPGSV,3,1,09,08,34,230,45,10,43,161,40,16,14,308,41,18,22,078,44*73
 
1.61649         MSG_UDP              iDivisorNMEA    $GPGSV,3,2,09,21,04,227,00,23,19,132,00,24,01,125,00,26,04,343,40*79
 
1.62671         MSG_UDP              iDivisorNMEA    $GPGSV,3,3,09,27,63,264,49*4D
 
1.63687         MSG_UDP              iDivisorNMEA    $GPGGA,131944.000,2254.75309,S,04309.53829,W,1,09,1.60,0.85,M,-5.00,M,,*70
 
1.64700         MSG_UDP              iDivisorNMEA    $GPGLL,2254.75309,S,04309.53829,W,131944.000,A,A*5E
 
1.65717         MSG_UDP              iDivisorNMEA    $GPRMC,131944.000,A,2254.75309,S,04309.53829,W,0.03,92.89,070323,23.39,W,A*27
 
1.66736         MSG_UDP              iDivisorNMEA    $GPVTG,92.89,T,,M,0.03,N,0.05,K,A*01
 
1.67750         MSG_UDP              iDivisorNMEA    $AGRSA,-0.84,A,,V*6E
 
1.67754         ANGULO_LEME          iDivisorNMEA    -0.84000     
1.68770         MSG_UDP              iDivisorNMEA    $MXPGN,01FA06,681C,8300AA00C8B30F80*63
 
1.69786         MSG_UDP              iDivisorNMEA    $MXPGN,01FA06,681C,008400A9EFCA0081*60
 
1.70802         MSG_UDP              iDivisorNMEA    $MXPGN,01FA06,681C,FFFFFFFFFF014482*17
 
1.71819         MSG_UDP              iDivisorNMEA    $MXPGN,01F803,281C,00000000000000B3*15
 
1.72838         MSG_UDP              iDivisorNMEA    $MXPGN,01F804,281C,0000004F14C100B3*17
 
1.73855         MSG_UDP              iDivisorNMEA    $MXPGN,01FF1A,680B,FF022B849F4105A0*1D
 
1.74883         MSG_UDP              iDivisorNMEA    $MXPGN,01FF1A,782B,FF010B049F410540*62
 
1.75903         MSG_UDP              iDivisorNMEA    $HCHDG,284.5,0.0,E,23.3,W*69
 
1.76919         MSG_UDP              iDivisorNMEA    $GPHDT,261.18,T*09
 
1.77935         MSG_UDP              iDivisorNMEA    $TIROT,0.39,A*01
 
1.78948         MSG_UDP              iDivisorNMEA    $MXPGN,00FF00,280B,0002000005049913*19
 
1.79970         MSG_UDP              iDivisorNMEA    $AGRSA,-0.84,A,,V*6E
 
1.79973         ANGULO_LEME          iDivisorNMEA    -0.84000     
1.80988         MSG_UDP              iDivisorNMEA    $MXPGN,01F803,281C,00000000000014B4*17
 
1.82007         MSG_UDP              iDivisorNMEA    $MXPGN,01F804,281C,0000004F14C114B4*15
 
1.83028         MSG_UDP              iDivisorNMEA    !AIVDM,1,1,,B,1:U8U8PP13LrJWijqm7If?wp0`Iq,0*58
 
1.84047         MSG_UDP              iDivisorNMEA    $HCHDG,284.5,0.0,E,23.3,W*69
 
1.85068         MSG_UDP              iDivisorNMEA    $GPHDT,261.18,T*09
 
1.86085         MSG_UDP              iDivisorNMEA    $TIROT,0.39,A*01
 
1.87101         MSG_UDP              iDivisorNMEA    $MXPGN,00FF28,3808,FF08FFFDFC059F41*19
 
1.88118         MSG_UDP              iDivisorNMEA    $AGRSA,-0.84,A,,V*6E
 
1.88120         ANGULO_LEME          iDivisorNMEA    -0.84000     
1.89134         MSG_UDP              iDivisorNMEA    $MXPGN,01F803,281C,0000000000003CB6*60
 
1.90153         MSG_UDP              iDivisorNMEA    $MXPGN,01F804,281C,0000009DBDC13CB6*6E
 
1.91169         MSG_UDP              iDivisorNMEA    $HCHDG,284.5,0.0,E,23.3,W*69
 
2.12946         MSG_UDP              iDivisorNMEA    $HCHDG,284.5,0.0,E,23.3,W*69
 
2.13027         MSG_UDP              iDivisorNMEA    $GPHDT,261.15,T*04
 
2.13979         MSG_UDP              iDivisorNMEA    $TIROT,0.19,A*03
 
2.15011         MSG_UDP              iDivisorNMEA    !AIVDO,1,1,,,B:UOH3P01G>VtBLf>cFgswn5oP06,0*04
 
2.16034         MSG_UDP              iDivisorNMEA    $MXPGN,00FF00,280B,0002000005049913*19
 
2.17064         MSG_UDP              iDivisorNMEA    $MXPGN,00FF8C,6808,FFF10695C9409F41*64
 
2.18086         MSG_UDP              iDivisorNMEA    $AGRSA,-0.84,A,,V*6E
 
2.18095         ANGULO_LEME          iDivisorNMEA    -0.84000     
2.19119         MSG_UDP              iDivisorNMEA    $GPZDA,131944.320,07,03,2023,,*5A
 
2.20145         MSG_UDP              iDivisorNMEA    $MXPGN,01F803,281C,0000000000008CBA*1C
 
2.21170         MSG_UDP              iDivisorNMEA    $MXPGN,01F804,281C,000000D438C18CBA*12
 
2.22939         MSG_UDP              iDivisorNMEA    $HCHDG,284.5,0.0,E,23.3,W*69
 
2.23272         MSG_UDP              iDivisorNMEA    $GPHDT,261.15,T*04
 
2.24304         MSG_UDP              iDivisorNMEA    $TIROT,0.19,A*03
 
2.27923         MSG_UDP              iDivisorNMEA    $AGRSA,-0.84,A,,V*6E
 
2.27934         ANGULO_LEME          iDivisorNMEA    -0.84000     
2.28355         MSG_UDP              iDivisorNMEA    $MXPGN,01F803,281C,000000FFFDA8A0BB*6E
 
2.28983         MSG_UDP              iDivisorNMEA    $MXPGN,01F804,281C,000000DC24C1A0BB*61
 
2.32922         MSG_UDP              iDivisorNMEA    $HCHDG,284.5,0.0,E,23.3,W*69
 
2.33030         MSG_UDP              iDivisorNMEA    $GPHDT,261.15,T*04
 
2.33957         MSG_UDP              iDivisorNMEA    $TIROT,0.19,A*03
 
2.38137         MSG_UDP              iDivisorNMEA    $GPGGA,131944.000,2254.75246,S,04309.53806,W,1,12,0.90,9.43,M,-5.60,M,,*76
 
2.38234         MSG_UDP              iDivisorNMEA    $GPGLL,2254.75246,S,04309.53806,W,131944.000,A,A*59
 
2.39262         MSG_UDP              iDivisorNMEA    $GPRMC,131944.000,A,2254.75246,S,04309.53806,W,0.09,0.00,070323,23.30,W,A*19
 
2.40297         MSG_UDP              iDivisorNMEA    $GPVTG,0.00,T,,M,0.09,N,0.16,K,A*33
 
2.41326         MSG_UDP              iDivisorNMEA    $AGRSA,-0.84,A,,V*6E
 
2.41332         ANGULO_LEME          iDivisorNMEA    -0.84000     
2.42354         MSG_UDP              iDivisorNMEA    $SDDPT,1.77,0.00,*7A
 
2.43380         MSG_UDP              iDivisorNMEA    $MXPGN,01F803,281C,000000FFFDA8B4BC*68
 
2.44410         MSG_UDP              iDivisorNMEA    $MXPGN,01F804,281C,000000DC24C1B4BC*67
 
2.45447         MSG_UDP              iDivisorNMEA    $MXPGN,00FF00,280B,0002000005049913*19
 
2.46477         MSG_UDP              iDivisorNMEA    $HCHDG,284.5,0.0,E,23.3,W*69
 
2.47504         MSG_UDP              iDivisorNMEA    $GPHDT,261.15,T*04
 
2.48528         MSG_UDP              iDivisorNMEA    $TIROT,0.19,A*03
 
2.49552         MSG_UDP              iDivisorNMEA    $AGRSA,-0.84,A,,V*6E
 
2.49558         ANGULO_LEME          iDivisorNMEA    -0.84000     
2.50579         MSG_UDP              iDivisorNMEA    $MXPGN,01F803,281C,000000FFFDA8B4BC*68
 
2.51610         MSG_UDP              iDivisorNMEA    $MXPGN,01F804,281C,000000DC24C1B4BC*67
 
2.52639         MSG_UDP              iDivisorNMEA    $GPGSA,A,3,08,10,16,18,26,27,28,31,32,66,65,86,1.60,1.40,1.40*07
 
2.53687         MSG_UDP              iDivisorNMEA    $GPGSV,3,1,12,08,35,230,36,10,44,161,29,16,15,309,40,18,22,078,34*72
 
2.54735         MSG_UDP              iDivisorNMEA    $GPGSV,3,2,12,26,05,344,37,27,63,264,44,28,13,022,45,31,09,013,38*76
 
2.55769         MSG_UDP              iDivisorNMEA    $GPGSV,3,3,12,32,77,054,46,66,09,319,42,65,59,287,39,86,36,059,43*74
 
2.56821         MSG_UDP              iDivisorNMEA    $HCHDG,284.5,0.0,E,23.3,W*69
 
2.57840         MSG_UDP              iDivisorNMEA    $GPHDT,261.16,T*07
 
2.58881         MSG_UDP              iDivisorNMEA    $TIROT,0.49,A*06
 
2.59899         MSG_UDP              iDivisorNMEA    $GPGGA,131945.000,2254.75319,S,04309.53829,W,1,09,1.60,0.85,M,-5.00,M,,*70
 
2.60918         MSG_UDP              iDivisorNMEA    $GPGLL,2254.75319,S,04309.53829,W,131945.000,A,A*5E
 
2.61935         MSG_UDP              iDivisorNMEA    $GPRMC,131945.000,A,2254.75319,S,04309.53829,W,0.00,322.89,070323,23.39,W,A*1C
 
2.62953         MSG_UDP              iDivisorNMEA    $GPVTG,322.89,T,,M,0.00,N,0.00,K,A*3F
 
2.63991         MSG_UDP              iDivisorNMEA    $AGRSA,-0.84,A,,V*6E
 
2.63993         ANGULO_LEME          iDivisorNMEA    -0.84000     
2.65022         MSG_UDP              iDivisorNMEA    $GPGSA,A,3,08,10,16,18,21,23,24,26,27,,,,1.88,1.60,1.60*01
 
2.66052         MSG_UDP              iDivisorNMEA    $GPGSV,3,1,09,08,34,230,45,10,43,161,40,16,14,308,41,18,22,078,44*73
 
2.67081         MSG_UDP              iDivisorNMEA    $GPGSV,3,2,09,21,04,227,00,23,19,132,00,24,01,125,00,26,04,343,40*79
 
2.68095         MSG_UDP              iDivisorNMEA    $GPGSV,3,3,09,27,63,264,49*4D
 
2.69115         MSG_UDP              iDivisorNMEA    $MXPGN,01FA06,681C,8300AA00C8BD0FA0*6D
 
2.70140         MSG_UDP              iDivisorNMEA    $MXPGN,01FA06,681C,008400A9EFCA00A1*19
 
2.71165         MSG_UDP              iDivisorNMEA    $MXPGN,01FA06,681C,FFFFFFFFFF0144A2*6E
 
2.72189         MSG_UDP              iDivisorNMEA    $MXPGN,01F803,281C,00000000000000BD*62
 
2.73210         MSG_UDP              iDivisorNMEA    $MXPGN,01F804,281C,0000004F6BC100BD*11
 
2.74231         MSG_UDP              iDivisorNMEA    $MXPGN,01FF1A,680B,FF022B849F4105C0*1F
 
2.75255         MSG_UDP              iDivisorNMEA    $MXPGN,01FF1A,782B,FF010B049F410560*60
 
2.76286         MSG_UDP              iDivisorNMEA    $HCHDG,284.5,0.0,E,23.3,W*69
 
2.77308         MSG_UDP              iDivisorNMEA    $GPHDT,261.16,T*07
 
2.78329         MSG_UDP              iDivisorNMEA    $TIROT,0.49,A*06
 
2.79356         MSG_UDP              iDivisorNMEA    $MXPGN,00FF00,280B,0002000005049913*19
 
2.80382         MSG_UDP              iDivisorNMEA    $AGRSA,-0.84,A,,V*6E
 
2.80390         ANGULO_LEME          iDivisorNMEA    -0.84000     
2.81411         MSG_UDP              iDivisorNMEA    $MXPGN,01F803,281C,00000000000014BE*66
 
2.82439         MSG_UDP              iDivisorNMEA    $MXPGN,01F804,281C,0000004F6BC114BE*15
 
3.02937         MSG_UDP              iDivisorNMEA    $HCHDG,284.5,0.0,E,23.3,W*69
 
3.03027         MSG_UDP              iDivisorNMEA    $GPHDT,261.18,T*09
 
3.04059         MSG_UDP              iDivisorNMEA    $TIROT,0.49,A*06
 
3.05122         MSG_UDP              iDivisorNMEA    $MXPGN,00FF16,7808,FF0000002B0A9F41*1B
 
3.06634         MSG_UDP              iDivisorNMEA    $MXPGN,01FF0D,780B,FF03000098900580*6E
 
3.07221         MSG_UDP              iDivisorNMEA    $MXPGN,00FF19,7808,0000000202009F41*15
 
3.08248         MSG_UDP              iDivisorNMEA    $GPGGA,,2254.75309,S,04309.53899,W,1,,,,M,,M,,*5A
 
3.09305         MSG_UDP              iDivisorNMEA    $GPGLL,2254.75309,S,04309.53899,W,,A,A*41
 
3.10336         MSG_UDP              iDivisorNMEA    $GPVTG,281.40,T,,M,0.50,N,0.92,K,A*3C
 
3.11365         MSG_UDP              iDivisorNMEA    $AGRSA,-0.84,A,,V*6E
 
3.11372         ANGULO_LEME          iDivisorNMEA    -0.84000     
3.12387         MSG_UDP              iDivisorNMEA    $MXPGN,01F803,281C,00000000000078C3*1B
 
3.13409         MSG_UDP              iDivisorNMEA    $MXPGN,01F804,281C,0000005C61C178C3*1F
 
3.14434         MSG_UDP              iDivisorNMEA    $MXPGN,00FF19,7808,0080000A0A009F41*1D
 
3.15509         MSG_UDP              iDivisorNMEA    $HCHDG,284.5,0.0,E,23.3,W*69
 
3.16534         MSG_UDP              iDivisorNMEA    $GPHDT,261.18,T*09
 
3.17565         MSG_UDP              iDivisorNMEA    $TIROT,0.69,A*04
 
3.18588         MSG_UDP              iDivisorNMEA    $MXPGN,00FF00,280B,0002000005049913*19
 
3.19613         MSG_UDP              iDivisorNMEA    $MXPGN,00FF8C,6808,FFF10695C9409F41*64
 
3.20641         MSG_UDP              iDivisorNMEA    $AGRSA,-0.84,A,,V*6E
 
3.20649         ANGULO_LEME          iDivisorNMEA    -0.84000     
3.21671         MSG_UDP              iDivisorNMEA    $GPZDA,131945.320,07,03,2023,,*5B
 
3.22696         MSG_UDP              iDivisorNMEA    $MXPGN,01F803,281C,0000000000008CC4*68
 
3.23723         MSG_UDP              iDivisorNMEA    $MXPGN,01F804,281C,0000005C61C18CC4*6C
 
3.24756         MSG_UDP              iDivisorNMEA    $HCHDG,284.5,0.0,E,23.3,W*69
 
3.25786         MSG_UDP              iDivisorNMEA    $GPHDT,261.20,T*02
 
3.26811         MSG_UDP              iDivisorNMEA    $TIROT,0.69,A*04
 
3.27931         MSG_UDP              iDivisorNMEA    $AGRSA,-0.84,A,,V*6E
 
3.27939         ANGULO_LEME          iDivisorNMEA    -0.84000     
3.28862         MSG_UDP              iDivisorNMEA    $MXPGN,01F803,281C,0000000000008CC4*68
 
3.29892         MSG_UDP              iDivisorNMEA    $MXPGN,01F804,281C,000000E01EC18CC4*1C
 
3.33025         MSG_UDP              iDivisorNMEA    $HCHDG,284.5,0.0,E,23.3,W*69
 
3.33037         MSG_UDP              iDivisorNMEA    $GPHDT,261.20,T*02
 
3.34069         MSG_UDP              iDivisorNMEA    $TIROT,0.69,A*04
 
3.38140         MSG_UDP              iDivisorNMEA    $GPGGA,131945.000,2254.75241,S,04309.53818,W,1,12,0.90,9.69,M,-5.60,M,,*77
 
3.38233         MSG_UDP              iDivisorNMEA    $GPGLL,2254.75241,S,04309.53818,W,131945.000,A,A*50
 
3.39262         MSG_UDP              iDivisorNMEA    $GPRMC,131945.000,A,2254.75241,S,04309.53818,W,0.09,0.00,070323,23.30,W,A*10
 
3.40294         MSG_UDP              iDivisorNMEA    $GPVTG,0.00,T,,M,0.09,N,0.16,K,A*33
 
3.41327         MSG_UDP              iDivisorNMEA    $AGRSA,-0.84,A,,V*6E
 
3.41337         ANGULO_LEME          iDivisorNMEA    -0.84000     
3.42360         MSG_UDP              iDivisorNMEA    $SDDPT,1.76,0.00,*7B
 
3.43392         MSG_UDP              iDivisorNMEA    !AIVDM,2,1,3,A,5:U8vhT2CPbM1G;WK21E20<u84j222222222221J1q86=76<0<4RCp11H2PC,0*3D
 
3.44418         MSG_UDP              iDivisorNMEA    !AIVDM,2,2,3,A,QBDSp888880,2*6B
 
3.45448         MSG_UDP              iDivisorNMEA    $MXPGN,01F803,281C,0000000000008CC4*68
 
3.46474         MSG_UDP              iDivisorNMEA    $MXPGN,01F804,281C,000000E01EC18CC4*1C
 
3.47505         MSG_UDP              iDivisorNMEA    $MXPGN,00FF00,280B,0002000005049913*19
 
3.48533         MSG_UDP              iDivisorNMEA    $MXPGN,01FF1A,782B,FFFAFF859F410580*13
 
3.49563         MSG_UDP              iDivisorNMEA    $HCHDG,284.5,0.0,E,23.3,W*69
 
3.50612         MSG_UDP              iDivisorNMEA    $GPHDT,261.20,T*02
 
3.51640         MSG_UDP              iDivisorNMEA    $TIROT,0.89,A*0A
 
3.52661         MSG_UDP              iDivisorNMEA    $AGRSA,-0.84,A,,V*6E
 
3.52669         ANGULO_LEME          iDivisorNMEA    -0.84000     
3.53685         MSG_UDP              iDivisorNMEA    $MXPGN,01F803,281C,000000000000B4C6*67
 
3.54722         MSG_UDP              iDivisorNMEA    $MXPGN,01F804,281C,000000E01EC1B4C6*13
 
3.55749         MSG_UDP              iDivisorNMEA    $GPGSA,A,3,08,10,16,18,26,27,28,31,32,66,65,86,1.60,1.40,1.40*07
 
3.56780         MSG_UDP              iDivisorNMEA    $GPGSV,3,1,12,08,35,230,37,10,44,161,29,16,15,309,40,18,22,078,34*73
 
3.57804         MSG_UDP              iDivisorNMEA    $GPGSV,3,2,12,26,05,344,37,27,63,264,44,28,13,022,45,31,09,013,38*76
 
3.58833         MSG_UDP              iDivisorNMEA    $GPGSV,3,3,12,32,77,054,46,66,09,319,43,65,59,287,39,86,36,059,43*75
 
3.59854         MSG_UDP              iDivisorNMEA    $HCHDG,284.5,0.0,E,23.3,W*69
 
3.60882         MSG_UDP              iDivisorNMEA    $GPHDT,261.20,T*02
 
3.61907         MSG_UDP              iDivisorNMEA    $TIROT,0.69,A*04
 
3.62928         MSG_UDP              iDivisorNMEA    $GPGSA,A,3,08,10,16,18,21,23,24,26,27,,,,1.88,1.60,1.60*01
 
3.63957         MSG_UDP              iDivisorNMEA    $GPGSV,3,1,09,08,34,230,45,10,43,161,40,16,14,308,41,18,22,078,44*73
 
3.64985         MSG_UDP              iDivisorNMEA    $GPGSV,3,2,09,21,04,227,00,23,19,132,00,24,01,125,00,26,04,343,40*79
 
3.66075         MSG_UDP              iDivisorNMEA    $GPGSV,3,3,09,27,63,264,49*4D
 
3.67106         MSG_UDP              iDivisorNMEA    $MXPGN,01FA06,681C,8300AA00C8C70FC0*1D
 
3.68134         MSG_UDP              iDivisorNMEA    $MXPGN,01FA06,681C,008400A9EFCA00C1*1B
 
3.69164         MSG_UDP              iDivisorNMEA    $MXPGN,01FA06,681C,FFFFFFFFFF0144C2*6C
 
3.70194         MSG_UDP              iDivisorNMEA    $GPGGA,131946.000,2254.75319,S,04309.53829,W,1,09,1.60,0.85,M,-5.00,M,,*73
 
3.89727         MSG_UDP              iDivisorNMEA    $MXPGN,00FF3D,6808,0000FF0BFFFF9F41*19
 
3.92326         MSG_UDP              iDivisorNMEA    $MXPGN,00FF3D,6808,FFFFFF0CFFFF9F41*18
 
3.93031         MSG_UDP              iDivisorNMEA    $HCHDG,284.5,0.0,E,23.3,W*69
 
3.93361         MSG_UDP              iDivisorNMEA    $GPHDT,261.20,T*02
 
3.94383         MSG_UDP              iDivisorNMEA    $TIROT,0.59,A*07
 
3.95412         MSG_UDP              iDivisorNMEA    $MXPGN,00FF3D,6808,FFFFFF03FFFF9F41*68
 
3.96437         MSG_UDP              iDivisorNMEA    $MXPGN,00FF3C,3808,8000F8FE00009F41*1C
 
3.97463         MSG_UDP              iDivisorNMEA    $MXPGN,00FF3D,6808,FFFFFF02FFFF9F41*69
 
3.98481         MSG_UDP              iDivisorNMEA    $AGRSA,-0.84,A,,V*6E
 
3.98486         ANGULO_LEME          iDivisorNMEA    -0.84000     
3.99501         MSG_UDP              iDivisorNMEA    $MXPGN,01F803,281C,00000000000064CC*66
 
4.00524         MSG_UDP              iDivisorNMEA    $MXPGN,01F804,281C,FFFF9D5AEDC164CC*1B
 
4.03030         MSG_UDP              iDivisorNMEA    $HCHDG,284.5,0.0,E,23.3,W*69
 
4.03043         MSG_UDP              iDivisorNMEA    $GPHDT,261.20,T*02
 
4.04071         MSG_UDP              iDivisorNMEA    $TIROT,0.59,A*07
 
4.05122         MSG_UDP              iDivisorNMEA    $MXPGN,00FF16,7808,FF0000002B0A9F41*1B
 
4.06229         MSG_UDP              iDivisorNMEA    !AIVDM,1,1,,B,1:U8vhSwP0LrNMqjsGmpu1up0t2F,0*67
 
4.07254         MSG_UDP              iDivisorNMEA    $MXPGN,00FF19,7808,0000000202009F41*15
 
4.08284         MSG_UDP              iDivisorNMEA    $GPGGA,,2254.75309,S,04309.53899,W,1,,,,M,,M,,*5A
 
4.09313         MSG_UDP              iDivisorNMEA    $GPGLL,2254.75309,S,04309.53899,W,,A,A*41
 
4.10337         MSG_UDP              iDivisorNMEA    $GPVTG,281.40,T,,M,0.50,N,0.92,K,A*3C
 
4.11358         MSG_UDP              iDivisorNMEA    $AGRSA,-0.84,A,,V*6E
 
4.11363         ANGULO_LEME          iDivisorNMEA    -0.84000     
4.12377         MSG_UDP              iDivisorNMEA    $MXPGN,01F803,281C,00000000000078CD*6C
 
4.13395         MSG_UDP              iDivisorNMEA    $MXPGN,01F804,281C,FFFF9D7DC7C178CD*63
 
4.14414         MSG_UDP              iDivisorNMEA    $MXPGN,00FF19,7808,0080000A0A009F41*1D
 
4.15434         MSG_UDP              iDivisorNMEA    $MXPGN,01FF0D,780B,FF030000989005A0*17
 
4.16472         MSG_UDP              iDivisorNMEA    $HCHDG,284.5,0.0,E,23.3,W*69
 
4.17493         MSG_UDP              iDivisorNMEA    $GPHDT,261.21,T*03
 
4.18513         MSG_UDP              iDivisorNMEA    $TIROT,0.69,A*04
 
4.19531         MSG_UDP              iDivisorNMEA    $MXPGN,00FF00,280B,0002000005049913*19
 
4.20555         MSG_UDP              iDivisorNMEA    $MXPGN,00FF8C,6808,FFF10695C9409F41*64
 
4.21575         MSG_UDP              iDivisorNMEA    !AIVDO,1,1,,,B:UOH3P01G>VtCLf>brgswo5oP06,0*31
 
4.22593         MSG_UDP              iDivisorNMEA    $AGRSA,-0.84,A,,V*6E
 
4.22597         ANGULO_LEME          iDivisorNMEA    -0.84000     
4.23609         MSG_UDP              iDivisorNMEA    $GPZDA,131946.320,07,03,2023,,*58
 
4.24628         MSG_UDP              iDivisorNMEA    $MXPGN,01F803,281C,0000000000008CCE*19
 
4.25648         MSG_UDP              iDivisorNMEA    $MXPGN,01F804,281C,FFFF9D7DC7C18CCE*16
 
4.26668         MSG_UDP              iDivisorNMEA    $HCHDG,284.5,0.0,E,23.3,W*69
 
4.27682         MSG_UDP              iDivisorNMEA    $GPHDT,261.22,T*00
 
4.28702         MSG_UDP              iDivisorNMEA    $TIROT,0.69,A*04
 
4.29721         MSG_UDP              iDivisorNMEA    $AGRSA,-0.84,A,,V*6E
 
4.29727         ANGULO_LEME          iDivisorNMEA    -0.84000     
4.30743         MSG_UDP              iDivisorNMEA    $MXPGN,01F803,281C,0000000000008CCE*19
 
4.31761         MSG_UDP              iDivisorNMEA    $MXPGN,01F804,281C,FFFF9D7AAFC18CCE*60
 
4.33013         MSG_UDP              iDivisorNMEA    $HCHDG,284.5,0.0,E,23.3,W*69
 
4.33831         MSG_UDP              iDivisorNMEA    $GPHDT,261.22,T*00
 
4.34848         MSG_UDP              iDivisorNMEA    $TIROT,0.69,A*04
 
4.38115         MSG_UDP              iDivisorNMEA    $GPGGA,131946.000,2254.75244,S,04309.53815,W,1,12,0.90,9.76,M,-5.60,M,,*72
 
4.38210         MSG_UDP              iDivisorNMEA    $GPGLL,2254.75244,S,04309.53815,W,131946.000,A,A*5B
 
4.39224         MSG_UDP              iDivisorNMEA    $GPRMC,131946.000,A,2254.75244,S,04309.53815,W,0.09,0.00,070323,23.30,W,A*1B
 
4.40242         MSG_UDP              iDivisorNMEA    $GPVTG,0.00,T,,M,0.09,N,0.16,K,A*33
 
4.41255         MSG_UDP              iDivisorNMEA    $AGRSA,-0.84,A,,V*6E
 
4.41262         ANGULO_LEME          iDivisorNMEA    -0.84000     
4.42272         MSG_UDP              iDivisorNMEA    $SDDPT,1.79,0.00,*74
 
4.43285         MSG_UDP              iDivisorNMEA    $MXPGN,01F803,281C,000000000000A0CF*10
 
4.44299         MSG_UDP              iDivisorNMEA    $MXPGN,01F804,281C,FFFF9D7AAFC1A0CF*69
 
4.45317         MSG_UDP              iDivisorNMEA    $MXPGN,00FF00,280B,0002000005049913*19
 
4.46338         MSG_UDP              iDivisorNMEA    $HCHDG,284.5,0.0,E,23.3,W*69
 
4.47350         MSG_UDP              iDivisorNMEA    $GPHDT,261.23,T*01
 
4.48366         MSG_UDP              iDivisorNMEA    $TIROT,0.69,A*04
 
4.49386         MSG_UDP              iDivisorNMEA    $AGRSA,-0.84,A,,V*6E
 
4.49389         ANGULO_LEME          iDivisorNMEA    -0.84000     
4.50403         MSG_UDP              iDivisorNMEA    $MXPGN,01F803,281C,000000000000A0CF*10
 
4.51418         MSG_UDP              iDivisorNMEA    $MXPGN,01F804,281C,FFFF9D7AAFC1A0CF*69
 
4.52431         MSG_UDP              iDivisorNMEA    $GPGSA,A,3,08,10,16,18,26,27,28,31,32,66,65,86,1.60,1.40,1.40*07
 
4.53445         MSG_UDP              iDivisorNMEA    $GPGSV,3,1,12,08,35,230,37,10,44,161,29,16,15,309,40,18,22,078,34*73
 
4.54461         MSG_UDP              iDivisorNMEA    $GPGSV,3,2,12,26,05,344,37,27,63,264,44,28,13,022,45,31,09,013,38*76
 
4.55477         MSG_UDP              iDivisorNMEA    $GPGSV,3,3,12,32,77,054,46,66,09,319,43,65,59,287,39,86,36,059,43*75
 
4.56495         MSG_UDP              iDivisorNMEA    $HCHDG,284.5,0.0,E,23.3,W*69
 
4.83040         MSG_UDP              iDivisorNMEA    $HCHDG,284.6,0.0,E,23.3,W*6A
 
4.83063         MSG_UDP              iDivisorNMEA    $GPHDT,261.25,T*07
 
4.84130         MSG_UDP              iDivisorNMEA    $TIROT,0.69,A*04
 
4.85158         MSG_UDP              iDivisorNMEA    $MXPGN,01FF2C,7808,FFFFFFFF9F4117E0*1E
 
4.86182         MSG_UDP              iDivisorNMEA    $MXPGN,01FF2C,7808,FFFF7FFFFFFF7FE1*63
 
4.87209         MSG_UDP              iDivisorNMEA    $MXPGN,01FF2C,7808,FF7FFFFFFFFFFFE2*11
 
4.88231         MSG_UDP              iDivisorNMEA    $MXPGN,01FF2C,7808,FFFFFFFF7FFFFFE3*10
 
4.89244         MSG_UDP              iDivisorNMEA    $MXPGN,00FF3D,6808,7FFFFF0DFFFF9F41*6E
 
4.90256         MSG_UDP              iDivisorNMEA    $AGRSA,-0.84,A,,V*6E
 
4.90258         ANGULO_LEME          iDivisorNMEA    -0.84000     
4.91268         MSG_UDP              iDivisorNMEA    $MXPGN,01F803,281C,0000000000003CD3*63
 
4.92282         MSG_UDP              iDivisorNMEA    $MXPGN,01F804,281C,000000253EC13CD3*67
 
4.93297         MSG_UDP              iDivisorNMEA    $MXPGN,00FF00,280B,0002000005049913*19
 
4.94313         MSG_UDP              iDivisorNMEA    $HCHDG,284.6,0.0,E,23.3,W*6A
 
4.95329         MSG_UDP              iDivisorNMEA    $GPHDT,261.25,T*07
 
4.96347         MSG_UDP              iDivisorNMEA    $TIROT,0.79,A*05
 
4.97363         MSG_UDP              iDivisorNMEA    !AIVDM,1,1,,B,3:U8SuQ2@0LrB7qjs1ecAEeJ0P00,0*2B
 
4.98380         MSG_UDP              iDivisorNMEA    $MXPGN,00FF3C,3808,8000F8FE00009F41*1C
 
4.99396         MSG_UDP              iDivisorNMEA    $AGRSA,-0.84,A,,V*6E
 
4.99401         ANGULO_LEME          iDivisorNMEA    -0.84000     
5.00414         MSG_UDP              iDivisorNMEA    $MXPGN,01F803,281C,00000000000078D6*19
 
5.01431         MSG_UDP              iDivisorNMEA    $MXPGN,01F804,281C,00000031FCC178D6*6B
 
5.02446         MSG_UDP              iDivisorNMEA    !AIVDM,1,1,,A,1:U8JFPP1RLrJdQjqG4jrwwP05a<,0*16
 
5.03463         MSG_UDP              iDivisorNMEA    $HCHDG,284.6,0.0,E,23.3,W*6A
 
5.04474         MSG_UDP              iDivisorNMEA    $GPHDT,261.28,T*0A
 
5.05491         MSG_UDP              iDivisorNMEA    $TIROT,1.09,A*03
 
5.06507         MSG_UDP              iDivisorNMEA    $MXPGN,00FF16,7808,FF0000002B0A9F41*1B
 
5.07527         MSG_UDP              iDivisorNMEA    $MXPGN,00FF19,7808,0000000202009F41*15
 
5.08544         MSG_UDP              iDivisorNMEA    $GPGGA,,2254.75379,S,04309.53879,W,1,,,,M,,M,,*53
 
5.09566         MSG_UDP              iDivisorNMEA    $GPGLL,2254.75379,S,04309.53879,W,,A,A*48
 
5.10583         MSG_UDP              iDivisorNMEA    $GPVTG,281.40,T,,M,0.50,N,0.92,K,A*3C
 
5.11603         MSG_UDP              iDivisorNMEA    $AGRSA,-0.84,A,,V*6E
 
5.11605         ANGULO_LEME          iDivisorNMEA    -0.84000     
5.12621         MSG_UDP              iDivisorNMEA    $MXPGN,01F803,281C,0000000000008DD7*6B
 
5.13639         MSG_UDP              iDivisorNMEA    $MXPGN,01F804,281C,0000004DB0C18DD7*1C
 
5.14657         MSG_UDP              iDivisorNMEA    $MXPGN,00FF19,7808,0080000A0A009F41*1D
 
5.15673         MSG_UDP              iDivisorNMEA    $HCHDG,284.6,0.0,E,23.3,W*6A
 
5.16693         MSG_UDP              iDivisorNMEA    $GPHDT,261.28,T*0A
 
5.17706         MSG_UDP              iDivisorNMEA    $TIROT,0.79,A*05
 
5.18723         MSG_UDP              iDivisorNMEA    $MXPGN,00FF00,280B,0002000005049913*19
 
5.19739         MSG_UDP              iDivisorNMEA    $MXPGN,00FF8C,6808,FFF10695C9409F41*64
 
5.20760         MSG_UDP              iDivisorNMEA    $MXPGN,01FF0D,780B,FF030000989005C0*15
 
5.21776         MSG_UDP              iDivisorNMEA    $AGRSA,-0.84,A,,V*6E
 
5.21780         ANGULO_LEME          iDivisorNMEA    -0.84000     
5.22796         MSG_UDP              iDivisorNMEA    $GPZDA,131947.320,07,03,2023,,*59
 
5.23812         MSG_UDP              iDivisorNMEA    $MXPGN,01F803,281C,000000000000A0D8*69
 
5.24833         MSG_UDP              iDivisorNMEA    $MXPGN,01F804,281C,0000004DB0C1A0D8*1E
 
5.25850         MSG_UDP              iDivisorNMEA    $HCHDG,284.6,0.0,E,23.3,W*6A
 
5.26869         MSG_UDP              iDivisorNMEA    $GPHDT,261.27,T*05
 
5.27889         MSG_UDP              iDivisorNMEA    $TIROT,0.79,A*05
 
5.28906         MSG_UDP              iDivisorNMEA    $AGRSA,-0.84,A,,V*6E
 
5.28908         ANGULO_LEME          iDivisorNMEA    -0.84000     
5.29922         MSG_UDP              iDivisorNMEA    $MXPGN,01F803,281C,000000000000B4D9*6F
 
5.30940         MSG_UDP              iDivisorNMEA    $MXPGN,01F804,281C,00000092F9C1B4D9*6E
 
5.32325         MSG_UDP              iDivisorNMEA    !AIVDM,2,1,4,A,53P>GQH2D;B38``k@01<EHDr0=9E`DU8t000001S39q>A4bcN@k@E@H4j2D6,0*57
 
5.33054         MSG_UDP              iDivisorNMEA    !AIVDM,2,2,4,A,@DQ00000000,2*45
 
5.34071         MSG_UDP              iDivisorNMEA    $HCHDG,284.6,0.0,E,23.3,W*6A
 
5.35105         MSG_UDP              iDivisorNMEA    $GPHDT,261.27,T*05
 
5.36126         MSG_UDP              iDivisorNMEA    $TIROT,0.79,A*05
 
5.38135         MSG_UDP              iDivisorNMEA    $GPGGA,131947.000,2254.75241,S,04309.53830,W,1,12,0.90,9.83,M,-5.60,M,,*7B
 
5.38216         MSG_UDP              iDivisorNMEA    $GPGLL,2254.75241,S,04309.53830,W,131947.000,A,A*58
 
5.39229         MSG_UDP              iDivisorNMEA    $GPRMC,131947.000,A,2254.75241,S,04309.53830,W,0.09,0.00,070323,23.30,W,A*18
 
5.40246         MSG_UDP              iDivisorNMEA    $GPVTG,0.00,T,,M,0.09,N,0.16,K,A*33
 
5.41261         MSG_UDP              iDivisorNMEA    $AGRSA,-0.84,A,,V*6E
 
5.41265         ANGULO_LEME          iDivisorNMEA    -0.84000     
5.42276         MSG_UDP              iDivisorNMEA    $SDDPT,1.77,0.00,*7A
 
5.43291         MSG_UDP              iDivisorNMEA    $MXPGN,01F803,281C,000000000000C8DA*1A
 
5.44308         MSG_UDP              iDivisorNMEA    $MXPGN,01F804,281C,00006392F9C1C8DA*1E
 
5.45319         MSG_UDP              iDivisorNMEA    $MXPGN,00FF00,280B,0002000005049913*19
 
5.46332         MSG_UDP              iDivisorNMEA    $HCHDG,284.6,0.0,E,23.3,W*6A
 
5.68421         MSG_UDP              iDivisorNMEA    $MXPGN,01F803,281C,00000000000014DC*66
 
5.68449         MSG_UDP              iDivisorNMEA    $MXPGN,01F804,281C,000000817EC114DC*68
 
5.73028         MSG_UDP              iDivisorNMEA    $HCHDG,284.6,0.0,E,23.3,W*6A
 
5.73036         MSG_UDP              iDivisorNMEA    $GPHDT,261.29,T*0B
 
5.74055         MSG_UDP              iDivisorNMEA    $TIROT,0.59,A*07
 
5.75075         MSG_UDP              iDivisorNMEA    $MXPGN,00FF28,3808,FF08FFFDFC059F41*19
 
5.77919         MSG_UDP              iDivisorNMEA    $AGRSA,-0.84,A,,V*6E
 
5.77925         ANGULO_LEME          iDivisorNMEA    -0.84000     
5.78328         MSG_UDP              iDivisorNMEA    $MXPGN,01F803,281C,0000000000003CDE*15
 
5.78949         MSG_UDP              iDivisorNMEA    $MXPGN,01F804,281C,00000023C7C13CDE*15
 
5.83031         MSG_UDP              iDivisorNMEA    $HCHDG,284.6,0.0,E,23.3,W*6A
 
5.83051         MSG_UDP              iDivisorNMEA    $GPHDT,261.29,T*0B
 
5.84070         MSG_UDP              iDivisorNMEA    $TIROT,0.59,A*07
 
5.85102         MSG_UDP              iDivisorNMEA    $MXPGN,01FF2C,7808,FFFFFFFF9F411700*6B
 
5.86125         MSG_UDP              iDivisorNMEA    $MXPGN,01FF2C,7808,FFFF7FFFFFFF7F01*16
 
5.87143         MSG_UDP              iDivisorNMEA    $MXPGN,01FF2C,7808,FF7FFFFFFFFFFF02*64
 
5.88157         MSG_UDP              iDivisorNMEA    $MXPGN,01FF2C,7808,FFFFFFFF7FFFFF03*65
 
5.89173         MSG_UDP              iDivisorNMEA    $MXPGN,00FF3D,6808,7FFFFF0DFFFF9F41*6E
 
5.90193         MSG_UDP              iDivisorNMEA    $AGRSA,-0.84,A,,V*6E
 
5.90196         ANGULO_LEME          iDivisorNMEA    -0.84000     
5.91206         MSG_UDP              iDivisorNMEA    $MXPGN,01F803,281C,00000000000050DF*63
 
5.92224         MSG_UDP              iDivisorNMEA    $MXPGN,01F804,281C,00000023C7C150DF*63
 
5.93242         MSG_UDP              iDivisorNMEA    $MXPGN,00FF00,280B,0002000005049913*19
 
5.94256         MSG_UDP              iDivisorNMEA    $HCHDG,284.6,0.0,E,23.3,W*6A
 
5.95268         MSG_UDP              iDivisorNMEA    $GPHDT,261.29,T*0B
 
5.96282         MSG_UDP              iDivisorNMEA    $TIROT,0.39,A*01
 
5.97300         MSG_UDP              iDivisorNMEA    $MXPGN,00FF3C,3808,8000F8FE00009F41*1C
 
5.98316         MSG_UDP              iDivisorNMEA    $AGRSA,-0.84,A,,V*6E
 
5.98320         ANGULO_LEME          iDivisorNMEA    -0.84000     
5.99334         MSG_UDP              iDivisorNMEA    $MXPGN,01F803,281C,00000000000064E0*13
 
6.00353         MSG_UDP              iDivisorNMEA    $MXPGN,01F804,281C,00000023C7C164E0*13
 
6.03027         MSG_UDP              iDivisorNMEA    $HCHDG,284.6,0.0,E,23.3,W*6A
 
6.03032         MSG_UDP              iDivisorNMEA    $GPHDT,261.30,T*03
 
6.04049         MSG_UDP              iDivisorNMEA    $TIROT,0.39,A*01
 
6.05114         MSG_UDP              iDivisorNMEA    $MXPGN,00FF16,7808,FF0000002B0A9F41*1B
 
6.07215         MSG_UDP              iDivisorNMEA    $MXPGN,00FF19,7808,0000000202009F41*15
 
6.08032         MSG_UDP              iDivisorNMEA    $GPGGA,,2254.75379,S,04309.53879,W,1,,,,M,,M,,*53
 
6.08255         MSG_UDP              iDivisorNMEA    $GPGLL,2254.75379,S,04309.53879,W,,A,A*48
 
6.09273         MSG_UDP              iDivisorNMEA    $GPVTG,281.40,T,,M,0.50,N,0.92,K,A*3C
 
6.10287         MSG_UDP              iDivisorNMEA    $AGRSA,-0.84,A,,V*6E
 
6.10289         ANGULO_LEME          iDivisorNMEA    -0.84000     
6.11301         MSG_UDP              iDivisorNMEA    $MXPGN,01F803,281C,00000000025878E1*10
 
6.12317         MSG_UDP              iDivisorNMEA    $MXPGN,01F804,281C,000000137DC178E1*1B
 
6.13333         MSG_UDP              iDivisorNMEA    $MXPGN,00FF19,7808,0080000A0A009F41*1D
 
6.14349         MSG_UDP              iDivisorNMEA    $HCHDG,284.6,0.0,E,23.3,W*6A
 
6.15365         MSG_UDP              iDivisorNMEA    $GPHDT,261.30,T*03
 
6.16380         MSG_UDP              iDivisorNMEA    $TIROT,0.59,A*07
 
6.17393         MSG_UDP              iDivisorNMEA    $MXPGN,00FF00,280B,0002000005049913*19
 
6.18408         MSG_UDP              iDivisorNMEA    $MXPGN,00FF8C,6808,FFF10695C9409F41*64
 
6.19425         MSG_UDP              iDivisorNMEA    $MXPGN,01FF0D,780B,FF030000989005E0*13
 
6.20445         MSG_UDP              iDivisorNMEA    $AGRSA,-0.84,A,,V*6E
 
6.20448         ANGULO_LEME          iDivisorNMEA    -0.84000     
6.21461         MSG_UDP              iDivisorNMEA    $GPZDA,131948.320,07,03,2023,,*56
 
6.22478         MSG_UDP              iDivisorNMEA    !AIVDO,1,1,,,B:UOH3P01W>VtCLf>bRgswp5oP06,0*1E
 
6.23496         MSG_UDP              iDivisorNMEA    $MXPGN,01F803,281C,0000000000008CE2*68
 
6.24516         MSG_UDP              iDivisorNMEA    $MXPGN,01F804,281C,000000137DC18CE2*6C
 
6.25530         MSG_UDP              iDivisorNMEA    $HCHDG,284.6,0.0,E,23.3,W*6A
 
6.26549         MSG_UDP              iDivisorNMEA    $GPHDT,261.30,T*03
 
6.27564         MSG_UDP              iDivisorNMEA    $TIROT,0.59,A*07
 
6.28579         MSG_UDP              iDivisorNMEA    $AGRSA,-0.84,A,,V*6E
 
6.28582         ANGULO_LEME          iDivisorNMEA    -0.84000     
6.29595         MSG_UDP              iDivisorNMEA    $MXPGN,01F803,281C,0000000000008CE2*68
 
6.30612         MSG_UDP              iDivisorNMEA    $MXPGN,01F804,281C,000000F1E4C18CE2*1B
 
6.33031         MSG_UDP              iDivisorNMEA    $HCHDG,284.6,0.0,E,23.3,W*6A
 
6.33039         MSG_UDP              iDivisorNMEA    $GPHDT,261.30,T*03
 
6.34057         MSG_UDP              iDivisorNMEA    $TIROT,0.59,A*07
 
6.38129         MSG_UDP              iDivisorNMEA    $GPGGA,131948.000,2254.75238,S,04309.53851,W,1,12,0.90,9.63,M,-5.60,M,,*73
 
6.38235         MSG_UDP              iDivisorNMEA    $GPGLL,2254.75238,S,04309.53851,W,131948.000,A,A*5E
 
6.39252         MSG_UDP              iDivisorNMEA    $GPRMC,131948.000,A,2254.75238,S,04309.53851,W,0.19,262.69,070323,23.30,W,A*16
 
6.40272         MSG_UDP              iDivisorNMEA    $GPVTG,262.69,T,,M,0.19,N,0.35,K,A*3A
 
6.57618         MSG_UDP              iDivisorNMEA    $GPGSV,3,1,09,08,34,230,45,10,43,161,40,16,14,308,41,18,22,078,44*73
 
6.57745         MSG_UDP              iDivisorNMEA    $GPGSV,3,2,09,21,04,227,00,23,19,132,00,24,01,125,00,26,04,343,40*79
 
6.58662         MSG_UDP              iDivisorNMEA    $GPGSV,3,3,09,27,63,264,49*4D
 
6.59682         MSG_UDP              iDivisorNMEA    $MXPGN,01FA06,681C,8300AA00C8E50F20*68
 
6.60701         MSG_UDP              iDivisorNMEA    $MXPGN,01FA06,681C,008400A9EFD00021*1C
 
6.61724         MSG_UDP              iDivisorNMEA    $MXPGN,01FA06,681C,FFFFFFFFFF014422*1D
 
6.62753         MSG_UDP              iDivisorNMEA    $GPGGA,131949.000,2254.75319,S,04309.53829,W,1,09,1.60,0.85,M,-5.00,M,,*7C
 
6.63782         MSG_UDP              iDivisorNMEA    $GPGLL,2254.75319,S,04309.53829,W,131949.000,A,A*52
 
6.64815         MSG_UDP              iDivisorNMEA    $GPRMC,131949.000,A,2254.75319,S,04309.53829,W,0.00,354.79,070323,23.39,W,A*1E
 
6.65844         MSG_UDP              iDivisorNMEA    $GPVTG,354.79,T,,M,0.00,N,0.00,K,A*31
 
6.66874         MSG_UDP              iDivisorNMEA    $AGRSA,-0.84,A,,V*6E
 
6.66879         ANGULO_LEME          iDivisorNMEA    -0.84000     
6.67899         MSG_UDP              iDivisorNMEA    $MXPGN,01F803,281C,00000000000000E5*14
 
6.68925         MSG_UDP              iDivisorNMEA    $MXPGN,01F804,281C,0000004F3CC100E5*63
 
6.69952         MSG_UDP              iDivisorNMEA    $MXPGN,01FF1A,680B,FF022B849F410540*68
 
6.70976         MSG_UDP              iDivisorNMEA    $MXPGN,01FF1A,782B,FF010B049F4105E0*13
 
6.72015         MSG_UDP              iDivisorNMEA    $HCHDG,284.6,0.0,E,23.3,W*6A
 
6.73041         MSG_UDP              iDivisorNMEA    $GPHDT,261.32,T*01
 
6.74073         MSG_UDP              iDivisorNMEA    $TIROT,0.99,A*0B
 
6.75102         MSG_UDP              iDivisorNMEA    $MXPGN,00FF00,280B,0002000005049913*19
 
6.76127         MSG_UDP              iDivisorNMEA    $AGRSA,-0.84,A,,V*6E
 
6.76136         ANGULO_LEME          iDivisorNMEA    -0.84000     
6.77159         MSG_UDP              iDivisorNMEA    $MXPGN,01F803,281C,00000000000014E6*12
 
6.78189         MSG_UDP              iDivisorNMEA    $MXPGN,01F804,281C,0000004F3CC114E6*65
 
6.79221         MSG_UDP              iDivisorNMEA    $HCHDG,284.6,0.0,E,23.3,W*6A
 
6.80248         MSG_UDP              iDivisorNMEA    $GPHDT,261.31,T*02
 
6.81285         MSG_UDP              iDivisorNMEA    $TIROT,0.99,A*0B
 
6.82318         MSG_UDP              iDivisorNMEA    $MXPGN,00FF28,3808,FF08FFFDFC059F41*19
 
6.83348         MSG_UDP              iDivisorNMEA    $AGRSA,-0.84,A,,V*6E
 
6.83357         ANGULO_LEME          iDivisorNMEA    -0.84000     
6.84382         MSG_UDP              iDivisorNMEA    $MXPGN,01F803,281C,00000000000028E7*1C
 
6.85413         MSG_UDP              iDivisorNMEA    $MXPGN,01F804,281C,0000005B3DC128E7*69
 
6.86482         MSG_UDP              iDivisorNMEA    $HCHDG,284.6,0.0,E,23.3,W*6A
 
6.87516         MSG_UDP              iDivisorNMEA    $GPHDT,261.33,T*00
 
6.88549         MSG_UDP              iDivisorNMEA    $TIROT,0.99,A*0B
 
6.89581         MSG_UDP              iDivisorNMEA    $MXPGN,01FF2C,7808,FFFFFFFF9F411720*69
 
6.90612         MSG_UDP              iDivisorNMEA    $MXPGN,01FF2C,7808,FFFF7FFFFFFF7F21*14
 
6.91645         MSG_UDP              iDivisorNMEA    $MXPGN,01FF2C,7808,FF7FFFFFFFFFFF22*66
 
6.92668         MSG_UDP              iDivisorNMEA    $MXPGN,01FF2C,7808,FFFFFFFF7FFFFF23*67
 
6.93698         MSG_UDP              iDivisorNMEA    $MXPGN,00FF3D,6808,7FFFFF0DFFFF9F41*6E
 
6.94727         MSG_UDP              iDivisorNMEA    $AGRSA,-0.84,A,,V*6E
 
6.94734         ANGULO_LEME          iDivisorNMEA    -0.84000     
6.95750         MSG_UDP              iDivisorNMEA    $MXPGN,01F803,281C,00000000000050E9*1D
 
6.96775         MSG_UDP              iDivisorNMEA    $MXPGN,01F804,281C,0000005B3DC150E9*68
 
6.97803         MSG_UDP              iDivisorNMEA    $MXPGN,00FF00,280B,0002000005049913*19
 
6.98832         MSG_UDP              iDivisorNMEA    $HCHDG,284.6,0.0,E,23.3,W*6A
 
6.99861         MSG_UDP              iDivisorNMEA    $GPHDT,261.32,T*01
 
7.00892         MSG_UDP              iDivisorNMEA    $TIROT,1.19,A*02
 
7.01919         MSG_UDP              iDivisorNMEA    $MXPGN,00FF3C,3808,8000F8FE00009F41*1C
 
7.02944         MSG_UDP              iDivisorNMEA    $AGRSA,-0.84,A,,V*6E
 
7.02963         ANGULO_LEME          iDivisorNMEA    -0.84000     
7.03986         MSG_UDP              iDivisorNMEA    $MXPGN,01F803,281C,00000000000050E9*1D
 
7.05038         MSG_UDP              iDivisorNMEA    $MXPGN,01F804,281C,0000005B3DC150E9*68
 
7.06094         MSG_UDP              iDivisorNMEA    $HCHDG,284.6,0.0,E,23.3,W*6A
 
7.07110         MSG_UDP              iDivisorNMEA    $GPHDT,261.32,T*01
 
7.08123         MSG_UDP              iDivisorNMEA    $TIROT,1.19,A*02
 
7.09138         MSG_UDP              iDivisorNMEA    $MXPGN,00FF16,7808,FF0000002B0A9F41*1B
 
7.10152         MSG_UDP              iDivisorNMEA    $MXPGN,00FF19,7808,0000000202009F41*15
 
7.11168         MSG_UDP              iDivisorNMEA    $GPGGA,,2254.75449,S,04309.53859,W,1,,,,M,,M,,*55
 
7.12183         MSG_UDP              iDivisorNMEA    $GPGLL,2254.75449,S,04309.53859,W,,A,A*4E
 
7.13206         MSG_UDP              iDivisorNMEA    $GPVTG,281.40,T,,M,0.60,N,1.11,K,A*35
 
7.14230         MSG_UDP              iDivisorNMEA    $AGRSA,-0.84,A,,V*6E
 
7.14237         ANGULO_LEME          iDivisorNMEA    -0.84000     
7.15249         MSG_UDP              iDivisorNMEA    !AIVDM,1,1,,B,13a0JR0000LrT4=jrVJm?qMR0@M2,0*3A
 
7.16259         MSG_UDP              iDivisorNMEA    $MXPGN,01F803,281C,00000000000078EB*6C
 
7.17268         MSG_UDP              iDivisorNMEA    $MXPGN,01F804,281C,000000336DC178EB*6B
 
7.18285         MSG_UDP              iDivisorNMEA    $MXPGN,00FF19,7808,0080000A0A009F41*1D
 
7.19307         MSG_UDP              iDivisorNMEA    $HCHDG,284.6,0.0,E,23.3,W*6A
 
7.20324         MSG_UDP              iDivisorNMEA    $GPHDT,261.33,T*00
 
7.21335         MSG_UDP              iDivisorNMEA    $TIROT,0.99,A*0B
 
7.47930         MSG_UDP              iDivisorNMEA    $AGRSA,-0.84,A,,V*6E
 
7.47933         ANGULO_LEME          iDivisorNMEA    -0.84000     
7.48343         MSG_UDP              iDivisorNMEA    $MXPGN,01F803,281C,000000000000B4EE*12
 
7.48995         MSG_UDP              iDivisorNMEA    $MXPGN,01F804,281C,000000D6C1C1B4EE*67
 
7.51832         MSG_UDP              iDivisorNMEA    $GPGSA,A,3,08,10,16,18,26,27,28,31,32,66,65,86,1.60,1.40,1.40*07
 
7.51936         MSG_UDP              iDivisorNMEA    $GPGSV,3,1,12,08,35,230,37,10,44,161,29,16,15,309,40,18,22,078,35*72
 
7.52871         MSG_UDP              iDivisorNMEA    $GPGSV,3,2,12,26,05,344,38,27,63,264,44,28,13,022,45,31,09,013,38*79
 
7.53904         MSG_UDP              iDivisorNMEA    $GPGSV,3,3,12,32,77,054,46,66,09,319,43,65,59,287,39,86,36,059,44*72
 
7.54930         MSG_UDP              iDivisorNMEA    $HCHDG,284.6,0.0,E,23.3,W*6A
 
7.55956         MSG_UDP              iDivisorNMEA    $GPHDT,261.31,T*02
 
7.56969         MSG_UDP              iDivisorNMEA    $TIROT,0.09,A*02
 
7.57986         MSG_UDP              iDivisorNMEA    $GPGSA,A,3,08,10,16,18,21,23,24,26,27,,,,1.88,1.60,1.60*01
 
7.59011         MSG_UDP              iDivisorNMEA    $GPGSV,3,1,09,08,34,230,44,10,43,161,40,16,14,308,41,18,22,078,44*72
 
7.60037         MSG_UDP              iDivisorNMEA    $GPGSV,3,2,09,21,04,227,00,23,19,132,00,24,01,125,00,26,04,343,39*77
 
7.61061         MSG_UDP              iDivisorNMEA    $GPGSV,3,3,09,27,63,264,49*4D
 
7.62086         MSG_UDP              iDivisorNMEA    $MXPGN,01FA06,681C,8300AA00C8EF0F40*1D
 
7.63116         MSG_UDP              iDivisorNMEA    $MXPGN,01FA06,681C,008400A9EFD60041*1C
 
7.64147         MSG_UDP              iDivisorNMEA    $MXPGN,01FA06,681C,FFFFFFFFFF014442*1B
 
7.65177         MSG_UDP              iDivisorNMEA    $GPGGA,131950.000,2254.75319,S,04309.53829,W,1,09,1.60,0.85,M,-5.00,M,,*74
 
7.66204         MSG_UDP              iDivisorNMEA    $GPGLL,2254.75319,S,04309.53829,W,131950.000,A,A*5A
 
7.67233         MSG_UDP              iDivisorNMEA    $GPRMC,131950.000,A,2254.75319,S,04309.53829,W,0.00,314.99,070323,23.39,W,A*1C
 
7.68262         MSG_UDP              iDivisorNMEA    $GPVTG,314.99,T,,M,0.00,N,0.00,K,A*3B
 
7.69284         MSG_UDP              iDivisorNMEA    $AGRSA,-0.84,A,,V*6E
 
7.69293         ANGULO_LEME          iDivisorNMEA    -0.84000     
7.70311         MSG_UDP              iDivisorNMEA    $MXPGN,01FF1A,680B,FF022B849F410560*6A
 
7.71337         MSG_UDP              iDivisorNMEA    $MXPGN,01F803,281C,00000000000000EF*67
 
7.72362         MSG_UDP              iDivisorNMEA    $MXPGN,01F804,281C,0000008F9DC100EF*11
 
7.73392         MSG_UDP              iDivisorNMEA    $MXPGN,01FF1A,782B,FF010B049F410500*66
 
7.74407         MSG_UDP              iDivisorNMEA    $HCHDG,284.6,0.0,E,23.3,W*6A
 
7.75432         MSG_UDP              iDivisorNMEA    $GPHDT,261.31,T*02
 
7.76459         MSG_UDP              iDivisorNMEA    $TIROT,0.09,A*02
 
7.77476         MSG_UDP              iDivisorNMEA    $MXPGN,00FF00,280B,0002000005049913*19
 
7.78492         MSG_UDP              iDivisorNMEA    $AGRSA,-0.84,A,,V*6E
 
7.78497         ANGULO_LEME          iDivisorNMEA    -0.84000     
7.79520         MSG_UDP              iDivisorNMEA    $MXPGN,01F803,281C,00000000000014F0*17
 
7.80553         MSG_UDP              iDivisorNMEA    $MXPGN,01F804,281C,0000008F9DC114F0*61
 
7.81592         MSG_UDP              iDivisorNMEA    !AIVDM,1,1,,A,1:U=<5PP1ltrNaEjqRUBo?wR2<2d,0*0E
 
7.82616         MSG_UDP              iDivisorNMEA    $HCHDG,284.6,0.0,E,23.3,W*6A
 
7.83642         MSG_UDP              iDivisorNMEA    $GPHDT,261.31,T*02
 
7.84666         MSG_UDP              iDivisorNMEA    $TIROT,-0.09,A*2F
 
7.85686         MSG_UDP              iDivisorNMEA    $MXPGN,00FF28,3808,FF08FFFDFC059F41*19
 
7.86711         MSG_UDP              iDivisorNMEA    $AGRSA,-0.84,A,,V*6E
 
7.86719         ANGULO_LEME          iDivisorNMEA    -0.84000     
7.87737         MSG_UDP              iDivisorNMEA    $MXPGN,01F803,281C,0000000000003CF2*60
 
7.88763         MSG_UDP              iDivisorNMEA    $MXPGN,01F804,281C,000000F0E7C13CF2*11
 
7.89791         MSG_UDP              iDivisorNMEA    $HCHDG,284.6,0.0,E,23.3,W*6A
 
7.90818         MSG_UDP              iDivisorNMEA    $GPHDT,261.30,T*03
 
7.91839         MSG_UDP              iDivisorNMEA    $TIROT,-0.09,A*2F
 
7.92860         MSG_UDP              iDivisorNMEA    $MXPGN,01FF2C,7808,FFFFFFFF9F411740*6F
 
7.93880         MSG_UDP              iDivisorNMEA    $MXPGN,01FF2C,7808,FFFF7FFFFFFF7F41*12
 
7.94896         MSG_UDP              iDivisorNMEA    $MXPGN,01FF2C,7808,FF7FFFFFFFFFFF42*60
 
7.95922         MSG_UDP              iDivisorNMEA    $MXPGN,01FF2C,7808,FFFFFFFF7FFFFF43*61
 
7.96941         MSG_UDP              iDivisorNMEA    $MXPGN,01FF22,2808,FF01FFFF9F410C60*6D
 
7.97960         MSG_UDP              iDivisorNMEA    $MXPGN,01FF22,2808,FFFF00000A003961*1F
 
7.99017         MSG_UDP              iDivisorNMEA    $MXPGN,00FF3D,6808,7FFFFF0DFFFF9F41*6E
 
8.00045         MSG_UDP              iDivisorNMEA    $AGRSA,-0.84,A,,V*6E
 
8.00052         ANGULO_LEME          iDivisorNMEA    -0.84000     
8.01071         MSG_UDP              iDivisorNMEA    $MXPGN,01F803,281C,00000000000050F3*14
 
8.02096         MSG_UDP              iDivisorNMEA    $MXPGN,01F804,281C,000000F0E7C150F3*65
 
8.03121         MSG_UDP              iDivisorNMEA    $MXPGN,00FF00,280B,0002000005049913*19
 
8.04145         MSG_UDP              iDivisorNMEA    $HCHDG,284.6,0.0,E,23.3,W*6A
 
8.05169         MSG_UDP              iDivisorNMEA    $GPHDT,261.30,T*03
 
8.06192         MSG_UDP              iDivisorNMEA    $TIROT,-0.09,A*2F
 
8.07215         MSG_UDP              iDivisorNMEA    $MXPGN,00FF3C,3808,8000F8FE00009F41*1C
 
8.08244         MSG_UDP              iDivisorNMEA    $AGRSA,-0.84,A,,V*6E
 
8.08251         ANGULO_LEME          iDivisorNMEA    -0.84000     
8.09273         MSG_UDP              iDivisorNMEA    $MXPGN,01F803,281C,00000000000064F4*14
 
8.10309         MSG_UDP              iDivisorNMEA    $MXPGN,01F804,281C,000000F0E7C164F4*65
 
8.11335         MSG_UDP              iDivisorNMEA    $HCHDG,284.6,0.0,E,23.3,W*6A
 
8.12362         MSG_UDP              iDivisorNMEA    $GPHDT,261.31,T*02
 
8.38152         MSG_UDP              iDivisorNMEA    $GPGGA,131950.000,2254.75222,S,04309.53866,W,1,12,0.90,9.43,M,-5.60,M,,*77
 
8.38250         MSG_UDP              iDivisorNMEA    $GPGLL,2254.75222,S,04309.53866,W,131950.000,A,A*58
 
8.39281         MSG_UDP              iDivisorNMEA    $GPRMC,131950.000,A,2254.75222,S,04309.53866,W,0.09,0.00,070323,23.30,W,A*18
 
8.40302         MSG_UDP              iDivisorNMEA    $GPVTG,0.00,T,,M,0.09,N,0.16,K,A*33
 
8.41328         MSG_UDP              iDivisorNMEA    $AGRSA,-0.84,A,,V*6E
 
8.41334         ANGULO_LEME          iDivisorNMEA    -0.84000     
8.42353         MSG_UDP              iDivisorNMEA    $SDDPT,1.80,0.00,*72
 
8.43380         MSG_UDP              iDivisorNMEA    $MXPGN,01F803,281C,000000000258B4F8*63
 
8.44401         MSG_UDP              iDivisorNMEA    $MXPGN,01F804,281C,000000BF56C1B4F8*1E
 
8.45428         MSG_UDP              iDivisorNMEA    $MXPGN,00FF00,280B,0002000005049913*19
 
8.46450         MSG_UDP              iDivisorNMEA    $HCHDG,284.6,0.0,E,23.3,W*6A
 
8.47478         MSG_UDP              iDivisorNMEA    $GPHDT,261.30,T*03
 
8.48514         MSG_UDP              iDivisorNMEA    $TIROT,-0.09,A*2F
 
8.49584         MSG_UDP              iDivisorNMEA    $AGRSA,-0.84,A,,V*6E
 
8.49590         ANGULO_LEME          iDivisorNMEA    -0.84000     
8.50604         MSG_UDP              iDivisorNMEA    $MXPGN,01F803,281C,000000000258B4F8*63
 
8.51621         MSG_UDP              iDivisorNMEA    $MXPGN,01F804,281C,000000BF56C1B4F8*1E
 
8.52652         MSG_UDP              iDivisorNMEA    $GPGSA,A,3,08,10,16,18,26,27,28,31,32,66,65,86,1.60,1.40,1.40*07
 
8.53670         MSG_UDP              iDivisorNMEA    $GPGSV,3,1,12,08,35,230,37,10,44,161,28,16,15,309,39,18,22,078,35*7D
 
8.54700         MSG_UDP              iDivisorNMEA    $GPGSV,3,2,12,26,05,344,38,27,63,264,44,28,13,022,45,31,09,013,38*79
 
8.55726         MSG_UDP              iDivisorNMEA    $GPGSV,3,3,12,32,77,054,46,66,09,319,43,65,59,287,39,86,36,059,44*72
 
8.56756         MSG_UDP              iDivisorNMEA    $HCHDG,284.6,0.0,E,23.3,W*6A
 
8.57791         MSG_UDP              iDivisorNMEA    $GPHDT,261.30,T*03
 
8.58819         MSG_UDP              iDivisorNMEA    $TIROT,-0.29,A*2D
 
8.59845         MSG_UDP              iDivisorNMEA    $GPGSA,A,3,08,10,16,18,21,23,24,26,27,,,,1.88,1.60,1.60*01
 
8.60876         MSG_UDP              iDivisorNMEA    $GPGSV,3,1,09,08,34,230,44,10,43,161,39,16,14,308,41,18,22,078,44*7C
 
8.61905         MSG_UDP              iDivisorNMEA    $GPGSV,3,2,09,21,04,227,00,23,19,132,00,24,01,125,00,26,04,343,40*79
 
8.62933         MSG_UDP              iDivisorNMEA    $GPGSV,3,3,09,27,63,264,49*4D
 
8.63961         MSG_UDP              iDivisorNMEA    $MXPGN,01FA06,681C,8300AA00C8F90F60*63
 
8.64991         MSG_UDP              iDivisorNMEA    $MXPGN,01FA06,681C,008400A9EFD60061*1E
 
8.66018         MSG_UDP              iDivisorNMEA    $MXPGN,01FA06,681C,FFFFFFFFFF014462*19
 
8.67043         MSG_UDP              iDivisorNMEA    $GPGGA,131951.000,2254.75309,S,04309.53829,W,1,09,1.60,0.85,M,-5.00,M,,*74
 
8.68074         MSG_UDP              iDivisorNMEA    $GPGLL,2254.75309,S,04309.53829,W,131951.000,A,A*5A
 
8.69105         MSG_UDP              iDivisorNMEA    $GPRMC,131951.000,A,2254.75309,S,04309.53829,W,0.00,280.64,070323,23.39,W,A*12
 
8.70136         MSG_UDP              iDivisorNMEA    $GPVTG,280.64,T,,M,0.00,N,0.00,K,A*35
 
8.71162         MSG_UDP              iDivisorNMEA    $AGRSA,-0.84,A,,V*6E
 
8.71167         ANGULO_LEME          iDivisorNMEA    -0.84000     
8.72189         MSG_UDP              iDivisorNMEA    $MXPGN,01F803,281C,00000000000000F9*1B
 
8.73213         MSG_UDP              iDivisorNMEA    $MXPGN,01F804,281C,0000001279C100F9*63
 
8.74242         MSG_UDP              iDivisorNMEA    $MXPGN,01FF1A,680B,FF022B849F410580*64
 
8.75298         MSG_UDP              iDivisorNMEA    $MXPGN,01FF1A,782B,FF010B049F410520*64
 
8.76329         MSG_UDP              iDivisorNMEA    $HCHDG,284.6,0.0,E,23.3,W*6A
 
8.77362         MSG_UDP              iDivisorNMEA    $GPHDT,261.30,T*03
 
8.78385         MSG_UDP              iDivisorNMEA    $TIROT,-0.29,A*2D
 
8.79410         MSG_UDP              iDivisorNMEA    $MXPGN,00FF00,280B,0002000005049913*19
 
8.80437         MSG_UDP              iDivisorNMEA    $AGRSA,-0.84,A,,V*6E
 
8.80448         ANGULO_LEME          iDivisorNMEA    -0.84000     
8.81466         MSG_UDP              iDivisorNMEA    $MXPGN,01F803,281C,00000000000014FA*66
 
8.82492         MSG_UDP              iDivisorNMEA    $MXPGN,01F804,281C,0000001279C114FA*1E
 
8.83520         MSG_UDP              iDivisorNMEA    $HCHDG,284.6,0.0,E,23.3,W*6A
 
8.84552         MSG_UDP              iDivisorNMEA    $GPHDT,261.30,T*03
 
8.85590         MSG_UDP              iDivisorNMEA    $TIROT,-0.19,A*2E
 
8.86619         MSG_UDP              iDivisorNMEA    $MXPGN,00FF28,3808,FF08FFFDFC059F41*19
 
8.87653         MSG_UDP              iDivisorNMEA    $AGRSA,-0.84,A,,V*6E
 
8.87665         ANGULO_LEME          iDivisorNMEA    -0.84000     
8.88687         MSG_UDP              iDivisorNMEA    !AIVDM,1,1,,B,1:UPuT0P1KLrPwMjqrw``6op2PRt,0*37
 
8.89708         MSG_UDP              iDivisorNMEA    $MXPGN,01F803,281C,0000000000003C01*15
 
8.90737         MSG_UDP              iDivisorNMEA    $MXPGN,01F804,281C,0000006889C13C01*6F
 
8.91763         MSG_UDP              iDivisorNMEA    $HCHDG,284.6,0.0,E,23.3,W*6A
 
8.92784         MSG_UDP              iDivisorNMEA    $GPHDT,261.30,T*03
 
8.93802         MSG_UDP              iDivisorNMEA    $TIROT,-0.19,A*2E
 
8.94835         MSG_UDP              iDivisorNMEA    $MXPGN,01FF2C,7808,FFFFFFFF9F411760*6D
 
8.95862         MSG_UDP              iDivisorNMEA    $MXPGN,01FF2C,7808,FFFF7FFFFFFF7F61*10
 
8.96887         MSG_UDP              iDivisorNMEA    $MXPGN,01FF2C,7808,FF7FFFFFFFFFFF62*62
 
8.97925         MSG_UDP              iDivisorNMEA    $MXPGN,01FF2C,7808,FFFFFFFF7FFFFF63*63
 
8.98960         MSG_UDP              iDivisorNMEA    !AIVDM,1,1,,A,1:U8l=P00qLrIGajqiE3L2eR0t2a,0*3B
 
9.00032         MSG_UDP              iDivisorNMEA    $MXPGN,00FF3D,6808,7FFFFF0DFFFF9F41*6E
 
9.01054         MSG_UDP              iDivisorNMEA    $AGRSA,-0.84,A,,V*6E
 
9.01065         ANGULO_LEME          iDivisorNMEA    -0.84000     
9.02081         MSG_UDP              iDivisorNMEA    $MXPGN,01F803,281C,000000FFFDA85002*18
 
9.27950         MSG_UDP              iDivisorNMEA    $AGRSA,-0.84,A,,V*6E
 
9.27960         ANGULO_LEME          iDivisorNMEA    -0.84000     
9.28341         MSG_UDP              iDivisorNMEA    $MXPGN,01F803,281C,0000000000008C05*1A
 
9.29074         MSG_UDP              iDivisorNMEA    $MXPGN,01F804,281C,00000086B5C18C05*16
 
9.33033         MSG_UDP              iDivisorNMEA    $HCHDG,284.6,0.0,E,23.3,W*6A
 
9.33054         MSG_UDP              iDivisorNMEA    $GPHDT,261.31,T*02
 
9.34072         MSG_UDP              iDivisorNMEA    $TIROT,-0.49,A*2B
 
