%%%%%%%%%%%%%%%%%%%%%%%%%%%%%%%%%%%%%%%%%%%%%%%%%%%%%%%%%%%
%% LOG FILE:       /home/moos-ivp-douglas/log/teste_6_3_2023_____08_09_10/teste_6_3_2023_____08_09_10.alog
%% FILE OPENED ON  Wed Dec 31 21:00:00 1969
%% LOGSTART           1678100949.383601
%%%%%%%%%%%%%%%%%%%%%%%%%%%%%%%%%%%%%%%%%%%%%%%%%%%%%%%%%%%
-0.03301        MOOS_DEBUG           pHelmIvP        pHelmIvP AllStop: ManualOverride 
-0.03300        DESIRED_SPEED        pHelmIvP        0.00000      
-0.03300        DESIRED_HEADING      pHelmIvP        0.00000      
0.16526         DESIRED_RUDDER       pMarinePIDV22   0.00000      
0.16526         DESIRED_THRUST       pMarinePIDV22   0.00000      
0.69751         ANGULO_LEME          iDivisorNMEA    4.32000      
0.74626         MSG_UDP              iDivisorNMEA    $TIROT,-0.19,A*2E
 
0.75641         MSG_UDP              iDivisorNMEA    $MXPGN,01F803,281C,0000000000008CDD*1F
 
0.76657         MSG_UDP              iDivisorNMEA    $MXPGN,01F804,281C,0000637C1BC18CDD*68
 
0.78491         MSG_UDP              iDivisorNMEA    $AGRSA,4.32,A,,V*4A
 
0.78500         ANGULO_LEME          iDivisorNMEA    4.32000      
0.83393         MSG_UDP              iDivisorNMEA    $MXPGN,00FF28,3808,FF08FFFDFC059F41*19
 
0.83589         MSG_UDP              iDivisorNMEA    $HCHDG,284.5,0.0,E,23.3,W*69
 
0.84508         MSG_UDP              iDivisorNMEA    $GPHDT,261.22,T*00
 
1.03501         MSG_UDP              iDivisorNMEA    $MXPGN,00FF3C,3808,8000F8FE00009F41*1C
 
1.03701         MSG_UDP              iDivisorNMEA    $GPGGA,140910.200,2254.75279,S,04309.53859,W,1,07,2.00,-1.37,M,-5.00,M,,*5A
 
1.04620         MSG_UDP              iDivisorNMEA    $GPGLL,2254.75279,S,04309.53859,W,140910.200,A,A*5A
 
1.05633         MSG_UDP              iDivisorNMEA    $GPRMC,140910.200,A,2254.75279,S,04309.53859,W,0.00,182.03,060323,23.39,W,A*13
 
1.06651         MSG_UDP              iDivisorNMEA    $GPVTG,182.03,T,,M,0.00,N,0.00,K,A*35
 
1.07679         MSG_UDP              iDivisorNMEA    $HCHDG,284.5,0.0,E,23.3,W*69
 
1.08698         MSG_UDP              iDivisorNMEA    $GPHDT,261.23,T*01
 
1.09715         MSG_UDP              iDivisorNMEA    $TIROT,-0.19,A*2E
 
1.10730         MSG_UDP              iDivisorNMEA    $GPGSA,A,3,01,08,10,16,18,21,23,,,,,,2.56,2.00,2.00*07
 
1.11749         MSG_UDP              iDivisorNMEA    $GPGSV,2,1,07,01,02,224,00,08,45,255,48,10,32,140,00,16,04,325,39*75
 
1.12768         MSG_UDP              iDivisorNMEA    $GPGSV,2,2,07,18,11,060,42,21,20,217,00,23,08,116,00*4D
 
1.13783         MSG_UDP              iDivisorNMEA    $MXPGN,01FA06,681C,8B012200C8DF0FE0*1D
 
1.14802         MSG_UDP              iDivisorNMEA    $MXPGN,01FA06,681C,008B0122F3DB00E1*60
 
1.15818         MSG_UDP              iDivisorNMEA    $MXPGN,01FA06,681C,FFFFFFFFFF01A2E2*19
 
1.16834         MSG_UDP              iDivisorNMEA    $MXPGN,01F803,281C,00000000000014E0*14
 
1.17853         MSG_UDP              iDivisorNMEA    $MXPGN,01F804,281C,000000D61CC114E0*61
 
1.18871         MSG_UDP              iDivisorNMEA    $GPGGA,140910.000,2254.75183,S,04309.53992,W,1,12,1.00,2.42,M,-5.60,M,,*75
 
1.19894         MSG_UDP              iDivisorNMEA    $GPGLL,2254.75183,S,04309.53992,W,140910.000,A,A*58
 
1.20908         MSG_UDP              iDivisorNMEA    $GPRMC,140910.000,A,2254.75183,S,04309.53992,W,0.09,0.00,060323,23.30,W,A*19
 
1.21926         MSG_UDP              iDivisorNMEA    $GPVTG,0.00,T,,M,0.09,N,0.16,K,A*33
 
1.22942         MSG_UDP              iDivisorNMEA    $AGRSA,4.32,A,,V*4A
 
1.22944         ANGULO_LEME          iDivisorNMEA    4.32000      
1.23956         MSG_UDP              iDivisorNMEA    $MXPGN,00FF00,280B,0002000005049913*19
 
1.24973         MSG_UDP              iDivisorNMEA    $HCHDG,284.5,0.0,E,23.3,W*69
 
1.25987         MSG_UDP              iDivisorNMEA    $GPHDT,261.24,T*06
 
1.27000         MSG_UDP              iDivisorNMEA    $TIROT,-0.19,A*2E
 
1.28014         MSG_UDP              iDivisorNMEA    !AIVDM,1,1,,B,1:U8?H0P1ItrJL9jqJF95OvB2867,0*7E
 
1.29026         MSG_UDP              iDivisorNMEA    $MXPGN,00FF16,7808,FF0000002B0A9F41*1B
 
1.30039         MSG_UDP              iDivisorNMEA    $MXPGN,01F803,281C,00000000000028E1*1A
 
1.31051         MSG_UDP              iDivisorNMEA    $MXPGN,01F804,281C,000000D61CC128E1*6F
 
1.32065         MSG_UDP              iDivisorNMEA    $MXPGN,00FF19,7808,0000000202009F41*15
 
1.33078         MSG_UDP              iDivisorNMEA    !AIVDO,1,1,,,B:UOH3P007>VtSLf>V@4cwU5oP06,0*2F
 
1.34088         MSG_UDP              iDivisorNMEA    $MXPGN,00FF19,7808,0080000A0A009F41*1D
 
1.35101         MSG_UDP              iDivisorNMEA    $AGRSA,4.32,A,,V*4A
 
1.35105         ANGULO_LEME          iDivisorNMEA    4.32000      
1.36114         MSG_UDP              iDivisorNMEA    $GPGSA,A,3,08,10,16,18,27,28,31,32,65,85,86,72,1.70,1.00,1.40*0E
 
1.37136         MSG_UDP              iDivisorNMEA    $GPGSV,3,1,12,08,45,255,40,10,32,140,31,16,05,326,34,18,11,060,30*7E
 
1.38154         MSG_UDP              iDivisorNMEA    $GPGSV,3,2,12,27,56,312,40,28,27,038,42,31,22,027,40,32,67,138,47*71
 
1.39167         MSG_UDP              iDivisorNMEA    $GPGSV,3,3,12,65,26,297,38,85,26,036,44,86,70,073,43,72,61,231,39*74
 
1.40183         MSG_UDP              iDivisorNMEA    !AIVDM,1,1,,B,1:U6uRCP00tr>sIjrF=cr?vF2<1k,0*52
 
1.41199         MSG_UDP              iDivisorNMEA    $MXPGN,00FF8C,6808,FFF10695FA149F41*18
 
1.42215         MSG_UDP              iDivisorNMEA    $HCHDG,284.5,0.0,E,23.3,W*69
 
1.43229         MSG_UDP              iDivisorNMEA    $GPHDT,261.24,T*06
 
1.44244         MSG_UDP              iDivisorNMEA    $TIROT,-0.39,A*2C
 
1.45260         MSG_UDP              iDivisorNMEA    $MXPGN,01F803,281C,0000000000003CE2*63
 
1.46275         MSG_UDP              iDivisorNMEA    $MXPGN,01F804,281C,0000002B30C13CE2*65
 
1.47290         MSG_UDP              iDivisorNMEA    !AIVDM,1,1,,B,1:U=<5wP2wtrO15jpvVlUOvB2@6<,0*60
 
1.48304         MSG_UDP              iDivisorNMEA    $GPGGA,,2254.76119,S,04309.53549,W,1,,,,M,,M,,*5A
 
1.49320         MSG_UDP              iDivisorNMEA    $GPGLL,2254.76119,S,04309.53549,W,,A,A*41
 
1.50336         MSG_UDP              iDivisorNMEA    $GPVTG,7.40,T,,M,0.00,N,0.00,K,A*3E
 
1.51350         MSG_UDP              iDivisorNMEA    $AGRSA,4.32,A,,V*4A
 
1.51354         ANGULO_LEME          iDivisorNMEA    4.32000      
1.52365         MSG_UDP              iDivisorNMEA    $HCHDG,284.6,0.0,E,23.3,W*6A
 
1.53385         MSG_UDP              iDivisorNMEA    $GPHDT,261.25,T*07
 
1.54403         MSG_UDP              iDivisorNMEA    $TIROT,-0.39,A*2C
 
1.55424         MSG_UDP              iDivisorNMEA    $MXPGN,01F803,281C,00000000000050E3*17
 
1.56448         MSG_UDP              iDivisorNMEA    $MXPGN,01F804,281C,0000002B30C150E3*11
 
1.57466         MSG_UDP              iDivisorNMEA    $MXPGN,00FF00,280B,0002000005049913*19
 
1.58500         MSG_UDP              iDivisorNMEA    $AGRSA,4.32,A,,V*4A
 
1.58504         ANGULO_LEME          iDivisorNMEA    4.32000      
1.59516         MSG_UDP              iDivisorNMEA    $GPZDA,140909.730,06,03,2023,,*51
 
1.60528         MSG_UDP              iDivisorNMEA    $HCHDG,284.6,0.0,E,23.3,W*6A
 
1.61543         MSG_UDP              iDivisorNMEA    $GPHDT,261.25,T*07
 
1.62556         MSG_UDP              iDivisorNMEA    $TIROT,-0.39,A*2C
 
1.63574         MSG_UDP              iDivisorNMEA    $MXPGN,01F803,281C,00000000000064E4*17
 
1.64592         MSG_UDP              iDivisorNMEA    $MXPGN,01F804,281C,000000135AC164E4*14
 
1.65610         MSG_UDP              iDivisorNMEA    $AGRSA,4.32,A,,V*4A
 
1.65614         ANGULO_LEME          iDivisorNMEA    4.32000      
1.66628         MSG_UDP              iDivisorNMEA    $HCHDG,284.6,0.0,E,23.3,W*6A
 
1.93393         MSG_UDP              iDivisorNMEA    $MXPGN,01FF2C,7808,FFFFFFFF9F4117C0*18
 
1.93493         MSG_UDP              iDivisorNMEA    $MXPGN,01FF2C,7808,FFFF7FFFFFFF7FC1*65
 
1.94520         MSG_UDP              iDivisorNMEA    $HCHDG,284.6,0.0,E,23.3,W*6A
 
1.95564         MSG_UDP              iDivisorNMEA    $GPHDT,261.27,T*05
 
1.96589         MSG_UDP              iDivisorNMEA    $TIROT,-0.39,A*2C
 
1.97613         MSG_UDP              iDivisorNMEA    $MXPGN,01FF2C,7808,FF7FFFFFFFFFFFC2*17
 
1.98630         MSG_UDP              iDivisorNMEA    $MXPGN,01FF2C,7808,FFFFFFFF7FFFFFC3*16
 
1.99664         MSG_UDP              iDivisorNMEA    $MXPGN,01F803,281C,000000000000C8E9*63
 
2.00683         MSG_UDP              iDivisorNMEA    $MXPGN,01F804,281C,000000AD79C1C8E9*1D
 
2.01718         MSG_UDP              iDivisorNMEA    $MXPGN,00FF3D,6808,7FFFFF0DFFFF9F41*6E
 
2.02770         MSG_UDP              iDivisorNMEA    $AGRSA,4.32,A,,V*4A
 
2.02772         ANGULO_LEME          iDivisorNMEA    4.32000      
2.03801         MSG_UDP              iDivisorNMEA    $MXPGN,00FF3C,3808,8000F8FE00009F41*1C
 
2.04814         MSG_UDP              iDivisorNMEA    $GPGGA,140911.300,2254.75279,S,04309.53859,W,1,07,2.00,-1.37,M,-5.00,M,,*5A
 
2.05839         MSG_UDP              iDivisorNMEA    $GPGLL,2254.75279,S,04309.53859,W,140911.300,A,A*5A
 
2.06863         MSG_UDP              iDivisorNMEA    $GPRMC,140911.300,A,2254.75279,S,04309.53859,W,0.00,254.44,060323,23.39,W,A*18
 
2.07894         MSG_UDP              iDivisorNMEA    $GPVTG,254.44,T,,M,0.00,N,0.00,K,A*3E
 
2.08920         MSG_UDP              iDivisorNMEA    $HCHDG,284.6,0.0,E,23.3,W*6A
 
2.09949         MSG_UDP              iDivisorNMEA    $GPHDT,261.28,T*0A
 
2.10979         MSG_UDP              iDivisorNMEA    $TIROT,-0.39,A*2C
 
2.12007         MSG_UDP              iDivisorNMEA    $GPGSA,A,3,01,08,10,16,18,21,23,,,,,,2.56,2.00,2.00*07
 
2.13039         MSG_UDP              iDivisorNMEA    $GPGSV,2,1,07,01,02,224,00,08,45,255,48,10,32,140,00,16,04,325,39*75
 
2.14065         MSG_UDP              iDivisorNMEA    $GPGSV,2,2,07,18,11,060,42,21,20,217,00,23,08,116,00*4D
 
2.15094         MSG_UDP              iDivisorNMEA    $MXPGN,01FA06,681C,8B012200C8EA0F00*6E
 
2.16125         MSG_UDP              iDivisorNMEA    $MXPGN,01FA06,681C,008B0122F3DB0001*15
 
2.17154         MSG_UDP              iDivisorNMEA    $MXPGN,01FA06,681C,FFFFFFFFFF01A202*6C
 
2.18183         MSG_UDP              iDivisorNMEA    $MXPGN,01F803,281C,00000000000000EA*60
 
2.19215         MSG_UDP              iDivisorNMEA    $MXPGN,01F804,281C,000000AD79C100EA*1E
 
2.20250         MSG_UDP              iDivisorNMEA    $GPGGA,140911.000,2254.75184,S,04309.53979,W,1,12,1.00,2.29,M,-5.60,M,,*7B
 
2.21274         MSG_UDP              iDivisorNMEA    $GPGLL,2254.75184,S,04309.53979,W,140911.000,A,A*5B
 
2.22299         MSG_UDP              iDivisorNMEA    $GPRMC,140911.000,A,2254.75184,S,04309.53979,W,0.19,0.00,060323,23.30,W,A*1B
 
2.23332         MSG_UDP              iDivisorNMEA    $GPVTG,0.00,T,,M,0.19,N,0.35,K,A*33
 
2.24359         MSG_UDP              iDivisorNMEA    $AGRSA,4.32,A,,V*4A
 
2.24365         ANGULO_LEME          iDivisorNMEA    4.32000      
2.25383         MSG_UDP              iDivisorNMEA    $MXPGN,00FF00,280B,0002000005049913*19
 
2.26406         MSG_UDP              iDivisorNMEA    $HCHDG,284.6,0.0,E,23.3,W*6A
 
2.27433         MSG_UDP              iDivisorNMEA    $GPHDT,261.29,T*0B
 
2.28455         MSG_UDP              iDivisorNMEA    $TIROT,-0.29,A*2D
 
2.29488         MSG_UDP              iDivisorNMEA    $MXPGN,00FF16,7808,FF0000002B0A9F41*1B
 
2.30517         MSG_UDP              iDivisorNMEA    $MXPGN,01F803,281C,00000000000014EB*66
 
2.31540         MSG_UDP              iDivisorNMEA    $MXPGN,01F804,281C,000000AD79C114EB*18
 
2.32569         MSG_UDP              iDivisorNMEA    $MXPGN,00FF19,7808,0000000202009F41*15
 
2.33596         MSG_UDP              iDivisorNMEA    $MXPGN,00FF19,7808,0080000A0A009F41*1D
 
2.34622         MSG_UDP              iDivisorNMEA    $AGRSA,4.32,A,,V*4A
 
2.34628         ANGULO_LEME          iDivisorNMEA    4.32000      
2.35648         MSG_UDP              iDivisorNMEA    $GPGSA,A,3,08,10,16,18,27,28,31,32,65,85,86,72,1.70,1.00,1.40*0E
 
2.36682         MSG_UDP              iDivisorNMEA    $GPGSV,3,1,12,08,45,255,40,10,32,140,31,16,05,326,34,18,11,060,30*7E
 
2.37710         MSG_UDP              iDivisorNMEA    $GPGSV,3,2,12,27,56,312,40,28,27,038,42,31,22,027,40,32,67,138,47*71
 
2.38739         MSG_UDP              iDivisorNMEA    $GPGSV,3,3,12,65,26,297,38,85,26,036,44,86,70,073,43,72,61,231,39*74
 
2.39764         MSG_UDP              iDivisorNMEA    $MXPGN,00FF8C,6808,FFF10695FA149F41*18
 
2.40789         MSG_UDP              iDivisorNMEA    $HCHDG,284.6,0.0,E,23.3,W*6A
 
2.41820         MSG_UDP              iDivisorNMEA    $GPHDT,261.31,T*02
 
2.42850         MSG_UDP              iDivisorNMEA    $TIROT,-0.29,A*2D
 
2.43883         MSG_UDP              iDivisorNMEA    $MXPGN,01F803,281C,00000000000028EC*68
 
2.44906         MSG_UDP              iDivisorNMEA    $MXPGN,01F804,281C,0000004C1EC128EC*1E
 
2.45993         MSG_UDP              iDivisorNMEA    $GPGGA,,2254.76119,S,04309.53549,W,1,,,,M,,M,,*5A
 
2.47022         MSG_UDP              iDivisorNMEA    $GPGLL,2254.76119,S,04309.53549,W,,A,A*41
 
2.48051         MSG_UDP              iDivisorNMEA    $GPVTG,7.40,T,,M,0.00,N,0.00,K,A*3E
 
2.49077         MSG_UDP              iDivisorNMEA    $AGRSA,4.32,A,,V*4A
 
2.49086         ANGULO_LEME          iDivisorNMEA    4.32000      
2.50103         MSG_UDP              iDivisorNMEA    $HCHDG,284.6,0.0,E,23.3,W*6A
 
2.51130         MSG_UDP              iDivisorNMEA    $GPHDT,261.32,T*01
 
2.52155         MSG_UDP              iDivisorNMEA    $TIROT,-0.19,A*2E
 
2.53182         MSG_UDP              iDivisorNMEA    $MXPGN,01F803,281C,0000000000003CED*15
 
2.54209         MSG_UDP              iDivisorNMEA    $MXPGN,01F804,281C,0000004C1EC13CED*63
 
2.55235         MSG_UDP              iDivisorNMEA    $AGRSA,4.32,A,,V*4A
 
2.55244         ANGULO_LEME          iDivisorNMEA    4.32000      
2.56268         MSG_UDP              iDivisorNMEA    $GPZDA,140910.730,06,03,2023,,*59
 
2.57294         MSG_UDP              iDivisorNMEA    $MXPGN,00FF00,280B,0002000005049913*19
 
2.83404         MSG_UDP              iDivisorNMEA    $MXPGN,00FF28,3808,FF08FFFDFC059F41*19
 
2.83595         MSG_UDP              iDivisorNMEA    $HCHDG,284.6,0.0,E,23.3,W*6A
 
2.84514         MSG_UDP              iDivisorNMEA    $GPHDT,261.32,T*01
 
2.85548         MSG_UDP              iDivisorNMEA    $TIROT,-0.19,A*2E
 
2.86575         MSG_UDP              iDivisorNMEA    $MXPGN,01F803,281C,000000000000A0F2*61
 
2.87607         MSG_UDP              iDivisorNMEA    $MXPGN,01F804,281C,000000A3F3C1A0F2*13
 
2.88639         MSG_UDP              iDivisorNMEA    $AGRSA,4.32,A,,V*4A
 
2.88641         ANGULO_LEME          iDivisorNMEA    4.32000      
2.90401         MSG_UDP              iDivisorNMEA    $MXPGN,00FF00,280B,0002000005049913*19
 
2.93428         MSG_UDP              iDivisorNMEA    $MXPGN,01FF2C,7808,FFFFFFFF9F4117E0*1E
 
2.93490         MSG_UDP              iDivisorNMEA    $MXPGN,01FF2C,7808,FFFF7FFFFFFF7FE1*63
 
2.94515         MSG_UDP              iDivisorNMEA    $HCHDG,284.6,0.0,E,23.3,W*6A
 
2.95536         MSG_UDP              iDivisorNMEA    $GPHDT,261.31,T*02
 
2.96601         MSG_UDP              iDivisorNMEA    $TIROT,-0.19,A*2E
 
2.97631         MSG_UDP              iDivisorNMEA    $MXPGN,01FF2C,7808,FF7FFFFFFFFFFFE2*11
 
2.98659         MSG_UDP              iDivisorNMEA    $MXPGN,01FF2C,7808,FFFFFFFF7FFFFFE3*10
 
2.99680         MSG_UDP              iDivisorNMEA    $MXPGN,01F803,281C,000000000000B4F3*67
 
3.00705         MSG_UDP              iDivisorNMEA    $MXPGN,01F804,281C,0000005295C1B4F3*19
 
3.01730         MSG_UDP              iDivisorNMEA    $MXPGN,00FF3D,6808,7FFFFF0DFFFF9F41*6E
 
3.02757         MSG_UDP              iDivisorNMEA    $MXPGN,00FF3D,6808,0000FF0BFFFF9F41*19
 
3.03782         MSG_UDP              iDivisorNMEA    $AGRSA,4.32,A,,V*4A
 
3.03788         ANGULO_LEME          iDivisorNMEA    4.32000      
3.04807         MSG_UDP              iDivisorNMEA    $MXPGN,00FF3D,6808,FFFFFF0CFFFF9F41*18
 
3.05832         MSG_UDP              iDivisorNMEA    $MXPGN,00FF3D,6808,FFFFFF03FFFF9F41*68
 
3.06862         MSG_UDP              iDivisorNMEA    $MXPGN,00FF3C,3808,8000F8FE00009F41*1C
 
3.07890         MSG_UDP              iDivisorNMEA    $GPGGA,140912.300,2254.75279,S,04309.53859,W,1,07,2.00,-1.37,M,-5.00,M,,*59
 
3.08918         MSG_UDP              iDivisorNMEA    $GPGLL,2254.75279,S,04309.53859,W,140912.300,A,A*59
 
3.09947         MSG_UDP              iDivisorNMEA    $GPRMC,140912.300,A,2254.75279,S,04309.53859,W,0.01,121.12,060323,23.39,W,A*18
 
3.10974         MSG_UDP              iDivisorNMEA    $GPVTG,121.12,T,,M,0.01,N,0.01,K,A*3C
 
3.11998         MSG_UDP              iDivisorNMEA    $HCHDG,284.6,0.0,E,23.3,W*6A
 
3.13024         MSG_UDP              iDivisorNMEA    $GPHDT,261.29,T*0B
 
3.14072         MSG_UDP              iDivisorNMEA    $TIROT,-0.29,A*2D
 
3.15101         MSG_UDP              iDivisorNMEA    $GPGSA,A,3,01,08,10,16,18,21,23,,,,,,2.56,2.00,2.00*07
 
3.16131         MSG_UDP              iDivisorNMEA    $GPGSV,2,1,07,01,02,224,00,08,45,255,48,10,32,140,00,16,04,325,39*75
 
3.17159         MSG_UDP              iDivisorNMEA    $GPGSV,2,2,07,18,11,060,42,21,20,217,00,23,08,116,00*4D
 
3.18187         MSG_UDP              iDivisorNMEA    $MXPGN,01FA06,681C,8B012200C8F40F20*1A
 
3.19240         MSG_UDP              iDivisorNMEA    $MXPGN,01FA06,681C,008B0122F3DB0021*17
 
3.20271         MSG_UDP              iDivisorNMEA    $MXPGN,01FA06,681C,FFFFFFFFFF01A222*6E
 
3.21298         MSG_UDP              iDivisorNMEA    $MXPGN,01F803,281C,00000000000000F4*16
 
3.22323         MSG_UDP              iDivisorNMEA    $MXPGN,01F804,281C,0000005295C100F4*68
 
3.23346         MSG_UDP              iDivisorNMEA    $MXPGN,00FF3D,6808,FFFFFF02FFFF9F41*69
 
3.24376         MSG_UDP              iDivisorNMEA    $GPGGA,140912.000,2254.75183,S,04309.53967,W,1,12,1.00,2.22,M,-5.60,M,,*7B
 
3.25407         MSG_UDP              iDivisorNMEA    $GPGLL,2254.75183,S,04309.53967,W,140912.000,A,A*50
 
3.26438         MSG_UDP              iDivisorNMEA    $GPRMC,140912.000,A,2254.75183,S,04309.53967,W,0.19,0.00,060323,23.30,W,A*10
 
3.27465         MSG_UDP              iDivisorNMEA    $GPVTG,0.00,T,,M,0.19,N,0.35,K,A*33
 
3.28487         MSG_UDP              iDivisorNMEA    $AGRSA,4.32,A,,V*4A
 
3.28494         ANGULO_LEME          iDivisorNMEA    4.32000      
3.29510         MSG_UDP              iDivisorNMEA    $HCHDG,284.6,0.0,E,23.3,W*6A
 
3.30531         MSG_UDP              iDivisorNMEA    $GPHDT,261.30,T*03
 
3.31556         MSG_UDP              iDivisorNMEA    $TIROT,0.00,A*0B
 
3.32578         MSG_UDP              iDivisorNMEA    $MXPGN,00FF16,7808,FF0000002B0A9F41*1B
 
3.33601         MSG_UDP              iDivisorNMEA    $MXPGN,00FF00,280B,0002000005049913*19
 
3.34624         MSG_UDP              iDivisorNMEA    $MXPGN,01F803,281C,00000000000014F5*12
 
3.35647         MSG_UDP              iDivisorNMEA    $MXPGN,01F804,281C,0000005295C114F5*6C
 
3.36677         MSG_UDP              iDivisorNMEA    $MXPGN,00FF19,7808,0000000202009F41*15
 
3.37702         MSG_UDP              iDivisorNMEA    !AIVDO,1,1,,,B:UOH3P00G>VtRLf>V84cwV5oP06,0*25
 
3.38723         MSG_UDP              iDivisorNMEA    $MXPGN,00FF19,7808,0080000A0A009F41*1D
 
3.39750         MSG_UDP              iDivisorNMEA    $AGRSA,4.32,A,,V*4A
 
3.39759         ANGULO_LEME          iDivisorNMEA    4.32000      
3.40778         MSG_UDP              iDivisorNMEA    $GPGSA,A,3,08,10,16,18,27,28,31,32,65,85,86,72,1.70,1.00,1.40*0E
 
3.41812         MSG_UDP              iDivisorNMEA    $GPGSV,3,1,12,08,45,255,40,10,32,140,31,16,05,326,34,18,11,060,30*7E
 
3.42842         MSG_UDP              iDivisorNMEA    $GPGSV,3,2,12,27,56,312,40,28,27,038,42,31,22,027,41,32,67,138,47*70
 
3.43871         MSG_UDP              iDivisorNMEA    $GPGSV,3,3,12,65,26,297,38,85,26,036,43,86,70,073,43,72,61,231,39*73
 
3.44901         MSG_UDP              iDivisorNMEA    $MXPGN,00FF8C,6808,FFF10695FA149F41*18
 
3.45929         MSG_UDP              iDivisorNMEA    $HCHDG,284.6,0.0,E,23.3,W*6A
 
3.46985         MSG_UDP              iDivisorNMEA    $GPHDT,261.30,T*03
 
3.48014         MSG_UDP              iDivisorNMEA    $TIROT,0.00,A*0B
 
3.49040         MSG_UDP              iDivisorNMEA    $MXPGN,01F803,281C,00000000000028F6*1E
 
3.73612         MSG_UDP              iDivisorNMEA    $HCHDG,284.6,0.0,E,23.3,W*6A
 
3.73623         MSG_UDP              iDivisorNMEA    $GPHDT,261.31,T*02
 
3.74643         MSG_UDP              iDivisorNMEA    $TIROT,0.09,A*02
 
3.75669         MSG_UDP              iDivisorNMEA    $MXPGN,01F803,281C,0000000000008C00*1F
 
3.76699         MSG_UDP              iDivisorNMEA    $MXPGN,01F804,281C,00000032E6C18C00*18
 
3.78502         MSG_UDP              iDivisorNMEA    $AGRSA,4.32,A,,V*4A
 
3.78509         ANGULO_LEME          iDivisorNMEA    4.32000      
3.83419         MSG_UDP              iDivisorNMEA    $MXPGN,00FF28,3808,FF08FFFDFC059F41*19
 
3.83622         MSG_UDP              iDivisorNMEA    $HCHDG,284.6,0.0,E,23.3,W*6A
 
3.84548         MSG_UDP              iDivisorNMEA    $GPHDT,261.32,T*01
 
3.85574         MSG_UDP              iDivisorNMEA    $TIROT,0.09,A*02
 
3.86595         MSG_UDP              iDivisorNMEA    $MXPGN,01F803,281C,000000000000A001*14
 
3.87613         MSG_UDP              iDivisorNMEA    $MXPGN,01F804,281C,00000032E6C1A001*13
 
3.88628         MSG_UDP              iDivisorNMEA    $AGRSA,4.32,A,,V*4A
 
3.88630         ANGULO_LEME          iDivisorNMEA    4.32000      
3.90399         MSG_UDP              iDivisorNMEA    $MXPGN,00FF00,280B,0002000005049913*19
 
3.93400         MSG_UDP              iDivisorNMEA    $MXPGN,01FF2C,7808,FFFFFFFF9F411700*6B
 
3.93496         MSG_UDP              iDivisorNMEA    $MXPGN,01FF2C,7808,FFFF7FFFFFFF7F01*16
 
3.94517         MSG_UDP              iDivisorNMEA    $HCHDG,284.6,0.0,E,23.3,W*6A
 
3.95535         MSG_UDP              iDivisorNMEA    $GPHDT,261.32,T*01
 
3.96552         MSG_UDP              iDivisorNMEA    $TIROT,0.09,A*02
 
3.97586         MSG_UDP              iDivisorNMEA    $MXPGN,01FF2C,7808,FF7FFFFFFFFFFF02*64
 
3.98606         MSG_UDP              iDivisorNMEA    $MXPGN,01FF2C,7808,FFFFFFFF7FFFFF03*65
 
3.99623         MSG_UDP              iDivisorNMEA    $MXPGN,01F803,281C,000000000000A001*14
 
4.00640         MSG_UDP              iDivisorNMEA    $MXPGN,01F804,281C,00000032E6C1A001*13
 
4.01653         MSG_UDP              iDivisorNMEA    $MXPGN,00FF3D,6808,7FFFFF0DFFFF9F41*6E
 
4.02675         MSG_UDP              iDivisorNMEA    $AGRSA,4.32,A,,V*4A
 
4.02680         ANGULO_LEME          iDivisorNMEA    4.32000      
4.03688         MSG_UDP              iDivisorNMEA    $MXPGN,01FF1A,782B,FFFAFF859F410500*1B
 
4.04702         MSG_UDP              iDivisorNMEA    $MXPGN,00FF3C,3808,8000F8FE00009F41*1C
 
4.05716         MSG_UDP              iDivisorNMEA    $GPGGA,140913.200,2254.75279,S,04309.53859,W,1,07,2.00,-1.37,M,-5.00,M,,*59
 
4.06733         MSG_UDP              iDivisorNMEA    $GPGLL,2254.75279,S,04309.53859,W,140913.200,A,A*59
 
4.07747         MSG_UDP              iDivisorNMEA    $GPRMC,140913.200,A,2254.75279,S,04309.53859,W,0.01,74.65,060323,23.39,W,A*29
 
4.08760         MSG_UDP              iDivisorNMEA    $GPVTG,74.65,T,,M,0.01,N,0.01,K,A*0D
 
4.09775         MSG_UDP              iDivisorNMEA    $HCHDG,284.6,0.0,E,23.3,W*6A
 
4.10791         MSG_UDP              iDivisorNMEA    $GPHDT,261.32,T*01
 
4.11805         MSG_UDP              iDivisorNMEA    $TIROT,0.09,A*02
 
4.12815         MSG_UDP              iDivisorNMEA    $GPGSA,A,3,01,08,10,16,18,21,23,,,,,,2.56,2.00,2.00*07
 
4.13827         MSG_UDP              iDivisorNMEA    $GPGSV,2,1,07,01,02,224,00,08,45,255,48,10,32,140,00,16,04,325,39*75
 
4.14840         MSG_UDP              iDivisorNMEA    $GPGSV,2,2,07,18,11,060,42,21,20,217,00,23,08,116,00*4D
 
4.15852         MSG_UDP              iDivisorNMEA    $MXPGN,01FA06,681C,8B012200C8020F40*6C
 
4.16866         MSG_UDP              iDivisorNMEA    $MXPGN,01FA06,681C,008B0122F3DD0041*17
 
4.17876         MSG_UDP              iDivisorNMEA    $MXPGN,01FA06,681C,FFFFFFFFFF01A242*68
 
4.18886         MSG_UDP              iDivisorNMEA    $MXPGN,01F803,281C,0000000000001403*62
 
4.19901         MSG_UDP              iDivisorNMEA    $MXPGN,01F804,281C,00000010CAC11403*14
 
4.20912         MSG_UDP              iDivisorNMEA    $GPGGA,140913.000,2254.75187,S,04309.53961,W,1,12,1.00,2.09,M,-5.60,M,,*71
 
4.21925         MSG_UDP              iDivisorNMEA    $GPGLL,2254.75187,S,04309.53961,W,140913.000,A,A*53
 
4.22936         MSG_UDP              iDivisorNMEA    $GPRMC,140913.000,A,2254.75187,S,04309.53961,W,0.29,337.89,060323,23.30,W,A*16
 
4.23950         MSG_UDP              iDivisorNMEA    $GPVTG,337.89,T,,M,0.29,N,0.53,K,A*36
 
4.24963         MSG_UDP              iDivisorNMEA    $AGRSA,4.32,A,,V*4A
 
4.24965         ANGULO_LEME          iDivisorNMEA    4.32000      
4.25976         MSG_UDP              iDivisorNMEA    $HCHDG,284.6,0.0,E,23.3,W*6A
 
4.26993         MSG_UDP              iDivisorNMEA    $GPHDT,261.31,T*02
 
4.28012         MSG_UDP              iDivisorNMEA    $TIROT,-0.09,A*2F
 
4.29025         MSG_UDP              iDivisorNMEA    $MXPGN,00FF16,7808,FF0000002B0A9F41*1B
 
4.30036         MSG_UDP              iDivisorNMEA    $MXPGN,00FF00,280B,0002000005049913*19
 
4.31050         MSG_UDP              iDivisorNMEA    $MXPGN,01F803,281C,0000000000002804*6A
 
4.32064         MSG_UDP              iDivisorNMEA    $MXPGN,01F804,281C,00000010CAC12804*1C
 
4.33079         MSG_UDP              iDivisorNMEA    $MXPGN,00FF19,7808,0000000202009F41*15
 
4.34093         MSG_UDP              iDivisorNMEA    $MXPGN,00FF19,7808,0080000A0A009F41*1D
 
4.35103         MSG_UDP              iDivisorNMEA    $AGRSA,4.32,A,,V*4A
 
4.35107         ANGULO_LEME          iDivisorNMEA    4.32000      
4.36118         MSG_UDP              iDivisorNMEA    $GPGSA,A,3,08,10,16,18,27,28,31,32,65,85,86,72,1.70,1.00,1.40*0E
 
4.37136         MSG_UDP              iDivisorNMEA    $GPGSV,3,1,12,08,45,255,40,10,32,140,31,16,05,326,34,18,11,060,30*7E
 
4.38147         MSG_UDP              iDivisorNMEA    $GPGSV,3,2,12,27,56,312,40,28,27,038,42,31,22,027,40,32,67,138,47*71
 
4.39160         MSG_UDP              iDivisorNMEA    $GPGSV,3,3,12,65,26,297,39,85,26,036,43,86,70,073,43,72,61,231,39*72
 
4.40171         MSG_UDP              iDivisorNMEA    $MXPGN,00FF8C,6808,FFF10695FA149F41*18
 
4.41186         MSG_UDP              iDivisorNMEA    $HCHDG,284.6,0.0,E,23.3,W*6A
 
4.42214         MSG_UDP              iDivisorNMEA    $GPHDT,261.32,T*01
 
4.60494         MSG_UDP              iDivisorNMEA    $MXPGN,01FF1A,680B,FF022B849F410540*68
 
4.61601         MSG_UDP              iDivisorNMEA    $MXPGN,01FF1A,782B,FF010B049F410500*66
 
4.63597         MSG_UDP              iDivisorNMEA    $HCHDG,284.6,0.0,E,23.3,W*6A
 
4.63623         MSG_UDP              iDivisorNMEA    $GPHDT,261.29,T*0B
 
4.64643         MSG_UDP              iDivisorNMEA    $TIROT,0.09,A*02
 
4.65662         MSG_UDP              iDivisorNMEA    $MXPGN,00FF00,280B,0002000005049913*19
 
4.66677         MSG_UDP              iDivisorNMEA    $MXPGN,01F803,281C,0000000000008C09*16
 
4.67691         MSG_UDP              iDivisorNMEA    $MXPGN,01F804,281C,00000031B1C18C09*12
 
4.68708         MSG_UDP              iDivisorNMEA    $AGRSA,4.32,A,,V*4A
 
4.68710         ANGULO_LEME          iDivisorNMEA    4.32000      
4.69725         MSG_UDP              iDivisorNMEA    !AIVDM,1,1,,A,16:>J;?P00LrE:Ijr;3m@OvN05hT,0*40
 
4.73597         MSG_UDP              iDivisorNMEA    $HCHDG,284.6,0.0,E,23.3,W*6A
 
4.73616         MSG_UDP              iDivisorNMEA    $GPHDT,261.29,T*0B
 
4.74644         MSG_UDP              iDivisorNMEA    $TIROT,-0.29,A*2D
 
4.75663         MSG_UDP              iDivisorNMEA    $MXPGN,01F803,281C,000000000000A00A*64
 
4.76678         MSG_UDP              iDivisorNMEA    $MXPGN,01F804,281C,00000052ABC1A00A*15
 
4.77691         MSG_UDP              iDivisorNMEA    $MXPGN,01FF0D,780B,FF03000098900500*66
 
4.78705         MSG_UDP              iDivisorNMEA    $AGRSA,4.32,A,,V*4A
 
4.78709         ANGULO_LEME          iDivisorNMEA    4.32000      
4.83391         MSG_UDP              iDivisorNMEA    $MXPGN,00FF28,3808,FF08FFFDFC059F41*19
 
4.83597         MSG_UDP              iDivisorNMEA    $HCHDG,284.6,0.0,E,23.3,W*6A
 
4.84418         MSG_UDP              iDivisorNMEA    $GPHDT,261.28,T*0A
 
4.85438         MSG_UDP              iDivisorNMEA    $TIROT,-0.29,A*2D
 
4.86457         MSG_UDP              iDivisorNMEA    $MXPGN,01F803,281C,000000000000B40B*60
 
4.87476         MSG_UDP              iDivisorNMEA    $MXPGN,01F804,281C,00000052ABC1B40B*11
 
4.88495         MSG_UDP              iDivisorNMEA    !AIVDM,1,1,,A,1:U6v;g000LrHUujpgV=JWip0d1b,0*17
 
4.89511         MSG_UDP              iDivisorNMEA    $AGRSA,4.32,A,,V*4A
 
4.89513         ANGULO_LEME          iDivisorNMEA    4.32000      
4.90529         MSG_UDP              iDivisorNMEA    $MXPGN,00FF00,280B,0002000005049913*19
 
4.93395         MSG_UDP              iDivisorNMEA    $MXPGN,01FF2C,7808,FFFFFFFF9F411720*69
 
4.93492         MSG_UDP              iDivisorNMEA    $MXPGN,01FF2C,7808,FFFF7FFFFFFF7F21*14
 
4.94512         MSG_UDP              iDivisorNMEA    $MXPGN,01FF2C,7808,FF7FFFFFFFFFFF22*66
 
4.95531         MSG_UDP              iDivisorNMEA    $HCHDG,284.6,0.0,E,23.3,W*6A
 
4.96549         MSG_UDP              iDivisorNMEA    $GPHDT,261.27,T*05
 
4.97569         MSG_UDP              iDivisorNMEA    $TIROT,-0.29,A*2D
 
4.98586         MSG_UDP              iDivisorNMEA    $MXPGN,01FF2C,7808,FFFFFFFF7FFFFF23*67
 
4.99605         MSG_UDP              iDivisorNMEA    $MXPGN,01F803,281C,000000000000C80C*6C
 
5.00622         MSG_UDP              iDivisorNMEA    $MXPGN,01F804,281C,00000052ABC1C80C*1D
 
5.01640         MSG_UDP              iDivisorNMEA    $MXPGN,00FF3D,6808,7FFFFF0DFFFF9F41*6E
 
5.02652         MSG_UDP              iDivisorNMEA    $AGRSA,4.32,A,,V*4A
 
5.02657         ANGULO_LEME          iDivisorNMEA    4.32000      
5.03666         MSG_UDP              iDivisorNMEA    $MXPGN,00FF3C,3808,8000F8FE00009F41*1C
 
5.04686         MSG_UDP              iDivisorNMEA    $GPGGA,140914.200,2254.75279,S,04309.53859,W,1,07,2.00,-1.37,M,-5.00,M,,*5E
 
5.05703         MSG_UDP              iDivisorNMEA    $GPGLL,2254.75279,S,04309.53859,W,140914.200,A,A*5E
 
5.06720         MSG_UDP              iDivisorNMEA    $GPRMC,140914.200,A,2254.75279,S,04309.53859,W,0.01,121.25,060323,23.39,W,A*1B
 
5.07740         MSG_UDP              iDivisorNMEA    $GPVTG,121.25,T,,M,0.01,N,0.01,K,A*38
 
5.08759         MSG_UDP              iDivisorNMEA    $HCHDG,284.6,0.0,E,23.3,W*6A
 
5.09777         MSG_UDP              iDivisorNMEA    $GPHDT,261.27,T*05
 
5.10794         MSG_UDP              iDivisorNMEA    $TIROT,-0.09,A*2F
 
5.11835         MSG_UDP              iDivisorNMEA    $GPGSA,A,3,01,08,10,16,18,21,23,,,,,,2.56,2.00,2.00*07
 
5.12851         MSG_UDP              iDivisorNMEA    $GPGSV,2,1,07,01,02,224,00,08,45,255,48,10,32,140,00,16,04,325,39*75
 
5.13878         MSG_UDP              iDivisorNMEA    $GPGSV,2,2,07,18,11,060,42,21,20,217,00,23,08,116,00*4D
 
5.14896         MSG_UDP              iDivisorNMEA    $MXPGN,01FA06,681C,8B012200C80C0F60*1F
 
5.15912         MSG_UDP              iDivisorNMEA    $MXPGN,01FA06,681C,008B0122F3DD0061*15
 
5.16928         MSG_UDP              iDivisorNMEA    $MXPGN,01FA06,681C,FFFFFFFFFF01A262*6A
 
5.17949         MSG_UDP              iDivisorNMEA    $MXPGN,01F803,281C,000000000000000C*17
 
5.18967         MSG_UDP              iDivisorNMEA    $MXPGN,01F804,281C,0000003CCBC1000C*13
 
5.19986         MSG_UDP              iDivisorNMEA    $AGRSA,4.32,A,,V*4A
 
5.19991         ANGULO_LEME          iDivisorNMEA    4.32000      
5.21001         MSG_UDP              iDivisorNMEA    $GPGGA,140914.000,2254.75193,S,04309.53949,W,1,12,1.00,2.03,M,-5.60,M,,*73
 
5.22018         MSG_UDP              iDivisorNMEA    $GPGLL,2254.75193,S,04309.53949,W,140914.000,A,A*5B
 
5.23039         MSG_UDP              iDivisorNMEA    $GPRMC,140914.000,A,2254.75193,S,04309.53949,W,0.29,310.29,060323,23.30,W,A*11
 
5.24057         MSG_UDP              iDivisorNMEA    $GPVTG,310.29,T,,M,0.29,N,0.53,K,A*39
 
5.25080         MSG_UDP              iDivisorNMEA    $HCHDG,284.6,0.0,E,23.3,W*6A
 
5.26096         MSG_UDP              iDivisorNMEA    $GPHDT,261.27,T*05
 
5.27113         MSG_UDP              iDivisorNMEA    $TIROT,-0.09,A*2F
 
5.28134         MSG_UDP              iDivisorNMEA    $MXPGN,00FF16,7808,FF0000002B0A9F41*1B
 
5.29151         MSG_UDP              iDivisorNMEA    $MXPGN,01F803,281C,000000000000140D*15
 
5.30169         MSG_UDP              iDivisorNMEA    $MXPGN,00FF00,280B,0002000005049913*19
 
5.53597         MSG_UDP              iDivisorNMEA    $HCHDG,284.6,0.0,E,23.3,W*6A
 
5.53648         MSG_UDP              iDivisorNMEA    $GPHDT,261.33,T*00
 
5.54671         MSG_UDP              iDivisorNMEA    $TIROT,0.39,A*01
 
5.55690         MSG_UDP              iDivisorNMEA    $MXPGN,01F803,281C,0000000000007812*68
 
5.56702         MSG_UDP              iDivisorNMEA    $MXPGN,01F804,281C,0000640DCAC17812*69
 
5.58484         MSG_UDP              iDivisorNMEA    $AGRSA,4.32,A,,V*4A
 
5.58489         ANGULO_LEME          iDivisorNMEA    4.32000      
5.58798         MSG_UDP              iDivisorNMEA    $SDDPT,1.76,0.00,*7B
 
5.60486         MSG_UDP              iDivisorNMEA    $MXPGN,01FF1A,680B,FF022B849F410560*6A
 
5.61597         MSG_UDP              iDivisorNMEA    $MXPGN,01FF1A,782B,FF010B049F410520*64
 
5.63593         MSG_UDP              iDivisorNMEA    $HCHDG,284.7,0.0,E,23.3,W*6B
 
5.63630         MSG_UDP              iDivisorNMEA    $GPHDT,261.35,T*06
 
5.64650         MSG_UDP              iDivisorNMEA    $TIROT,0.39,A*01
 
5.65683         MSG_UDP              iDivisorNMEA    $MXPGN,00FF00,280B,0002000005049913*19
 
5.66704         MSG_UDP              iDivisorNMEA    $MXPGN,01F803,281C,0000000000008C13*1D
 
5.67723         MSG_UDP              iDivisorNMEA    $MXPGN,01F804,281C,0000640DCAC18C13*1C
 
5.68741         MSG_UDP              iDivisorNMEA    !AIVDM,1,1,,B,1:U6vLPP00trHf=jpdo9gwvL2<2:,0*66
 
5.69757         MSG_UDP              iDivisorNMEA    $AGRSA,4.32,A,,V*4A
 
5.69760         ANGULO_LEME          iDivisorNMEA    4.32000      
5.72683         MSG_UDP              iDivisorNMEA    !AIVDM,1,1,,A,1:U7;pPP00LrGtmjpjW8LOvN25hT,0*7B
 
5.73595         MSG_UDP              iDivisorNMEA    $HCHDG,284.7,0.0,E,23.3,W*6B
 
5.73708         MSG_UDP              iDivisorNMEA    $GPHDT,261.35,T*06
 
5.74720         MSG_UDP              iDivisorNMEA    $TIROT,0.49,A*06
 
5.75734         MSG_UDP              iDivisorNMEA    $MXPGN,01F803,281C,000000000000A014*10
 
5.76749         MSG_UDP              iDivisorNMEA    $MXPGN,01F804,281C,0000648000C1A014*6F
 
5.77760         MSG_UDP              iDivisorNMEA    $MXPGN,01FF0D,780B,FF03000098900520*64
 
5.78775         MSG_UDP              iDivisorNMEA    $AGRSA,4.32,A,,V*4A
 
5.78780         ANGULO_LEME          iDivisorNMEA    4.32000      
5.83389         MSG_UDP              iDivisorNMEA    $MXPGN,00FF28,3808,FF08FFFDFC059F41*19
 
5.83595         MSG_UDP              iDivisorNMEA    $HCHDG,284.7,0.0,E,23.3,W*6B
 
5.84413         MSG_UDP              iDivisorNMEA    $GPHDT,261.35,T*06
 
5.85432         MSG_UDP              iDivisorNMEA    $TIROT,0.49,A*06
 
5.86449         MSG_UDP              iDivisorNMEA    $MXPGN,01F803,281C,000000000000B415*16
 
5.87468         MSG_UDP              iDivisorNMEA    $MXPGN,01F804,281C,0000648000C1B415*69
 
5.88482         MSG_UDP              iDivisorNMEA    $AGRSA,4.32,A,,V*4A
 
5.88488         ANGULO_LEME          iDivisorNMEA    4.32000      
5.90395         MSG_UDP              iDivisorNMEA    $MXPGN,00FF00,280B,0002000005049913*19
 
5.93392         MSG_UDP              iDivisorNMEA    $MXPGN,01FF2C,7808,FFFFFFFF9F411740*6F
 
5.93507         MSG_UDP              iDivisorNMEA    $MXPGN,01FF2C,7808,FFFF7FFFFFFF7F41*12
 
5.94428         MSG_UDP              iDivisorNMEA    $HCHDG,284.7,0.0,E,23.3,W*6B
 
5.95441         MSG_UDP              iDivisorNMEA    $GPHDT,261.35,T*06
 
5.96462         MSG_UDP              iDivisorNMEA    $TIROT,0.19,A*03
 
5.97481         MSG_UDP              iDivisorNMEA    $MXPGN,01FF2C,7808,FF7FFFFFFFFFFF42*60
 
5.98499         MSG_UDP              iDivisorNMEA    $MXPGN,01FF2C,7808,FFFFFFFF7FFFFF43*61
 
5.99515         MSG_UDP              iDivisorNMEA    $MXPGN,01F803,281C,000000000000C816*18
 
6.00527         MSG_UDP              iDivisorNMEA    $MXPGN,01F804,281C,0000645A7AC1C816*6D
 
6.01544         MSG_UDP              iDivisorNMEA    $MXPGN,00FF3D,6808,7FFFFF0DFFFF9F41*6E
 
6.02565         MSG_UDP              iDivisorNMEA    $AGRSA,4.32,A,,V*4A
 
6.02567         ANGULO_LEME          iDivisorNMEA    4.32000      
6.03584         MSG_UDP              iDivisorNMEA    $MXPGN,00FF3C,3808,8000F8FE00009F41*1C
 
6.04601         MSG_UDP              iDivisorNMEA    $GPGGA,140915.300,2254.75279,S,04309.53859,W,1,07,2.00,-1.24,M,-5.00,M,,*5C
 
6.05620         MSG_UDP              iDivisorNMEA    $GPGLL,2254.75279,S,04309.53859,W,140915.300,A,A*5E
 
6.06637         MSG_UDP              iDivisorNMEA    $GPRMC,140915.300,A,2254.75279,S,04309.53859,W,0.03,132.70,060323,23.39,W,A*1B
 
6.07658         MSG_UDP              iDivisorNMEA    $GPVTG,132.70,T,,M,0.03,N,0.05,K,A*3C
 
6.08672         MSG_UDP              iDivisorNMEA    $HCHDG,284.7,0.0,E,23.3,W*6B
 
6.09686         MSG_UDP              iDivisorNMEA    $GPHDT,261.36,T*05
 
6.10703         MSG_UDP              iDivisorNMEA    $TIROT,0.19,A*03
 
6.11721         MSG_UDP              iDivisorNMEA    $GPGSA,A,3,01,08,10,16,18,21,23,,,,,,2.56,2.00,2.00*07
 
6.12768         MSG_UDP              iDivisorNMEA    $GPGSV,2,1,07,01,02,224,00,08,45,255,48,10,32,140,00,16,04,325,39*75
 
6.13788         MSG_UDP              iDivisorNMEA    $GPGSV,2,2,07,18,11,060,43,21,20,217,00,23,08,116,00*4C
 
6.14807         MSG_UDP              iDivisorNMEA    $MXPGN,01FA06,681C,8B012200C8170F80*64
 
6.15821         MSG_UDP              iDivisorNMEA    $MXPGN,01FA06,681C,008B0122F3DD0081*1B
 
6.16843         MSG_UDP              iDivisorNMEA    $MXPGN,01FA06,681C,FFFFFFFFFF01A282*64
 
6.17855         MSG_UDP              iDivisorNMEA    $MXPGN,01F803,281C,0000000000000017*62
 
6.18876         MSG_UDP              iDivisorNMEA    $MXPGN,01F804,281C,0000005A7AC10017*15
 
6.19892         MSG_UDP              iDivisorNMEA    $AGRSA,4.32,A,,V*4A
 
6.19894         ANGULO_LEME          iDivisorNMEA    4.32000      
6.20905         MSG_UDP              iDivisorNMEA    $GPGGA,140915.000,2254.75199,S,04309.53943,W,1,12,1.00,1.76,M,-5.60,M,,*73
 
6.21922         MSG_UDP              iDivisorNMEA    $GPGLL,2254.75199,S,04309.53943,W,140915.000,A,A*5A
 
6.22937         MSG_UDP              iDivisorNMEA    $GPRMC,140915.000,A,2254.75199,S,04309.53943,W,0.19,354.09,060323,23.30,W,A*11
 
6.40442         MSG_UDP              iDivisorNMEA    $MXPGN,00FF00,280B,0002000005049913*19
 
6.43612         MSG_UDP              iDivisorNMEA    $HCHDG,284.6,0.0,E,23.3,W*6A
 
6.43629         MSG_UDP              iDivisorNMEA    $GPHDT,261.34,T*07
 
6.44661         MSG_UDP              iDivisorNMEA    $TIROT,0.39,A*01
 
6.45685         MSG_UDP              iDivisorNMEA    $MXPGN,01F803,281C,000000000000501B*12
 
6.46728         MSG_UDP              iDivisorNMEA    $MXPGN,01F804,281C,000000F0D4C1501B*61
 
6.48496         MSG_UDP              iDivisorNMEA    $AGRSA,4.32,A,,V*4A
 
6.48504         ANGULO_LEME          iDivisorNMEA    4.32000      
6.53609         MSG_UDP              iDivisorNMEA    $HCHDG,284.6,0.0,E,23.3,W*6A
 
6.53620         MSG_UDP              iDivisorNMEA    $GPHDT,261.33,T*00
 
6.54644         MSG_UDP              iDivisorNMEA    $TIROT,0.09,A*02
 
6.55667         MSG_UDP              iDivisorNMEA    $MXPGN,01F803,281C,000000000000641C*14
 
6.56687         MSG_UDP              iDivisorNMEA    $MXPGN,01F804,281C,000000F0D4C1641C*67
 
6.58491         MSG_UDP              iDivisorNMEA    $AGRSA,4.32,A,,V*4A
 
6.58504         ANGULO_LEME          iDivisorNMEA    4.32000      
6.58723         MSG_UDP              iDivisorNMEA    $SDDPT,1.76,0.00,*7B
 
6.60500         MSG_UDP              iDivisorNMEA    $MXPGN,01FF1A,680B,FF022B849F410580*64
 
6.60835         MSG_UDP              iDivisorNMEA    !AIVDM,1,1,,A,1:U7?1@P00trH?Ejq@r8pgvN20Sr,0*78
 
6.62611         MSG_UDP              iDivisorNMEA    $MXPGN,01FF1A,782B,FF010B049F410540*62
 
6.63604         MSG_UDP              iDivisorNMEA    $HCHDG,284.6,0.0,E,23.3,W*6A
 
6.64032         MSG_UDP              iDivisorNMEA    $GPHDT,261.34,T*07
 
6.65057         MSG_UDP              iDivisorNMEA    $TIROT,0.09,A*02
 
6.66078         MSG_UDP              iDivisorNMEA    $MXPGN,00FF00,280B,0002000005049913*19
 
6.67107         MSG_UDP              iDivisorNMEA    $MXPGN,01F803,281C,000000000000781D*1E
 
6.68138         MSG_UDP              iDivisorNMEA    $MXPGN,01F804,281C,000000F0D4C1781D*6D
 
6.69171         MSG_UDP              iDivisorNMEA    $AGRSA,4.32,A,,V*4A
 
6.69178         ANGULO_LEME          iDivisorNMEA    4.32000      
6.73615         MSG_UDP              iDivisorNMEA    $HCHDG,284.6,0.0,E,23.3,W*6A
 
6.73625         MSG_UDP              iDivisorNMEA    $GPHDT,261.34,T*07
 
6.74649         MSG_UDP              iDivisorNMEA    $TIROT,-0.09,A*2F
 
6.75674         MSG_UDP              iDivisorNMEA    $MXPGN,01F803,281C,0000000000008C1E*6B
 
6.76698         MSG_UDP              iDivisorNMEA    $MXPGN,01F804,281C,00000073A9C18C1E*62
 
6.78505         MSG_UDP              iDivisorNMEA    $AGRSA,4.32,A,,V*4A
 
6.78532         ANGULO_LEME          iDivisorNMEA    4.32000      
6.80824         MSG_UDP              iDivisorNMEA    $MXPGN,01FF0D,780B,FF03000098900540*62
 
6.83407         MSG_UDP              iDivisorNMEA    $MXPGN,00FF28,3808,FF08FFFDFC059F41*19
 
6.83608         MSG_UDP              iDivisorNMEA    $HCHDG,284.6,0.0,E,23.3,W*6A
 
6.84441         MSG_UDP              iDivisorNMEA    $GPHDT,261.33,T*00
 
6.85468         MSG_UDP              iDivisorNMEA    $TIROT,-0.09,A*2F
 
6.86491         MSG_UDP              iDivisorNMEA    $MXPGN,01F803,281C,000000000000A01F*62
 
6.87526         MSG_UDP              iDivisorNMEA    $MXPGN,01F804,281C,00000073A9C1A01F*6B
 
6.88557         MSG_UDP              iDivisorNMEA    $AGRSA,4.32,A,,V*4A
 
6.88566         ANGULO_LEME          iDivisorNMEA    4.32000      
6.90443         MSG_UDP              iDivisorNMEA    $MXPGN,00FF00,280B,0002000005049913*19
 
6.93404         MSG_UDP              iDivisorNMEA    $MXPGN,01FF2C,7808,FFFFFFFF9F411760*6D
 
6.93504         MSG_UDP              iDivisorNMEA    $MXPGN,01FF2C,7808,FFFF7FFFFFFF7F61*10
 
6.94532         MSG_UDP              iDivisorNMEA    $MXPGN,01FF2C,7808,FF7FFFFFFFFFFF62*62
 
6.95558         MSG_UDP              iDivisorNMEA    $HCHDG,284.6,0.0,E,23.3,W*6A
 
6.96584         MSG_UDP              iDivisorNMEA    $GPHDT,261.33,T*00
 
6.97613         MSG_UDP              iDivisorNMEA    $TIROT,-0.09,A*2F
 
6.98644         MSG_UDP              iDivisorNMEA    $MXPGN,01FF2C,7808,FFFFFFFF7FFFFF63*63
 
6.99681         MSG_UDP              iDivisorNMEA    $MXPGN,01F803,281C,000000000000A01F*62
 
7.00715         MSG_UDP              iDivisorNMEA    $MXPGN,01F804,281C,00000073A9C1A01F*6B
 
7.01751         MSG_UDP              iDivisorNMEA    $MXPGN,00FF3D,6808,7FFFFF0DFFFF9F41*6E
 
7.02783         MSG_UDP              iDivisorNMEA    $AGRSA,4.32,A,,V*4A
 
7.02793         ANGULO_LEME          iDivisorNMEA    4.32000      
7.03812         MSG_UDP              iDivisorNMEA    $MXPGN,01FF1A,782B,FFFAFF859F410560*1D
 
7.04842         MSG_UDP              iDivisorNMEA    $MXPGN,00FF3C,3808,8000F8FE00009F41*1C
 
7.05873         MSG_UDP              iDivisorNMEA    $GPGGA,140916.200,2254.75279,S,04309.53859,W,1,07,2.00,-1.24,M,-5.00,M,,*5E
 
7.06904         MSG_UDP              iDivisorNMEA    $GPGLL,2254.75279,S,04309.53859,W,140916.200,A,A*5C
 
7.07936         MSG_UDP              iDivisorNMEA    $GPRMC,140916.200,A,2254.75279,S,04309.53859,W,0.03,169.64,060323,23.39,W,A*12
 
7.08972         MSG_UDP              iDivisorNMEA    $GPVTG,169.64,T,,M,0.03,N,0.05,K,A*37
 
7.10003         MSG_UDP              iDivisorNMEA    $HCHDG,284.6,0.0,E,23.3,W*6A
 
7.11035         MSG_UDP              iDivisorNMEA    $GPHDT,261.33,T*00
 
7.12064         MSG_UDP              iDivisorNMEA    $TIROT,-0.09,A*2F
 
7.13137         MSG_UDP              iDivisorNMEA    $GPGSA,A,3,01,08,10,16,18,21,23,,,,,,2.56,2.00,2.00*07
 
7.14178         MSG_UDP              iDivisorNMEA    $GPGSV,2,1,07,01,02,224,00,08,45,255,48,10,32,140,00,16,04,325,39*75
 
7.15216         MSG_UDP              iDivisorNMEA    $GPGSV,2,2,07,18,11,060,43,21,20,217,00,23,08,116,00*4C
 
7.16250         MSG_UDP              iDivisorNMEA    $MXPGN,01FA06,681C,8B012200C8200FA0*19
 
7.17281         MSG_UDP              iDivisorNMEA    $MXPGN,01FA06,681C,008B0122F3E000A1*17
 
7.28606         MSG_UDP              iDivisorNMEA    $GPGGA,,2254.76279,S,04309.53659,W,1,,,,M,,M,,*5D
 
7.28711         MSG_UDP              iDivisorNMEA    $GPGLL,2254.76279,S,04309.53659,W,,A,A*46
 
7.29737         MSG_UDP              iDivisorNMEA    $GPVTG,7.40,T,,M,1.00,N,1.85,K,A*33
 
7.30765         MSG_UDP              iDivisorNMEA    $AGRSA,4.32,A,,V*4A
 
7.30771         ANGULO_LEME          iDivisorNMEA    4.32000      
7.33611         MSG_UDP              iDivisorNMEA    $HCHDG,284.7,0.0,E,23.3,W*6B
 
7.33622         MSG_UDP              iDivisorNMEA    $GPHDT,261.39,T*0A
 
7.34648         MSG_UDP              iDivisorNMEA    $TIROT,0.00,A*0B
 
7.35677         MSG_UDP              iDivisorNMEA    $MXPGN,01F803,281C,0000000000005024*67
 
7.36704         MSG_UDP              iDivisorNMEA    $MXPGN,01F804,281C,000000572AC15024*63
 
7.38504         MSG_UDP              iDivisorNMEA    $AGRSA,4.32,A,,V*4A
 
7.38511         ANGULO_LEME          iDivisorNMEA    4.32000      
7.38832         MSG_UDP              iDivisorNMEA    $GPZDA,140915.690,06,03,2023,,*57
 
7.43632         MSG_UDP              iDivisorNMEA    $HCHDG,284.7,0.0,E,23.3,W*6B
 
7.43651         MSG_UDP              iDivisorNMEA    $GPHDT,261.40,T*04
 
7.44686         MSG_UDP              iDivisorNMEA    $TIROT,0.00,A*0B
 
7.45718         MSG_UDP              iDivisorNMEA    $MXPGN,00FF00,280B,0002000005049913*19
 
7.46742         MSG_UDP              iDivisorNMEA    $MXPGN,01F803,281C,0000000000006425*61
 
7.47770         MSG_UDP              iDivisorNMEA    $MXPGN,01F804,281C,000000DB9CC16425*68
 
7.48796         MSG_UDP              iDivisorNMEA    $AGRSA,4.32,A,,V*4A
 
7.48804         ANGULO_LEME          iDivisorNMEA    4.32000      
7.53602         MSG_UDP              iDivisorNMEA    $HCHDG,284.7,0.0,E,23.3,W*6B
 
7.53618         MSG_UDP              iDivisorNMEA    $GPHDT,261.40,T*04
 
7.54646         MSG_UDP              iDivisorNMEA    $TIROT,0.00,A*0B
 
7.55672         MSG_UDP              iDivisorNMEA    $MXPGN,01F803,281C,0000000000007826*6F
 
7.56693         MSG_UDP              iDivisorNMEA    $MXPGN,01F804,281C,000000DB9CC17826*66
 
7.58494         MSG_UDP              iDivisorNMEA    $AGRSA,4.32,A,,V*4A
 
7.58503         ANGULO_LEME          iDivisorNMEA    4.32000      
7.58825         MSG_UDP              iDivisorNMEA    $SDDPT,1.76,0.00,*7B
 
7.61435         MSG_UDP              iDivisorNMEA    $MXPGN,01FF1A,680B,FF022B849F4105A0*1D
 
7.62625         MSG_UDP              iDivisorNMEA    $MXPGN,01FF1A,782B,FF010B049F410560*60
 
7.63615         MSG_UDP              iDivisorNMEA    $HCHDG,284.7,0.0,E,23.3,W*6B
 
7.63681         MSG_UDP              iDivisorNMEA    $GPHDT,261.40,T*04
 
7.64714         MSG_UDP              iDivisorNMEA    $TIROT,0.00,A*0B
 
7.65743         MSG_UDP              iDivisorNMEA    $MXPGN,01F803,281C,0000000000008C27*1A
 
7.66791         MSG_UDP              iDivisorNMEA    $MXPGN,01F804,281C,000000DB9CC18C27*13
 
7.68504         MSG_UDP              iDivisorNMEA    $AGRSA,4.32,A,,V*4A
 
7.68512         ANGULO_LEME          iDivisorNMEA    4.32000      
7.68899         MSG_UDP              iDivisorNMEA    $MXPGN,00FF00,280B,0002000005049913*19
 
7.73603         MSG_UDP              iDivisorNMEA    $HCHDG,284.7,0.0,E,23.3,W*6B
 
7.73619         MSG_UDP              iDivisorNMEA    $GPHDT,261.40,T*04
 
7.74651         MSG_UDP              iDivisorNMEA    $TIROT,0.00,A*0B
 
7.75688         MSG_UDP              iDivisorNMEA    $MXPGN,01F803,281C,000000000000A028*1F
 
7.76740         MSG_UDP              iDivisorNMEA    $MXPGN,01F804,281C,000000074DC1A028*1D
 
7.78504         MSG_UDP              iDivisorNMEA    $AGRSA,4.32,A,,V*4A
 
7.78514         ANGULO_LEME          iDivisorNMEA    4.32000      
7.81701         MSG_UDP              iDivisorNMEA    $MXPGN,01FF0D,780B,FF03000098900560*60
 
7.83411         MSG_UDP              iDivisorNMEA    $MXPGN,00FF28,3808,FF08FFFDFC059F41*19
 
7.83603         MSG_UDP              iDivisorNMEA    $HCHDG,284.7,0.0,E,23.3,W*6B
 
7.84532         MSG_UDP              iDivisorNMEA    $GPHDT,261.41,T*05
 
7.85561         MSG_UDP              iDivisorNMEA    $TIROT,0.00,A*0B
 
7.86587         MSG_UDP              iDivisorNMEA    $MXPGN,01F803,281C,000000000000B429*19
 
7.87615         MSG_UDP              iDivisorNMEA    $MXPGN,01F804,281C,000000074DC1B429*1B
 
7.88646         MSG_UDP              iDivisorNMEA    $AGRSA,4.32,A,,V*4A
 
7.88651         ANGULO_LEME          iDivisorNMEA    4.32000      
7.93410         MSG_UDP              iDivisorNMEA    $MXPGN,01FF2C,7808,FFFFFFFF9F411780*63
 
7.93508         MSG_UDP              iDivisorNMEA    $MXPGN,01FF2C,7808,FFFF7FFFFFFF7F81*1E
 
7.94536         MSG_UDP              iDivisorNMEA    $MXPGN,01FF2C,7808,FF7FFFFFFFFFFF82*6C
 
7.95565         MSG_UDP              iDivisorNMEA    $HCHDG,284.7,0.0,E,23.3,W*6B
 
7.96595         MSG_UDP              iDivisorNMEA    $GPHDT,261.42,T*06
 
7.97629         MSG_UDP              iDivisorNMEA    $TIROT,0.00,A*0B
 
7.98671         MSG_UDP              iDivisorNMEA    $MXPGN,01FF2C,7808,FFFFFFFF7FFFFF83*6D
 
7.99708         MSG_UDP              iDivisorNMEA    $MXPGN,00FF00,280B,0002000005049913*19
 
8.00732         MSG_UDP              iDivisorNMEA    $MXPGN,01F803,281C,000000000000C82A*6C
 
8.01763         MSG_UDP              iDivisorNMEA    $MXPGN,01F804,281C,0000007A60C1C82A*69
 
8.02790         MSG_UDP              iDivisorNMEA    $MXPGN,00FF3D,6808,7FFFFF0DFFFF9F41*6E
 
8.03814         MSG_UDP              iDivisorNMEA    $MXPGN,00FF3D,6808,0000FF0BFFFF9F41*19
 
8.04837         MSG_UDP              iDivisorNMEA    $AGRSA,4.32,A,,V*4A
 
8.04848         ANGULO_LEME          iDivisorNMEA    4.32000      
8.05864         MSG_UDP              iDivisorNMEA    $MXPGN,00FF3D,6808,FFFFFF0CFFFF9F41*18
 
8.06887         MSG_UDP              iDivisorNMEA    $MXPGN,00FF3D,6808,FFFFFF03FFFF9F41*68
 
8.07909         MSG_UDP              iDivisorNMEA    $MXPGN,00FF3C,3808,8000F8FE00009F41*1C
 
8.18410         MSG_UDP              iDivisorNMEA    $MXPGN,00FF19,7808,0080000A0A009F41*1D
 
8.18497         MSG_UDP              iDivisorNMEA    $AGRSA,4.32,A,,V*4A
 
8.18507         ANGULO_LEME          iDivisorNMEA    4.32000      
8.19618         MSG_UDP              iDivisorNMEA    $GPGSA,A,3,08,10,16,18,27,28,31,32,65,85,86,72,1.70,1.00,1.40*0E
 
8.20546         MSG_UDP              iDivisorNMEA    $GPGSV,3,1,12,08,45,255,40,10,32,140,31,16,05,326,33,18,11,060,31*78
 
8.21578         MSG_UDP              iDivisorNMEA    $GPGSV,3,2,12,27,55,313,40,28,28,038,42,31,22,027,40,32,67,138,47*7C
 
8.22614         MSG_UDP              iDivisorNMEA    $GPGSV,3,3,12,65,26,297,39,85,26,036,42,86,70,072,43,72,61,231,39*72
 
8.23648         MSG_UDP              iDivisorNMEA    $MXPGN,00FF00,280B,0002000005049913*19
 
8.24685         MSG_UDP              iDivisorNMEA    $MXPGN,00FF8C,6808,FFF10695FA149F41*18
 
8.25711         MSG_UDP              iDivisorNMEA    $MXPGN,01FF22,2808,FF01FFFF9F410CA0*1A
 
8.26737         MSG_UDP              iDivisorNMEA    $MXPGN,01FF22,2808,FFFF00000A0039A1*68
 
8.27767         MSG_UDP              iDivisorNMEA    $HCHDG,284.7,0.0,E,23.3,W*6B
 
8.28795         MSG_UDP              iDivisorNMEA    $GPHDT,261.44,T*00
 
8.29820         MSG_UDP              iDivisorNMEA    $TIROT,-0.09,A*2F
 
8.30849         MSG_UDP              iDivisorNMEA    $MXPGN,01F803,281C,000000000000282D*18
 
8.31875         MSG_UDP              iDivisorNMEA    $MXPGN,01F804,281C,0000004D2EC1282D*6A
 
8.32895         MSG_UDP              iDivisorNMEA    $GPGGA,,2254.76279,S,04309.53659,W,1,,,,M,,M,,*5D
 
8.33944         MSG_UDP              iDivisorNMEA    $GPGLL,2254.76279,S,04309.53659,W,,A,A*46
 
8.34971         MSG_UDP              iDivisorNMEA    $GPVTG,7.40,T,,M,1.00,N,1.85,K,A*33
 
8.35992         MSG_UDP              iDivisorNMEA    $AGRSA,4.32,A,,V*4A
 
8.35998         ANGULO_LEME          iDivisorNMEA    4.32000      
8.37018         MSG_UDP              iDivisorNMEA    $HCHDG,284.7,0.0,E,23.3,W*6B
 
8.38045         MSG_UDP              iDivisorNMEA    $GPHDT,261.44,T*00
 
8.39073         MSG_UDP              iDivisorNMEA    $TIROT,-0.19,A*2E
 
8.40096         MSG_UDP              iDivisorNMEA    $MXPGN,01F803,281C,0000000000003C2E*63
 
8.41123         MSG_UDP              iDivisorNMEA    $MXPGN,01F804,281C,0000634D2EC13C2E*14
 
8.42149         MSG_UDP              iDivisorNMEA    $AGRSA,4.32,A,,V*4A
 
8.42155         ANGULO_LEME          iDivisorNMEA    4.32000      
8.43177         MSG_UDP              iDivisorNMEA    $GPZDA,140916.680,06,03,2023,,*55
 
8.44199         MSG_UDP              iDivisorNMEA    $HCHDG,284.8,0.0,E,23.3,W*64
 
8.45228         MSG_UDP              iDivisorNMEA    $GPHDT,261.45,T*01
 
8.46254         MSG_UDP              iDivisorNMEA    $TIROT,-0.19,A*2E
 
8.47278         MSG_UDP              iDivisorNMEA    $MXPGN,00FF00,280B,0002000005049913*19
 
8.48300         MSG_UDP              iDivisorNMEA    $MXPGN,01F803,281C,000000000000502F*15
 
8.49324         MSG_UDP              iDivisorNMEA    $MXPGN,01F804,281C,0000634562C1502F*60
 
8.50351         MSG_UDP              iDivisorNMEA    $AGRSA,4.32,A,,V*4A
 
8.50357         ANGULO_LEME          iDivisorNMEA    4.32000      
8.53607         MSG_UDP              iDivisorNMEA    $HCHDG,284.8,0.0,E,23.3,W*64
 
8.53624         MSG_UDP              iDivisorNMEA    $GPHDT,261.46,T*02
 
8.54662         MSG_UDP              iDivisorNMEA    $TIROT,-0.19,A*2E
 
8.55705         MSG_UDP              iDivisorNMEA    $MXPGN,01F803,281C,0000000000006430*65
 
8.56736         MSG_UDP              iDivisorNMEA    $MXPGN,01F804,281C,0000634562C16430*10
 
8.58517         MSG_UDP              iDivisorNMEA    $AGRSA,4.32,A,,V*4A
 
8.58527         ANGULO_LEME          iDivisorNMEA    4.32000      
8.58850         MSG_UDP              iDivisorNMEA    $SDDPT,1.76,0.00,*7B
 
8.61431         MSG_UDP              iDivisorNMEA    $MXPGN,01FF1A,680B,FF022B849F4105C0*1F
 
8.62611         MSG_UDP              iDivisorNMEA    $MXPGN,01FF1A,782B,FF010B049F410580*6E
 
8.63608         MSG_UDP              iDivisorNMEA    $HCHDG,284.8,0.0,E,23.3,W*64
 
8.63738         MSG_UDP              iDivisorNMEA    $GPHDT,261.47,T*03
 
8.64777         MSG_UDP              iDivisorNMEA    $TIROT,-0.19,A*2E
 
8.65799         MSG_UDP              iDivisorNMEA    $MXPGN,01F803,281C,0000000000007831*69
 
8.66820         MSG_UDP              iDivisorNMEA    $MXPGN,01F804,281C,0000634562C17831*1C
 
8.68506         MSG_UDP              iDivisorNMEA    $AGRSA,4.32,A,,V*4A
 
8.68514         ANGULO_LEME          iDivisorNMEA    4.32000      
8.68936         MSG_UDP              iDivisorNMEA    $MXPGN,00FF00,280B,0002000005049913*19
 
8.73626         MSG_UDP              iDivisorNMEA    $HCHDG,284.8,0.0,E,23.3,W*64
 
8.73636         MSG_UDP              iDivisorNMEA    $GPHDT,261.47,T*03
 
8.74667         MSG_UDP              iDivisorNMEA    $TIROT,-0.09,A*2F
 
8.75690         MSG_UDP              iDivisorNMEA    $MXPGN,01F803,281C,0000000000008C32*1E
 
8.76737         MSG_UDP              iDivisorNMEA    $MXPGN,01F804,281C,0000634285C18C32*65
 
8.78501         MSG_UDP              iDivisorNMEA    $AGRSA,4.32,A,,V*4A
 
8.78510         ANGULO_LEME          iDivisorNMEA    4.32000      
8.81711         MSG_UDP              iDivisorNMEA    $MXPGN,01FF0D,780B,FF03000098900580*6E
 
8.83397         MSG_UDP              iDivisorNMEA    $MXPGN,00FF28,3808,FF08FFFDFC059F41*19
 
8.83612         MSG_UDP              iDivisorNMEA    $HCHDG,284.8,0.0,E,23.3,W*64
 
8.84437         MSG_UDP              iDivisorNMEA    $GPHDT,261.47,T*03
 
8.85464         MSG_UDP              iDivisorNMEA    $TIROT,-0.09,A*2F
 
8.86495         MSG_UDP              iDivisorNMEA    $MXPGN,01F803,281C,000000000000A033*15
 
8.87516         MSG_UDP              iDivisorNMEA    $MXPGN,01F804,281C,0000634285C1A033*6E
 
8.88593         MSG_UDP              iDivisorNMEA    $AGRSA,4.32,A,,V*4A
 
8.88601         ANGULO_LEME          iDivisorNMEA    4.32000      
8.93411         MSG_UDP              iDivisorNMEA    $MXPGN,01FF2C,7808,FFFFFFFF9F4117A0*1A
 
9.08497         MSG_UDP              iDivisorNMEA    $AGRSA,4.32,A,,V*4A
 
9.08504         ANGULO_LEME          iDivisorNMEA    4.32000      
9.13819         MSG_UDP              iDivisorNMEA    $GPGGA,140918.000,2254.75192,S,04309.53926,W,1,12,1.00,1.57,M,-5.60,M,,*75
 
9.13909         MSG_UDP              iDivisorNMEA    $GPGLL,2254.75192,S,04309.53926,W,140918.000,A,A*5F
 
9.14937         MSG_UDP              iDivisorNMEA    $GPRMC,140918.000,A,2254.75192,S,04309.53926,W,0.19,0.00,060323,23.30,W,A*1F
 
9.15966         MSG_UDP              iDivisorNMEA    $GPVTG,0.00,T,,M,0.19,N,0.35,K,A*33
 
9.16986         MSG_UDP              iDivisorNMEA    $HCHDG,284.8,0.0,E,23.3,W*64
 
9.18006         MSG_UDP              iDivisorNMEA    $GPHDT,261.47,T*03
 
9.19036         MSG_UDP              iDivisorNMEA    $TIROT,-0.19,A*2E
 
9.20085         MSG_UDP              iDivisorNMEA    $MXPGN,00FF16,7808,FF0000002B0A9F41*1B
 
9.21115         MSG_UDP              iDivisorNMEA    $MXPGN,01F803,281C,0000000000001436*64
 
9.22141         MSG_UDP              iDivisorNMEA    $MXPGN,01F804,281C,0000006DD3C11436*14
 
9.23170         MSG_UDP              iDivisorNMEA    $MXPGN,00FF19,7808,0000000202009F41*15
 
9.24194         MSG_UDP              iDivisorNMEA    $MXPGN,00FF19,7808,0080000A0A009F41*1D
 
9.25220         MSG_UDP              iDivisorNMEA    $AGRSA,4.32,A,,V*4A
 
9.25230         ANGULO_LEME          iDivisorNMEA    4.32000      
9.26252         MSG_UDP              iDivisorNMEA    $GPGSA,A,3,08,10,16,18,27,28,31,32,65,85,86,72,1.70,1.00,1.40*0E
 
9.27289         MSG_UDP              iDivisorNMEA    $GPGSV,3,1,12,08,45,255,40,10,32,140,31,16,05,326,33,18,11,060,30*79
 
9.28316         MSG_UDP              iDivisorNMEA    $GPGSV,3,2,12,27,55,313,39,28,28,038,42,31,22,027,40,32,67,138,47*72
 
9.29354         MSG_UDP              iDivisorNMEA    $GPGSV,3,3,12,65,26,297,39,85,26,036,42,86,70,072,43,72,61,231,39*72
 
