%%%%%%%%%%%%%%%%%%%%%%%%%%%%%%%%%%%%%%%%%%%%%%%%%%%%%%%%%%%
%% LOG FILE:       /home/moos-ivp-douglas/log/teste_7_3_2023_____10_37_53/teste_7_3_2023_____10_37_53.alog
%% FILE OPENED ON  Wed Dec 31 21:00:00 1969
%% LOGSTART           1678196272.808088
%%%%%%%%%%%%%%%%%%%%%%%%%%%%%%%%%%%%%%%%%%%%%%%%%%%%%%%%%%%
-0.02921        MOOS_DEBUG           pHelmIvP        pHelmIvP AllStop: ManualOverride 
-0.02921        DESIRED_SPEED        pHelmIvP        0.00000      
-0.02920        DESIRED_HEADING      pHelmIvP        0.00000      
0.16027         DESIRED_RUDDER       pMarinePIDV22   0.00000      
0.16027         DESIRED_THRUST       pMarinePIDV22   0.00000      
0.57277         MSG_UDP              iDivisorNMEA    $AGRSA,-0.90,A,,V*6B
 
0.57286         ANGULO_LEME          iDivisorNMEA    -0.90000     
0.76598         MSG_UDP              iDivisorNMEA    $MXPGN,00FF16,7808,FF0000002B0A9F41*1B
 
0.77684         MSG_UDP              iDivisorNMEA    $MXPGN,01FF1A,680B,FF022B849F4105A0*1D
 
0.78672         MSG_UDP              iDivisorNMEA    $MXPGN,00FF19,7808,0000000202009F41*15
 
0.79472         MSG_UDP              iDivisorNMEA    $MXPGN,01FF1A,782B,FF010B049F410520*64
 
0.80196         MSG_UDP              iDivisorNMEA    $MXPGN,00FF00,280B,0002000005049913*19
 
0.80912         MSG_UDP              iDivisorNMEA    $HCHDG,284.5,0.0,E,23.3,W*69
 
0.81927         MSG_UDP              iDivisorNMEA    $GPHDT,261.24,T*06
 
0.82941         MSG_UDP              iDivisorNMEA    $TIROT,-0.99,A*26
 
0.83955         MSG_UDP              iDivisorNMEA    $MXPGN,00FF19,7808,0080000A0A009F41*1D
 
0.84967         MSG_UDP              iDivisorNMEA    $MXPGN,01F803,281C,0000000000008D1F*6F
 
0.85983         MSG_UDP              iDivisorNMEA    $MXPGN,01F804,281C,0000001195C18D1F*16
 
0.86997         MSG_UDP              iDivisorNMEA    $GPGGA,,2254.75549,S,04309.53779,W,1,,,,M,,M,,*59
 
0.88014         MSG_UDP              iDivisorNMEA    $GPGLL,2254.75549,S,04309.53779,W,,A,A*42
 
0.89030         MSG_UDP              iDivisorNMEA    $GPVTG,334.80,T,,M,0.00,N,0.00,K,A*31
 
0.90044         MSG_UDP              iDivisorNMEA    $AGRSA,-0.90,A,,V*6B
 
0.90048         ANGULO_LEME          iDivisorNMEA    -0.90000     
0.91059         MSG_UDP              iDivisorNMEA    $MXPGN,00FF8C,6808,FFF10695C9409F41*64
 
0.92071         MSG_UDP              iDivisorNMEA    $GPGGA,133753.000,2254.75318,S,04309.53539,W,1,12,0.90,3.99,M,-5.60,M,,*7A
 
0.93092         MSG_UDP              iDivisorNMEA    $GPGLL,2254.75318,S,04309.53539,W,133753.000,A,A*58
 
0.94104         MSG_UDP              iDivisorNMEA    $GPRMC,133753.000,A,2254.75318,S,04309.53539,W,0.00,0.00,070323,23.30,W,A*11
 
0.95124         MSG_UDP              iDivisorNMEA    $GPVTG,0.00,T,,M,0.00,N,0.00,K,A*3D
 
0.96140         MSG_UDP              iDivisorNMEA    $HCHDG,284.6,0.0,E,23.3,W*6A
 
0.97159         MSG_UDP              iDivisorNMEA    $GPHDT,261.25,T*07
 
0.98176         MSG_UDP              iDivisorNMEA    $TIROT,-0.89,A*27
 
0.99194         MSG_UDP              iDivisorNMEA    $MXPGN,01F803,281C,000000000000A020*17
 
1.00211         MSG_UDP              iDivisorNMEA    $MXPGN,01F804,281C,0000001195C1A020*6E
 
1.01228         MSG_UDP              iDivisorNMEA    $AGRSA,-0.90,A,,V*6B
 
1.01232         ANGULO_LEME          iDivisorNMEA    -0.90000     
1.02243         MSG_UDP              iDivisorNMEA    $GPZDA,133753.260,07,03,2023,,*55
 
1.03260         MSG_UDP              iDivisorNMEA    $HCHDG,284.6,0.0,E,23.3,W*6A
 
1.04274         MSG_UDP              iDivisorNMEA    $GPHDT,261.25,T*07
 
1.05293         MSG_UDP              iDivisorNMEA    $TIROT,-0.89,A*27
 
1.06309         MSG_UDP              iDivisorNMEA    $MXPGN,01F803,281C,000000000000B421*11
 
1.07343         MSG_UDP              iDivisorNMEA    $MXPGN,01F804,281C,000000D60EC1B421*63
 
1.08356         MSG_UDP              iDivisorNMEA    $MXPGN,00FF00,280B,0002000005049913*19
 
1.09370         MSG_UDP              iDivisorNMEA    $AGRSA,-0.90,A,,V*6B
 
1.09373         ANGULO_LEME          iDivisorNMEA    -0.90000     
1.10870         MSG_UDP              iDivisorNMEA    $HCHDG,284.5,0.0,E,23.3,W*69
 
1.11388         MSG_UDP              iDivisorNMEA    $GPHDT,261.24,T*06
 
1.12402         MSG_UDP              iDivisorNMEA    $TIROT,-0.99,A*26
 
1.13961         MSG_UDP              iDivisorNMEA    $MXPGN,01F803,281C,000000000000C822*1F
 
1.14476         MSG_UDP              iDivisorNMEA    $MXPGN,01F804,281C,000000D60EC1C822*6D
 
1.15884         MSG_UDP              iDivisorNMEA    $AGRSA,-0.90,A,,V*6B
 
1.15889         ANGULO_LEME          iDivisorNMEA    -0.90000     
1.16600         MSG_UDP              iDivisorNMEA    $SDDPT,1.78,0.00,*75
 
1.20871         MSG_UDP              iDivisorNMEA    $HCHDG,284.6,0.0,E,23.3,W*6A
 
1.20965         MSG_UDP              iDivisorNMEA    $GPHDT,261.25,T*07
 
1.21981         MSG_UDP              iDivisorNMEA    $TIROT,-0.99,A*26
 
1.23977         MSG_UDP              iDivisorNMEA    $MXPGN,01F803,281C,000000000000DC23*62
 
1.24091         MSG_UDP              iDivisorNMEA    $MXPGN,01F804,281C,0000008BD2C1DC23*1B
 
1.25868         MSG_UDP              iDivisorNMEA    $AGRSA,-0.96,A,,V*6D
 
1.25873         ANGULO_LEME          iDivisorNMEA    -0.96000     
1.30161         MSG_UDP              iDivisorNMEA    $MXPGN,00FF00,280B,0002000005049913*19
 
1.30858         MSG_UDP              iDivisorNMEA    $HCHDG,284.6,0.0,E,23.3,W*6A
 
1.31176         MSG_UDP              iDivisorNMEA    $GPHDT,261.26,T*04
 
1.32194         MSG_UDP              iDivisorNMEA    $TIROT,-0.99,A*26
 
1.33207         MSG_UDP              iDivisorNMEA    $GPGSA,A,3,08,10,16,18,21,23,26,,,,,,2.16,1.79,1.79*06
 
1.34222         MSG_UDP              iDivisorNMEA    $GPGSV,2,1,07,08,40,238,44,10,38,152,37,16,10,315,43,18,18,070,00*71
 
1.35238         MSG_UDP              iDivisorNMEA    $GPGSV,2,2,07,21,10,222,00,23,15,126,00,26,01,349,00*45
 
1.36256         MSG_UDP              iDivisorNMEA    $MXPGN,01FA06,681C,9F00B900C8230FC0*67
 
1.37271         MSG_UDP              iDivisorNMEA    $MXPGN,01FA06,681C,00A400B4E3C400C1*6C
 
1.38288         MSG_UDP              iDivisorNMEA    $MXPGN,01FA06,681C,FFFFFFFFFF0168C2*62
 
1.39300         MSG_UDP              iDivisorNMEA    $MXPGN,01F803,281C,0000000000000023*65
 
1.40319         MSG_UDP              iDivisorNMEA    $MXPGN,01F804,281C,0000008BD2C10023*1C
 
1.41338         MSG_UDP              iDivisorNMEA    !AIVDM,1,1,,A,1:U8M80P1;trI>=jqDQqO?wd20S=,0*63
 
1.42358         MSG_UDP              iDivisorNMEA    $GPGGA,133754.000,2254.75309,S,04309.53850,W,1,07,1.79,1.57,M,-5.00,M,,*7B
 
1.43380         MSG_UDP              iDivisorNMEA    $GPGLL,2254.75309,S,04309.53850,W,133754.000,A,A*5D
 
1.44397         MSG_UDP              iDivisorNMEA    $GPRMC,133754.000,A,2254.75309,S,04309.53850,W,0.00,313.96,070323,23.39,W,A*13
 
1.45417         MSG_UDP              iDivisorNMEA    $GPVTG,313.96,T,,M,0.00,N,0.00,K,A*33
 
1.65753         MSG_UDP              iDivisorNMEA    $GPGSV,3,3,12,66,16,312,42,65,62,265,41,86,30,049,40,87,69,143,43*7D
 
1.65865         MSG_UDP              iDivisorNMEA    $AGRSA,-0.90,A,,V*6B
 
1.65871         ANGULO_LEME          iDivisorNMEA    -0.90000     
1.66796         MSG_UDP              iDivisorNMEA    $MXPGN,00FF3C,3808,8000F8FE00009F41*1C
 
1.70346         MSG_UDP              iDivisorNMEA    $MXPGN,01FF0D,780B,FF03000098900580*6E
 
1.70858         MSG_UDP              iDivisorNMEA    $HCHDG,284.6,0.0,E,23.3,W*6A
 
1.71377         MSG_UDP              iDivisorNMEA    $GPHDT,261.28,T*0A
 
1.72396         MSG_UDP              iDivisorNMEA    $TIROT,-0.29,A*2D
 
1.73964         MSG_UDP              iDivisorNMEA    $MXPGN,01F803,281C,0000000000006428*6C
 
1.74481         MSG_UDP              iDivisorNMEA    $MXPGN,01F804,281C,00000000B2C16428*69
 
1.75835         MSG_UDP              iDivisorNMEA    $AGRSA,-0.90,A,,V*6B
 
1.75841         ANGULO_LEME          iDivisorNMEA    -0.90000     
1.76560         MSG_UDP              iDivisorNMEA    $MXPGN,00FF16,7808,FF0000002B0A9F41*1B
 
1.78643         MSG_UDP              iDivisorNMEA    $MXPGN,00FF19,7808,0000000202009F41*15
 
1.80145         MSG_UDP              iDivisorNMEA    $MXPGN,00FF00,280B,0002000005049913*19
 
1.80236         MSG_UDP              iDivisorNMEA    $MXPGN,01FF1A,680B,FF022B849F4105C0*1F
 
1.81247         MSG_UDP              iDivisorNMEA    $HCHDG,284.6,0.0,E,23.3,W*6A
 
1.82264         MSG_UDP              iDivisorNMEA    $GPHDT,261.27,T*05
 
1.83280         MSG_UDP              iDivisorNMEA    $TIROT,-0.29,A*2D
 
1.84295         MSG_UDP              iDivisorNMEA    $MXPGN,00FF19,7808,0080000A0A009F41*1D
 
1.85309         MSG_UDP              iDivisorNMEA    $MXPGN,01FF1A,782B,FF010B049F410540*62
 
1.86326         MSG_UDP              iDivisorNMEA    $MXPGN,01F803,281C,0000000000007829*60
 
1.87342         MSG_UDP              iDivisorNMEA    $MXPGN,01F804,281C,00000000B2C17829*65
 
1.88362         MSG_UDP              iDivisorNMEA    $GPGGA,,2254.75549,S,04309.53779,W,1,,,,M,,M,,*59
 
1.89373         MSG_UDP              iDivisorNMEA    $GPGLL,2254.75549,S,04309.53779,W,,A,A*42
 
1.90389         MSG_UDP              iDivisorNMEA    $GPVTG,334.80,T,,M,0.00,N,0.00,K,A*31
 
1.91405         MSG_UDP              iDivisorNMEA    $AGRSA,-0.90,A,,V*6B
 
1.91409         ANGULO_LEME          iDivisorNMEA    -0.90000     
1.92420         MSG_UDP              iDivisorNMEA    $MXPGN,00FF8C,6808,FFF10695C9409F41*64
 
1.93437         MSG_UDP              iDivisorNMEA    $GPGGA,133754.000,2254.75300,S,04309.53526,W,1,12,0.90,3.67,M,-5.60,M,,*7B
 
1.94451         MSG_UDP              iDivisorNMEA    $GPGLL,2254.75300,S,04309.53526,W,133754.000,A,A*58
 
1.95469         MSG_UDP              iDivisorNMEA    $GPRMC,133754.000,A,2254.75300,S,04309.53526,W,0.19,0.00,070323,23.30,W,A*19
 
1.96497         MSG_UDP              iDivisorNMEA    $GPVTG,0.00,T,,M,0.19,N,0.35,K,A*33
 
1.97551         MSG_UDP              iDivisorNMEA    $HCHDG,284.6,0.0,E,23.3,W*6A
 
1.98572         MSG_UDP              iDivisorNMEA    $GPHDT,261.27,T*05
 
1.99597         MSG_UDP              iDivisorNMEA    $TIROT,-0.19,A*2E
 
2.00617         MSG_UDP              iDivisorNMEA    $MXPGN,01F803,281C,0000000000008C2A*6C
 
2.01649         MSG_UDP              iDivisorNMEA    $MXPGN,01F804,281C,00000000B2C18C2A*69
 
2.02677         MSG_UDP              iDivisorNMEA    !AIVDM,1,1,,B,1:U6vLPP00trHfEjpe0;qgwd2<1v,0*22
 
2.03700         MSG_UDP              iDivisorNMEA    $AGRSA,-0.90,A,,V*6B
 
2.03705         ANGULO_LEME          iDivisorNMEA    -0.90000     
2.04727         MSG_UDP              iDivisorNMEA    $GPZDA,133754.260,07,03,2023,,*52
 
2.05761         MSG_UDP              iDivisorNMEA    $HCHDG,284.6,0.0,E,23.3,W*6A
 
2.06784         MSG_UDP              iDivisorNMEA    $GPHDT,261.27,T*05
 
2.07811         MSG_UDP              iDivisorNMEA    $TIROT,-0.19,A*2E
 
2.08836         MSG_UDP              iDivisorNMEA    $MXPGN,01F803,281C,0000000000008C2A*6C
 
2.09864         MSG_UDP              iDivisorNMEA    $MXPGN,01F804,281C,00000014C0C18C2A*6F
 
2.10900         MSG_UDP              iDivisorNMEA    $MXPGN,00FF00,280B,0002000005049913*19
 
2.11929         MSG_UDP              iDivisorNMEA    $AGRSA,-0.90,A,,V*6B
 
2.11935         ANGULO_LEME          iDivisorNMEA    -0.90000     
2.12957         MSG_UDP              iDivisorNMEA    $HCHDG,284.6,0.0,E,23.3,W*6A
 
2.13977         MSG_UDP              iDivisorNMEA    $GPHDT,261.27,T*05
 
2.15011         MSG_UDP              iDivisorNMEA    $TIROT,-0.19,A*2E
 
2.16039         MSG_UDP              iDivisorNMEA    $MXPGN,01F803,281C,000000000000A02B*65
 
2.17070         MSG_UDP              iDivisorNMEA    $MXPGN,01F804,281C,00000014C0C1A02B*66
 
2.18096         MSG_UDP              iDivisorNMEA    $AGRSA,-0.90,A,,V*6B
 
2.18104         ANGULO_LEME          iDivisorNMEA    -0.90000     
2.19125         MSG_UDP              iDivisorNMEA    $SDDPT,1.78,0.00,*75
 
2.20155         MSG_UDP              iDivisorNMEA    $MXPGN,01FF1A,782B,FFFAFF859F410560*1D
 
2.21179         MSG_UDP              iDivisorNMEA    $HCHDG,284.6,0.0,E,23.3,W*6A
 
2.22206         MSG_UDP              iDivisorNMEA    $GPHDT,261.27,T*05
 
2.23229         MSG_UDP              iDivisorNMEA    $TIROT,-0.29,A*2D
 
2.24256         MSG_UDP              iDivisorNMEA    !AIVDO,1,1,,,B:UOH3P00o>VtFLf>akACws5oP06,0*0D
 
2.25283         MSG_UDP              iDivisorNMEA    $MXPGN,01F803,281C,000000000000C82D*69
 
2.26304         MSG_UDP              iDivisorNMEA    $MXPGN,01F804,281C,000000ECE8C1C82D*67
 
2.27331         MSG_UDP              iDivisorNMEA    $AGRSA,-0.90,A,,V*6B
 
2.27337         ANGULO_LEME          iDivisorNMEA    -0.90000     
2.30145         MSG_UDP              iDivisorNMEA    $MXPGN,00FF00,280B,0002000005049913*19
 
2.30836         MSG_UDP              iDivisorNMEA    $HCHDG,284.6,0.0,E,23.3,W*6A
 
2.31264         MSG_UDP              iDivisorNMEA    $GPHDT,261.27,T*05
 
2.32296         MSG_UDP              iDivisorNMEA    $TIROT,-0.39,A*2C
 
2.55835         MSG_UDP              iDivisorNMEA    $AGRSA,-0.90,A,,V*6B
 
2.55845         ANGULO_LEME          iDivisorNMEA    -0.90000     
2.56135         MSG_UDP              iDivisorNMEA    $MXPGN,01FF2C,7808,FFFFFFFF9F4117E0*1E
 
2.56918         MSG_UDP              iDivisorNMEA    $MXPGN,01FF2C,7808,FFFF7FFFFFFF7FE1*63
 
2.57952         MSG_UDP              iDivisorNMEA    $MXPGN,01FF2C,7808,FF7FFFFFFFFFFFE2*11
 
2.58980         MSG_UDP              iDivisorNMEA    $MXPGN,01FF2C,7808,FFFFFFFF7FFFFFE3*10
 
2.60005         MSG_UDP              iDivisorNMEA    $MXPGN,00FF3D,6808,7FFFFF0DFFFF9F41*6E
 
2.61038         MSG_UDP              iDivisorNMEA    $HCHDG,284.6,0.0,E,23.3,W*6A
 
2.62060         MSG_UDP              iDivisorNMEA    $GPHDT,261.26,T*04
 
2.63085         MSG_UDP              iDivisorNMEA    $TIROT,-0.59,A*2A
 
2.64105         MSG_UDP              iDivisorNMEA    $MXPGN,01F803,281C,0000000000005031*63
 
2.65131         MSG_UDP              iDivisorNMEA    $MXPGN,01F804,281C,0000003DF5C15031*12
 
2.66168         MSG_UDP              iDivisorNMEA    $GPGSA,A,3,08,10,16,18,27,28,31,32,66,65,86,87,1.70,1.40,1.40*0D
 
2.67200         MSG_UDP              iDivisorNMEA    $GPGSV,3,1,12,08,40,239,32,10,39,152,31,16,10,316,45,18,18,070,35*70
 
2.68231         MSG_UDP              iDivisorNMEA    $GPGSV,3,2,12,27,63,286,35,28,19,028,41,31,13,018,42,32,77,103,42*76
 
2.69265         MSG_UDP              iDivisorNMEA    $GPGSV,3,3,12,66,16,312,42,65,62,265,41,86,30,049,40,87,69,143,43*7D
 
2.70304         MSG_UDP              iDivisorNMEA    $AGRSA,-0.90,A,,V*6B
 
2.70314         ANGULO_LEME          iDivisorNMEA    -0.90000     
2.71333         MSG_UDP              iDivisorNMEA    $MXPGN,00FF3C,3808,8000F8FE00009F41*1C
 
2.72366         MSG_UDP              iDivisorNMEA    $MXPGN,01FF0D,780B,FF030000989005A0*17
 
2.73408         MSG_UDP              iDivisorNMEA    $HCHDG,284.6,0.0,E,23.3,W*6A
 
2.74462         MSG_UDP              iDivisorNMEA    $GPHDT,261.27,T*05
 
2.75492         MSG_UDP              iDivisorNMEA    $TIROT,-0.39,A*2C
 
2.76522         MSG_UDP              iDivisorNMEA    $MXPGN,01F803,281C,0000000000006432*67
 
2.77557         MSG_UDP              iDivisorNMEA    $MXPGN,01F804,281C,000000E6A9C16432*19
 
2.78586         MSG_UDP              iDivisorNMEA    $AGRSA,-0.90,A,,V*6B
 
2.78594         ANGULO_LEME          iDivisorNMEA    -0.90000     
2.79615         MSG_UDP              iDivisorNMEA    $MXPGN,00FF16,7808,FF0000002B0A9F41*1B
 
2.80644         MSG_UDP              iDivisorNMEA    $MXPGN,01FF1A,680B,FF022B849F4105E0*19
 
2.81667         MSG_UDP              iDivisorNMEA    $MXPGN,00FF19,7808,0000000202009F41*15
 
2.82695         MSG_UDP              iDivisorNMEA    $MXPGN,01FF1A,782B,FF010B049F410560*60
 
2.83720         MSG_UDP              iDivisorNMEA    $MXPGN,00FF00,280B,0002000005049913*19
 
2.84741         MSG_UDP              iDivisorNMEA    $HCHDG,284.6,0.0,E,23.3,W*6A
 
2.85772         MSG_UDP              iDivisorNMEA    $GPHDT,261.27,T*05
 
2.86800         MSG_UDP              iDivisorNMEA    $TIROT,-0.39,A*2C
 
2.87828         MSG_UDP              iDivisorNMEA    $MXPGN,00FF19,7808,0080000A0A009F41*1D
 
2.88856         MSG_UDP              iDivisorNMEA    $MXPGN,01F803,281C,0000000000007833*6B
 
2.89880         MSG_UDP              iDivisorNMEA    $MXPGN,01F804,281C,000000E6A9C17833*15
 
2.90906         MSG_UDP              iDivisorNMEA    $GPGGA,,2254.75559,S,04309.53799,W,1,,,,M,,M,,*56
 
2.91932         MSG_UDP              iDivisorNMEA    $GPGLL,2254.75559,S,04309.53799,W,,A,A*4D
 
2.92960         MSG_UDP              iDivisorNMEA    $GPVTG,334.80,T,,M,0.30,N,0.55,K,A*32
 
2.93979         MSG_UDP              iDivisorNMEA    $AGRSA,-0.90,A,,V*6B
 
2.93985         ANGULO_LEME          iDivisorNMEA    -0.90000     
2.95005         MSG_UDP              iDivisorNMEA    $MXPGN,00FF8C,6808,FFF10695C9409F41*64
 
2.96028         MSG_UDP              iDivisorNMEA    $GPGGA,133755.000,2254.75279,S,04309.53515,W,1,12,0.90,3.47,M,-5.60,M,,*77
 
2.97066         MSG_UDP              iDivisorNMEA    $GPGLL,2254.75279,S,04309.53515,W,133755.000,A,A*56
 
2.98099         MSG_UDP              iDivisorNMEA    $GPRMC,133755.000,A,2254.75279,S,04309.53515,W,0.09,0.00,070323,23.30,W,A*16
 
2.99126         MSG_UDP              iDivisorNMEA    $GPVTG,0.00,T,,M,0.09,N,0.16,K,A*33
 
3.00152         MSG_UDP              iDivisorNMEA    $HCHDG,284.6,0.0,E,23.3,W*6A
 
3.01176         MSG_UDP              iDivisorNMEA    $GPHDT,261.27,T*05
 
3.02206         MSG_UDP              iDivisorNMEA    $TIROT,-0.19,A*2E
 
3.03234         MSG_UDP              iDivisorNMEA    $MXPGN,01F803,281C,0000000000008C34*18
 
3.04263         MSG_UDP              iDivisorNMEA    $MXPGN,01F804,281C,000000E6A9C18C34*66
 
3.05288         MSG_UDP              iDivisorNMEA    $AGRSA,-0.90,A,,V*6B
 
3.05295         ANGULO_LEME          iDivisorNMEA    -0.90000     
3.06319         MSG_UDP              iDivisorNMEA    $GPZDA,133755.260,07,03,2023,,*53
 
3.07397         MSG_UDP              iDivisorNMEA    $HCHDG,284.6,0.0,E,23.3,W*6A
 
3.08423         MSG_UDP              iDivisorNMEA    $GPHDT,261.28,T*0A
 
3.09449         MSG_UDP              iDivisorNMEA    $TIROT,-0.19,A*2E
 
3.10472         MSG_UDP              iDivisorNMEA    $MXPGN,01F803,281C,000000000000A035*13
 
3.11502         MSG_UDP              iDivisorNMEA    $MXPGN,01F804,281C,0000000F3CC1A035*60
 
3.12531         MSG_UDP              iDivisorNMEA    $MXPGN,00FF00,280B,0002000005049913*19
 
3.13557         MSG_UDP              iDivisorNMEA    $AGRSA,-0.90,A,,V*6B
 
3.13566         ANGULO_LEME          iDivisorNMEA    -0.90000     
3.14587         MSG_UDP              iDivisorNMEA    $HCHDG,284.6,0.0,E,23.3,W*6A
 
3.15617         MSG_UDP              iDivisorNMEA    $GPHDT,261.29,T*0B
 
3.16642         MSG_UDP              iDivisorNMEA    $TIROT,0.19,A*03
 
3.17669         MSG_UDP              iDivisorNMEA    $MXPGN,01F803,281C,000000000000B436*17
 
3.18719         MSG_UDP              iDivisorNMEA    $MXPGN,01F804,281C,0000000F3CC1B436*64
 
3.19746         MSG_UDP              iDivisorNMEA    $AGRSA,-0.90,A,,V*6B
 
3.19757         ANGULO_LEME          iDivisorNMEA    -0.90000     
3.45815         MSG_UDP              iDivisorNMEA    $AGRSA,-0.90,A,,V*6B
 
3.45827         ANGULO_LEME          iDivisorNMEA    -0.90000     
3.46106         MSG_UDP              iDivisorNMEA    $MXPGN,00FF28,3808,FF08FFFDFC059F41*19
 
3.50800         MSG_UDP              iDivisorNMEA    $HCHDG,284.6,0.0,E,23.3,W*6A
 
3.50892         MSG_UDP              iDivisorNMEA    $GPHDT,261.31,T*02
 
3.51919         MSG_UDP              iDivisorNMEA    $TIROT,0.19,A*03
 
3.53905         MSG_UDP              iDivisorNMEA    $MXPGN,01F803,281C,0000000000003C3A*66
 
3.54029         MSG_UDP              iDivisorNMEA    $MXPGN,01F804,281C,000000E393C13C3A*6F
 
3.55099         MSG_UDP              iDivisorNMEA    $MXPGN,00FF00,280B,0002000005049913*19
 
3.56131         MSG_UDP              iDivisorNMEA    $AGRSA,-0.90,A,,V*6B
 
3.56140         ANGULO_LEME          iDivisorNMEA    -0.90000     
3.57167         MSG_UDP              iDivisorNMEA    $MXPGN,01FF2C,7808,FFFFFFFF9F411700*6B
 
3.58247         MSG_UDP              iDivisorNMEA    $MXPGN,01FF2C,7808,FFFF7FFFFFFF7F01*16
 
3.59273         MSG_UDP              iDivisorNMEA    $MXPGN,01FF2C,7808,FF7FFFFFFFFFFF02*64
 
3.60304         MSG_UDP              iDivisorNMEA    $MXPGN,01FF2C,7808,FFFFFFFF7FFFFF03*65
 
3.61332         MSG_UDP              iDivisorNMEA    $MXPGN,00FF3D,6808,7FFFFF0DFFFF9F41*6E
 
3.62361         MSG_UDP              iDivisorNMEA    $HCHDG,284.6,0.0,E,23.3,W*6A
 
3.63386         MSG_UDP              iDivisorNMEA    $GPHDT,261.30,T*03
 
3.64413         MSG_UDP              iDivisorNMEA    $TIROT,0.19,A*03
 
3.65441         MSG_UDP              iDivisorNMEA    $MXPGN,00FF3D,6808,0000FF0BFFFF9F41*19
 
3.66462         MSG_UDP              iDivisorNMEA    $MXPGN,00FF3D,6808,FFFFFF0CFFFF9F41*18
 
3.67484         MSG_UDP              iDivisorNMEA    $MXPGN,01F803,281C,000000000000503B*10
 
3.68513         MSG_UDP              iDivisorNMEA    $MXPGN,01F804,281C,000000E393C1503B*19
 
3.69543         MSG_UDP              iDivisorNMEA    $GPGSA,A,3,08,10,16,18,27,28,31,32,66,65,86,87,1.70,1.40,1.40*0D
 
3.70574         MSG_UDP              iDivisorNMEA    $GPGSV,3,1,12,08,40,239,32,10,39,152,31,16,10,316,44,18,18,070,34*70
 
3.71601         MSG_UDP              iDivisorNMEA    $GPGSV,3,2,12,27,63,286,35,28,19,028,41,31,13,018,42,32,77,103,42*76
 
3.72628         MSG_UDP              iDivisorNMEA    $GPGSV,3,3,12,66,16,312,42,65,62,264,41,86,30,049,40,87,69,143,43*7C
 
3.73659         MSG_UDP              iDivisorNMEA    $AGRSA,-0.96,A,,V*6D
 
3.73667         ANGULO_LEME          iDivisorNMEA    -0.96000     
3.74689         MSG_UDP              iDivisorNMEA    $MXPGN,00FF3D,6808,FFFFFF03FFFF9F41*68
 
3.75719         MSG_UDP              iDivisorNMEA    $MXPGN,00FF3C,3808,8000F8FE00009F41*1C
 
3.76745         MSG_UDP              iDivisorNMEA    $MXPGN,00FF3D,6808,FFFFFF02FFFF9F41*69
 
3.77776         MSG_UDP              iDivisorNMEA    !AIVDM,1,1,,A,1:U8vhSwP0LrNQIjsGspu1sp0l2G,0*41
 
3.78798         MSG_UDP              iDivisorNMEA    $MXPGN,01FF0D,780B,FF030000989005C0*15
 
3.79823         MSG_UDP              iDivisorNMEA    $HCHDG,284.6,0.0,E,23.3,W*6A
 
3.80848         MSG_UDP              iDivisorNMEA    $GPHDT,261.28,T*0A
 
3.81875         MSG_UDP              iDivisorNMEA    $TIROT,0.09,A*02
 
3.82905         MSG_UDP              iDivisorNMEA    $MXPGN,01F803,281C,000000000000643C*16
 
3.83936         MSG_UDP              iDivisorNMEA    $MXPGN,01F804,281C,00000051DCC1643C*60
 
3.84968         MSG_UDP              iDivisorNMEA    $AGRSA,-0.96,A,,V*6D
 
3.84974         ANGULO_LEME          iDivisorNMEA    -0.96000     
3.85990         MSG_UDP              iDivisorNMEA    $MXPGN,00FF16,7808,FF0000002B0A9F41*1B
 
3.87009         MSG_UDP              iDivisorNMEA    $MXPGN,00FF19,7808,0000000202009F41*15
 
3.88023         MSG_UDP              iDivisorNMEA    $MXPGN,00FF00,280B,0002000005049913*19
 
3.89040         MSG_UDP              iDivisorNMEA    $HCHDG,284.6,0.0,E,23.3,W*6A
 
3.90055         MSG_UDP              iDivisorNMEA    $GPHDT,261.27,T*05
 
3.91072         MSG_UDP              iDivisorNMEA    $TIROT,0.09,A*02
 
3.92088         MSG_UDP              iDivisorNMEA    $MXPGN,00FF19,7808,0080000A0A009F41*1D
 
3.93105         MSG_UDP              iDivisorNMEA    $MXPGN,01FF1A,680B,FF022B849F410500*6C
 
3.94123         MSG_UDP              iDivisorNMEA    $MXPGN,01F803,281C,000000000000783D*1C
 
3.95141         MSG_UDP              iDivisorNMEA    $MXPGN,01F804,281C,00000051DCC1783D*6A
 
3.96159         MSG_UDP              iDivisorNMEA    $MXPGN,01FF1A,782B,FF010B049F410580*6E
 
3.97172         MSG_UDP              iDivisorNMEA    $GPGGA,,2254.75559,S,04309.53799,W,1,,,,M,,M,,*56
 
3.98187         MSG_UDP              iDivisorNMEA    $GPGLL,2254.75559,S,04309.53799,W,,A,A*4D
 
3.99201         MSG_UDP              iDivisorNMEA    $GPVTG,334.80,T,,M,0.30,N,0.55,K,A*32
 
4.00216         MSG_UDP              iDivisorNMEA    $AGRSA,-0.90,A,,V*6B
 
4.00219         ANGULO_LEME          iDivisorNMEA    -0.90000     
4.01236         MSG_UDP              iDivisorNMEA    $MXPGN,00FF8C,6808,FFF10695C9409F41*64
 
4.02250         MSG_UDP              iDivisorNMEA    $HCHDG,284.6,0.0,E,23.3,W*6A
 
4.03264         MSG_UDP              iDivisorNMEA    $GPHDT,261.26,T*04
 
4.04283         MSG_UDP              iDivisorNMEA    $TIROT,-0.09,A*2F
 
4.05306         MSG_UDP              iDivisorNMEA    $MXPGN,01F803,281C,0000000000008C3E*69
 
4.06327         MSG_UDP              iDivisorNMEA    $MXPGN,01F804,281C,00000051DCC18C3E*1F
 
4.07353         MSG_UDP              iDivisorNMEA    $GPGGA,133756.000,2254.75264,S,04309.53512,W,1,12,0.90,3.27,M,-5.60,M,,*79
 
4.08393         MSG_UDP              iDivisorNMEA    $GPGLL,2254.75264,S,04309.53512,W,133756.000,A,A*5E
 
4.09408         MSG_UDP              iDivisorNMEA    $GPRMC,133756.000,A,2254.75264,S,04309.53512,W,0.09,0.00,070323,23.30,W,A*1E
 
4.10420         MSG_UDP              iDivisorNMEA    $GPVTG,0.00,T,,M,0.09,N,0.16,K,A*33
 
4.11436         MSG_UDP              iDivisorNMEA    $AGRSA,-0.90,A,,V*6B
 
4.11438         ANGULO_LEME          iDivisorNMEA    -0.90000     
4.12450         MSG_UDP              iDivisorNMEA    $GPZDA,133756.260,07,03,2023,,*50
 
4.35971         MSG_UDP              iDivisorNMEA    $GPGGA,133757.000,2254.75309,S,04309.53850,W,1,07,1.79,1.57,M,-5.00,M,,*78
 
4.36072         MSG_UDP              iDivisorNMEA    $GPGLL,2254.75309,S,04309.53850,W,133757.000,A,A*5E
 
4.36998         MSG_UDP              iDivisorNMEA    $GPRMC,133757.000,A,2254.75309,S,04309.53850,W,0.01,81.98,070323,23.39,W,A*27
 
4.38023         MSG_UDP              iDivisorNMEA    $GPVTG,81.98,T,,M,0.01,N,0.01,K,A*05
 
4.39043         MSG_UDP              iDivisorNMEA    $AGRSA,-0.96,A,,V*6D
 
4.39048         ANGULO_LEME          iDivisorNMEA    -0.96000     
4.40763         MSG_UDP              iDivisorNMEA    $HCHDG,284.6,0.0,E,23.3,W*6A
 
4.41095         MSG_UDP              iDivisorNMEA    $GPHDT,261.25,T*07
 
4.42121         MSG_UDP              iDivisorNMEA    $TIROT,0.29,A*00
 
4.43973         MSG_UDP              iDivisorNMEA    $MXPGN,01F803,281C,0000000000001442*67
 
4.44201         MSG_UDP              iDivisorNMEA    $MXPGN,01F804,281C,00000032C1C11442*61
 
4.45784         MSG_UDP              iDivisorNMEA    $AGRSA,-0.90,A,,V*6B
 
4.45794         ANGULO_LEME          iDivisorNMEA    -0.90000     
4.46317         MSG_UDP              iDivisorNMEA    $MXPGN,00FF28,3808,FF08FFFDFC059F41*19
 
4.50763         MSG_UDP              iDivisorNMEA    $HCHDG,284.5,0.0,E,23.3,W*69
 
4.50869         MSG_UDP              iDivisorNMEA    $GPHDT,261.24,T*06
 
4.51800         MSG_UDP              iDivisorNMEA    $TIROT,0.49,A*06
 
4.53878         MSG_UDP              iDivisorNMEA    $MXPGN,01F803,281C,0000000000003C44*14
 
4.53944         MSG_UDP              iDivisorNMEA    $MXPGN,01F804,281C,FFFF9D9D58C13C44*6C
 
4.55071         MSG_UDP              iDivisorNMEA    $MXPGN,00FF00,280B,0002000005049913*19
 
4.55997         MSG_UDP              iDivisorNMEA    $AGRSA,-0.90,A,,V*6B
 
4.56005         ANGULO_LEME          iDivisorNMEA    -0.90000     
4.57030         MSG_UDP              iDivisorNMEA    $MXPGN,01FF2C,7808,FFFFFFFF9F411720*69
 
4.58057         MSG_UDP              iDivisorNMEA    $MXPGN,01FF2C,7808,FFFF7FFFFFFF7F21*14
 
4.59138         MSG_UDP              iDivisorNMEA    $MXPGN,01FF2C,7808,FF7FFFFFFFFFFF22*66
 
4.60168         MSG_UDP              iDivisorNMEA    $MXPGN,01FF2C,7808,FFFFFFFF7FFFFF23*67
 
4.61188         MSG_UDP              iDivisorNMEA    $MXPGN,00FF3D,6808,7FFFFF0DFFFF9F41*6E
 
4.62201         MSG_UDP              iDivisorNMEA    $HCHDG,284.5,0.0,E,23.3,W*69
 
4.63216         MSG_UDP              iDivisorNMEA    $GPHDT,261.24,T*06
 
4.64234         MSG_UDP              iDivisorNMEA    $TIROT,0.49,A*06
 
4.65252         MSG_UDP              iDivisorNMEA    $MXPGN,01F803,281C,0000000000005045*60
 
4.66271         MSG_UDP              iDivisorNMEA    $MXPGN,01F804,281C,FFFF9D9D58C15045*18
 
4.67288         MSG_UDP              iDivisorNMEA    $GPGSA,A,3,08,10,16,18,27,28,31,32,66,65,86,87,1.70,1.40,1.40*0D
 
4.68307         MSG_UDP              iDivisorNMEA    $GPGSV,3,1,12,08,40,239,33,10,39,152,31,16,10,316,44,18,18,070,34*71
 
4.69324         MSG_UDP              iDivisorNMEA    $GPGSV,3,2,12,27,63,286,35,28,19,028,40,31,13,018,42,32,77,103,43*76
 
4.70336         MSG_UDP              iDivisorNMEA    $GPGSV,3,3,12,66,16,312,42,65,62,264,41,86,30,049,40,87,69,143,43*7C
 
4.71352         MSG_UDP              iDivisorNMEA    $AGRSA,-0.90,A,,V*6B
 
4.71358         ANGULO_LEME          iDivisorNMEA    -0.90000     
4.72369         MSG_UDP              iDivisorNMEA    $MXPGN,00FF3C,3808,8000F8FE00009F41*1C
 
4.73385         MSG_UDP              iDivisorNMEA    $MXPGN,01FF0D,780B,FF030000989005E0*13
 
4.74399         MSG_UDP              iDivisorNMEA    $HCHDG,284.5,0.0,E,23.3,W*69
 
4.75414         MSG_UDP              iDivisorNMEA    $GPHDT,261.23,T*01
 
4.76434         MSG_UDP              iDivisorNMEA    $TIROT,0.29,A*00
 
4.77449         MSG_UDP              iDivisorNMEA    $MXPGN,01F803,281C,0000000000006446*64
 
4.78469         MSG_UDP              iDivisorNMEA    $MXPGN,01F804,281C,FFFF9D3BE1C16446*69
 
4.79484         MSG_UDP              iDivisorNMEA    $AGRSA,-0.90,A,,V*6B
 
4.79490         ANGULO_LEME          iDivisorNMEA    -0.90000     
4.80503         MSG_UDP              iDivisorNMEA    $MXPGN,00FF16,7808,FF0000002B0A9F41*1B
 
4.81522         MSG_UDP              iDivisorNMEA    $MXPGN,01FF1A,680B,FF022B849F410520*6E
 
4.82541         MSG_UDP              iDivisorNMEA    $MXPGN,00FF19,7808,0000000202009F41*15
 
4.83556         MSG_UDP              iDivisorNMEA    $MXPGN,01FF1A,782B,FF010B049F4105A0*17
 
4.84570         MSG_UDP              iDivisorNMEA    $MXPGN,00FF00,280B,0002000005049913*19
 
4.85585         MSG_UDP              iDivisorNMEA    $HCHDG,284.5,0.0,E,23.3,W*69
 
4.86597         MSG_UDP              iDivisorNMEA    $GPHDT,261.23,T*01
 
4.87617         MSG_UDP              iDivisorNMEA    $TIROT,0.29,A*00
 
4.88636         MSG_UDP              iDivisorNMEA    $MXPGN,00FF19,7808,0080000A0A009F41*1D
 
4.89650         MSG_UDP              iDivisorNMEA    $MXPGN,01F803,281C,0000000000007847*68
 
4.90668         MSG_UDP              iDivisorNMEA    $MXPGN,01F804,281C,FFFF9D3BE1C17847*65
 
4.91685         MSG_UDP              iDivisorNMEA    $GPGGA,,2254.75489,S,04309.53829,W,1,,,,M,,M,,*5E
 
4.92703         MSG_UDP              iDivisorNMEA    $GPGLL,2254.75489,S,04309.53829,W,,A,A*45
 
4.93720         MSG_UDP              iDivisorNMEA    $GPVTG,334.80,T,,M,0.40,N,0.74,K,A*36
 
4.94737         MSG_UDP              iDivisorNMEA    $AGRSA,-0.90,A,,V*6B
 
4.94743         ANGULO_LEME          iDivisorNMEA    -0.90000     
4.95754         MSG_UDP              iDivisorNMEA    $MXPGN,00FF8C,6808,FFF10695C9409F41*64
 
4.96765         MSG_UDP              iDivisorNMEA    $GPGGA,133757.000,2254.75241,S,04309.53520,W,1,12,0.70,3.14,M,-5.60,M,,*70
 
4.97777         MSG_UDP              iDivisorNMEA    $GPGLL,2254.75241,S,04309.53520,W,133757.000,A,A*59
 
4.98792         MSG_UDP              iDivisorNMEA    $GPRMC,133757.000,A,2254.75241,S,04309.53520,W,0.09,0.00,070323,23.30,W,A*19
 
4.99806         MSG_UDP              iDivisorNMEA    $GPVTG,0.00,T,,M,0.09,N,0.16,K,A*33
 
5.00823         MSG_UDP              iDivisorNMEA    $HCHDG,284.5,0.0,E,23.3,W*69
 
5.01846         MSG_UDP              iDivisorNMEA    $GPHDT,261.21,T*03
 
5.23831         MSG_UDP              iDivisorNMEA    $MXPGN,01F803,281C,000000000000C84B*69
 
5.23935         MSG_UDP              iDivisorNMEA    $MXPGN,01F804,281C,FFFF9D4BDFC1C84B*15
 
5.25753         MSG_UDP              iDivisorNMEA    $AGRSA,-0.96,A,,V*6D
 
5.25756         ANGULO_LEME          iDivisorNMEA    -0.96000     
5.30041         MSG_UDP              iDivisorNMEA    $MXPGN,00FF00,280B,0002000005049913*19
 
5.30731         MSG_UDP              iDivisorNMEA    $HCHDG,284.5,0.0,E,23.3,W*69
 
5.31147         MSG_UDP              iDivisorNMEA    $GPHDT,261.20,T*02
 
5.32166         MSG_UDP              iDivisorNMEA    $TIROT,0.19,A*03
 
5.33186         MSG_UDP              iDivisorNMEA    $GPGSA,A,3,08,10,16,18,21,23,26,,,,,,2.16,1.79,1.79*06
 
5.34201         MSG_UDP              iDivisorNMEA    $GPGSV,2,1,07,08,40,238,44,10,38,152,36,16,10,315,43,18,18,070,00*70
 
5.35221         MSG_UDP              iDivisorNMEA    $GPGSV,2,2,07,21,10,222,00,23,15,126,00,26,01,349,00*45
 
5.36244         MSG_UDP              iDivisorNMEA    $MXPGN,01FA06,681C,9F00B900C84B0F40*67
 
5.37265         MSG_UDP              iDivisorNMEA    $MXPGN,01FA06,681C,00A400B4E3D30041*1B
 
5.38284         MSG_UDP              iDivisorNMEA    $MXPGN,01FA06,681C,FFFFFFFFFF016842*15
 
5.39303         MSG_UDP              iDivisorNMEA    $MXPGN,01F803,281C,000000000000004B*12
 
5.40324         MSG_UDP              iDivisorNMEA    $MXPGN,01F804,281C,0000004BDFC1004B*13
 
5.41339         MSG_UDP              iDivisorNMEA    $GPGGA,133758.000,2254.75309,S,04309.53850,W,1,07,1.79,1.44,M,-5.00,M,,*75
 
5.42356         MSG_UDP              iDivisorNMEA    $GPGLL,2254.75309,S,04309.53850,W,133758.000,A,A*51
 
5.43379         MSG_UDP              iDivisorNMEA    $GPRMC,133758.000,A,2254.75309,S,04309.53850,W,0.01,0.17,070323,23.39,W,A*16
 
5.44399         MSG_UDP              iDivisorNMEA    $GPVTG,0.17,T,,M,0.01,N,0.01,K,A*3B
 
5.45416         MSG_UDP              iDivisorNMEA    $AGRSA,-0.96,A,,V*6D
 
5.45420         ANGULO_LEME          iDivisorNMEA    -0.96000     
5.46437         MSG_UDP              iDivisorNMEA    $HCHDG,284.5,0.0,E,23.3,W*69
 
5.47455         MSG_UDP              iDivisorNMEA    $GPHDT,261.20,T*02
 
5.48469         MSG_UDP              iDivisorNMEA    $TIROT,0.19,A*03
 
5.49486         MSG_UDP              iDivisorNMEA    $MXPGN,01F803,281C,000000000000284D*1E
 
5.50502         MSG_UDP              iDivisorNMEA    $MXPGN,01F804,281C,0000004BDFC1284D*1F
 
5.51518         MSG_UDP              iDivisorNMEA    $AGRSA,-0.90,A,,V*6B
 
5.51522         ANGULO_LEME          iDivisorNMEA    -0.90000     
5.52536         MSG_UDP              iDivisorNMEA    $MXPGN,00FF28,3808,FF08FFFDFC059F41*19
 
5.53555         MSG_UDP              iDivisorNMEA    !AIVDM,1,1,,B,1:U8?M0P2ktrOu=jpu6lS?wj25bD,0*6C
 
5.54573         MSG_UDP              iDivisorNMEA    $HCHDG,284.5,0.0,E,23.3,W*69
 
5.55595         MSG_UDP              iDivisorNMEA    $GPHDT,261.20,T*02
 
5.56613         MSG_UDP              iDivisorNMEA    $TIROT,0.00,A*0B
 
5.57632         MSG_UDP              iDivisorNMEA    $MXPGN,01F803,281C,0000000000003C4E*65
 
5.58653         MSG_UDP              iDivisorNMEA    $MXPGN,01F804,281C,0000001144C13C4E*10
 
5.59670         MSG_UDP              iDivisorNMEA    !AIVDM,1,1,,B,3:U8JFPP00trUhMjqWv3Hwwn275k,0*4F
 
5.60686         MSG_UDP              iDivisorNMEA    $MXPGN,00FF00,280B,0002000005049913*19
 
5.61702         MSG_UDP              iDivisorNMEA    $AGRSA,-0.90,A,,V*6B
 
5.61705         ANGULO_LEME          iDivisorNMEA    -0.90000     
5.62722         MSG_UDP              iDivisorNMEA    $MXPGN,01FF2C,7808,FFFFFFFF9F411740*6F
 
5.63740         MSG_UDP              iDivisorNMEA    $MXPGN,01FF2C,7808,FFFF7FFFFFFF7F41*12
 
5.64756         MSG_UDP              iDivisorNMEA    $MXPGN,01FF2C,7808,FF7FFFFFFFFFFF42*60
 
5.65772         MSG_UDP              iDivisorNMEA    $MXPGN,01FF2C,7808,FFFFFFFF7FFFFF43*61
 
5.66789         MSG_UDP              iDivisorNMEA    $MXPGN,00FF3D,6808,7FFFFF0DFFFF9F41*6E
 
5.67804         MSG_UDP              iDivisorNMEA    $HCHDG,284.5,0.0,E,23.3,W*69
 
5.68818         MSG_UDP              iDivisorNMEA    $GPHDT,261.17,T*06
 
5.69838         MSG_UDP              iDivisorNMEA    $TIROT,0.00,A*0B
 
5.70852         MSG_UDP              iDivisorNMEA    $MXPGN,01F803,281C,000000000000504F*13
 
5.71869         MSG_UDP              iDivisorNMEA    $MXPGN,01F804,281C,0000001144C1504F*66
 
5.72889         MSG_UDP              iDivisorNMEA    $AGRSA,-0.96,A,,V*6D
 
5.72891         ANGULO_LEME          iDivisorNMEA    -0.96000     
5.73906         MSG_UDP              iDivisorNMEA    $MXPGN,00FF3C,3808,8000F8FE00009F41*1C
 
5.74951         MSG_UDP              iDivisorNMEA    $GPGSA,A,3,08,10,16,18,27,28,31,32,66,65,86,87,1.70,1.10,1.10*0D
 
5.75964         MSG_UDP              iDivisorNMEA    $GPGSV,3,1,12,08,40,239,33,10,39,152,31,16,10,316,44,18,18,070,35*70
 
5.76977         MSG_UDP              iDivisorNMEA    $GPGSV,3,2,12,27,63,286,36,28,19,028,40,31,13,018,42,32,77,103,43*75
 
5.77994         MSG_UDP              iDivisorNMEA    $GPGSV,3,3,12,66,16,312,42,65,62,264,41,86,30,049,39,87,69,143,43*72
 
5.79015         MSG_UDP              iDivisorNMEA    $MXPGN,01FF0D,780B,FF03000098900500*66
 
5.80030         MSG_UDP              iDivisorNMEA    $HCHDG,284.5,0.0,E,23.3,W*69
 
5.81044         MSG_UDP              iDivisorNMEA    $GPHDT,261.17,T*06
 
5.82063         MSG_UDP              iDivisorNMEA    $TIROT,0.00,A*0B
 
5.83078         MSG_UDP              iDivisorNMEA    $MXPGN,01F803,281C,0000000000006450*63
 
5.84097         MSG_UDP              iDivisorNMEA    $MXPGN,01F804,281C,0000006973C16450*1D
 
5.85118         MSG_UDP              iDivisorNMEA    $AGRSA,-0.96,A,,V*6D
 
5.85121         ANGULO_LEME          iDivisorNMEA    -0.96000     
5.86137         MSG_UDP              iDivisorNMEA    $MXPGN,00FF16,7808,FF0000002B0A9F41*1B
 
5.87151         MSG_UDP              iDivisorNMEA    $MXPGN,00FF19,7808,0000000202009F41*15
 
5.88168         MSG_UDP              iDivisorNMEA    $MXPGN,00FF00,280B,0002000005049913*19
 
5.89184         MSG_UDP              iDivisorNMEA    $HCHDG,284.5,0.0,E,23.3,W*69
 
5.90199         MSG_UDP              iDivisorNMEA    $GPHDT,261.17,T*06
 
6.13809         MSG_UDP              iDivisorNMEA    $MXPGN,01F803,281C,000000000000A053*13
 
6.13897         MSG_UDP              iDivisorNMEA    $MXPGN,01F804,281C,00000098F7C1A053*16
 
6.15725         MSG_UDP              iDivisorNMEA    $AGRSA,-0.90,A,,V*6B
 
6.15732         ANGULO_LEME          iDivisorNMEA    -0.90000     
6.15941         MSG_UDP              iDivisorNMEA    $SDDPT,1.77,0.00,*7A
 
6.20807         MSG_UDP              iDivisorNMEA    $HCHDG,284.5,0.0,E,23.3,W*69
 
6.20815         MSG_UDP              iDivisorNMEA    $GPHDT,261.16,T*07
 
6.21844         MSG_UDP              iDivisorNMEA    $TIROT,0.00,A*0B
 
6.23803         MSG_UDP              iDivisorNMEA    $MXPGN,01F803,281C,000000000000A053*13
 
6.24017         MSG_UDP              iDivisorNMEA    $MXPGN,01F804,281C,00000098F7C1A053*16
 
6.25690         MSG_UDP              iDivisorNMEA    $AGRSA,-0.90,A,,V*6B
 
6.25693         ANGULO_LEME          iDivisorNMEA    -0.90000     
6.27319         MSG_UDP              iDivisorNMEA    !AIVDO,1,1,,,B:UOH3P007>VtDLf>bGACwu5oP06,0*7E
 
6.30030         MSG_UDP              iDivisorNMEA    $MXPGN,00FF00,280B,0002000005049913*19
 
6.30797         MSG_UDP              iDivisorNMEA    $HCHDG,284.5,0.0,E,23.3,W*69
 
6.31119         MSG_UDP              iDivisorNMEA    $GPHDT,261.16,T*07
 
6.32150         MSG_UDP              iDivisorNMEA    $TIROT,0.00,A*0B
 
6.33165         MSG_UDP              iDivisorNMEA    $GPGSA,A,3,08,10,16,18,21,23,26,,,,,,2.16,1.79,1.79*06
 
6.34178         MSG_UDP              iDivisorNMEA    $GPGSV,2,1,07,08,40,238,44,10,38,152,36,16,10,315,43,18,18,070,00*70
 
6.35198         MSG_UDP              iDivisorNMEA    $GPGSV,2,2,07,21,10,222,00,23,15,126,00,26,01,349,00*45
 
6.36226         MSG_UDP              iDivisorNMEA    $MXPGN,01FA06,681C,9F00B900C8540F60*12
 
6.37255         MSG_UDP              iDivisorNMEA    $MXPGN,01FA06,681C,00A400B4E3D30061*19
 
6.38279         MSG_UDP              iDivisorNMEA    $MXPGN,01FA06,681C,FFFFFFFFFF016862*17
 
6.39302         MSG_UDP              iDivisorNMEA    $MXPGN,01F803,281C,0000000000000054*65
 
6.40324         MSG_UDP              iDivisorNMEA    $MXPGN,01F804,281C,00000098F7C10054*60
 
6.41349         MSG_UDP              iDivisorNMEA    $GPGGA,133758.900,2254.75309,S,04309.53850,W,1,07,1.79,1.44,M,-5.00,M,,*7C
 
6.42378         MSG_UDP              iDivisorNMEA    $GPGLL,2254.75309,S,04309.53850,W,133758.900,A,A*58
 
6.43403         MSG_UDP              iDivisorNMEA    $GPRMC,133758.900,A,2254.75309,S,04309.53850,W,0.03,224.36,070323,23.39,W,A*1A
 
6.44437         MSG_UDP              iDivisorNMEA    $GPVTG,224.36,T,,M,0.03,N,0.05,K,A*3A
 
6.45468         MSG_UDP              iDivisorNMEA    $AGRSA,-0.90,A,,V*6B
 
6.45478         ANGULO_LEME          iDivisorNMEA    -0.90000     
6.46502         MSG_UDP              iDivisorNMEA    $HCHDG,284.5,0.0,E,23.3,W*69
 
6.47527         MSG_UDP              iDivisorNMEA    $GPHDT,261.15,T*04
 
6.48553         MSG_UDP              iDivisorNMEA    $TIROT,0.00,A*0B
 
6.49575         MSG_UDP              iDivisorNMEA    $MXPGN,01F803,281C,0000000000001455*61
 
6.50603         MSG_UDP              iDivisorNMEA    $MXPGN,01F804,281C,0000009127C11455*19
 
6.51629         MSG_UDP              iDivisorNMEA    $AGRSA,-0.90,A,,V*6B
 
6.51635         ANGULO_LEME          iDivisorNMEA    -0.90000     
6.52650         MSG_UDP              iDivisorNMEA    $MXPGN,00FF28,3808,FF08FFFDFC059F41*19
 
6.53675         MSG_UDP              iDivisorNMEA    $HCHDG,284.5,0.0,E,23.3,W*69
 
6.54700         MSG_UDP              iDivisorNMEA    $GPHDT,261.15,T*04
 
6.55732         MSG_UDP              iDivisorNMEA    $TIROT,-0.09,A*2F
 
6.56759         MSG_UDP              iDivisorNMEA    $MXPGN,01F803,281C,0000000000001455*61
 
6.57798         MSG_UDP              iDivisorNMEA    $MXPGN,01F804,281C,0000009127C11455*19
 
6.58829         MSG_UDP              iDivisorNMEA    $MXPGN,00FF00,280B,0002000005049913*19
 
6.59859         MSG_UDP              iDivisorNMEA    $AGRSA,-0.90,A,,V*6B
 
6.59873         ANGULO_LEME          iDivisorNMEA    -0.90000     
6.60894         MSG_UDP              iDivisorNMEA    $MXPGN,01FF2C,7808,FFFFFFFF9F411760*6D
 
6.61920         MSG_UDP              iDivisorNMEA    $MXPGN,01FF2C,7808,FFFF7FFFFFFF7F61*10
 
6.62943         MSG_UDP              iDivisorNMEA    $MXPGN,01FF2C,7808,FF7FFFFFFFFFFF62*62
 
6.63961         MSG_UDP              iDivisorNMEA    $MXPGN,01FF2C,7808,FFFFFFFF7FFFFF63*63
 
6.64980         MSG_UDP              iDivisorNMEA    $MXPGN,00FF3D,6808,7FFFFF0DFFFF9F41*6E
 
6.66004         MSG_UDP              iDivisorNMEA    $HCHDG,284.5,0.0,E,23.3,W*69
 
6.67048         MSG_UDP              iDivisorNMEA    $GPHDT,261.15,T*04
 
6.68075         MSG_UDP              iDivisorNMEA    $TIROT,-0.09,A*2F
 
6.69104         MSG_UDP              iDivisorNMEA    $MXPGN,01F803,281C,0000000000005058*6C
 
6.70129         MSG_UDP              iDivisorNMEA    $MXPGN,01F804,281C,000000CEB8C15058*65
 
6.71158         MSG_UDP              iDivisorNMEA    $AGRSA,-0.90,A,,V*6B
 
6.71166         ANGULO_LEME          iDivisorNMEA    -0.90000     
6.72184         MSG_UDP              iDivisorNMEA    $MXPGN,00FF3C,3808,8000F8FE00009F41*1C
 
6.73209         MSG_UDP              iDivisorNMEA    $GPGSA,A,3,08,10,16,18,21,27,28,31,32,66,65,86,1.30,1.10,1.10*05
 
6.74239         MSG_UDP              iDivisorNMEA    $GPGSV,3,1,12,08,40,239,33,10,39,152,31,16,10,316,44,18,18,070,35*70
 
6.75290         MSG_UDP              iDivisorNMEA    $GPGSV,3,2,12,21,11,223,20,27,63,286,36,28,19,028,40,31,13,018,42*73
 
6.76341         MSG_UDP              iDivisorNMEA    $GPGSV,3,3,12,32,77,103,43,66,16,312,42,65,62,264,41,86,30,049,39*77
 
6.77377         MSG_UDP              iDivisorNMEA    $MXPGN,01FF0D,780B,FF03000098900520*64
 
6.78410         MSG_UDP              iDivisorNMEA    $HCHDG,284.4,0.0,E,23.3,W*68
 
6.79438         MSG_UDP              iDivisorNMEA    $GPHDT,261.12,T*03
 
6.80466         MSG_UDP              iDivisorNMEA    $TIROT,-0.09,A*2F
 
6.81491         MSG_UDP              iDivisorNMEA    $MXPGN,01F803,281C,000000000000785A*1F
 
6.82513         MSG_UDP              iDivisorNMEA    $MXPGN,01F804,281C,000000D0F4C1785A*6C
 
7.03802         MSG_UDP              iDivisorNMEA    $MXPGN,01F803,281C,000000000000B45D*63
 
7.03882         MSG_UDP              iDivisorNMEA    $MXPGN,01F804,281C,000000A7E0C1B45D*15
 
7.05001         MSG_UDP              iDivisorNMEA    $MXPGN,00FF00,280B,0002000005049913*19
 
7.05930         MSG_UDP              iDivisorNMEA    $AGRSA,-0.90,A,,V*6B
 
7.05936         ANGULO_LEME          iDivisorNMEA    -0.90000     
7.10788         MSG_UDP              iDivisorNMEA    $HCHDG,284.4,0.0,E,23.3,W*68
 
7.10798         MSG_UDP              iDivisorNMEA    $GPHDT,261.13,T*02
 
7.11819         MSG_UDP              iDivisorNMEA    $TIROT,0.00,A*0B
 
7.13778         MSG_UDP              iDivisorNMEA    $MXPGN,01F803,281C,000000000000C85E*6F
 
7.13905         MSG_UDP              iDivisorNMEA    $MXPGN,01F804,281C,000000A7E0C1C85E*19
 
7.15685         MSG_UDP              iDivisorNMEA    $AGRSA,-0.90,A,,V*6B
 
7.15694         ANGULO_LEME          iDivisorNMEA    -0.90000     
7.16015         MSG_UDP              iDivisorNMEA    $SDDPT,1.79,0.00,*74
 
7.17042         MSG_UDP              iDivisorNMEA    !AIVDM,1,1,,A,1:U8?kPP1gLrL81jqHijvwwp0pS6,0*4A
 
7.20776         MSG_UDP              iDivisorNMEA    $HCHDG,284.4,0.0,E,23.3,W*68
 
7.20791         MSG_UDP              iDivisorNMEA    $GPHDT,261.13,T*02
 
7.21819         MSG_UDP              iDivisorNMEA    $TIROT,0.00,A*0B
 
7.23788         MSG_UDP              iDivisorNMEA    $MXPGN,01F803,281C,000000000000DC5F*10
 
7.23917         MSG_UDP              iDivisorNMEA    $MXPGN,01F804,281C,000000B071C1DC5F*11
 
7.25665         MSG_UDP              iDivisorNMEA    $AGRSA,-0.90,A,,V*6B
 
7.25674         ANGULO_LEME          iDivisorNMEA    -0.90000     
7.29282         MSG_UDP              iDivisorNMEA    !AIVDM,1,1,,A,1:UPuT0P02LrKPejpsC9oGSp2h00,0*69
 
7.29970         MSG_UDP              iDivisorNMEA    $MXPGN,00FF00,280B,0002000005049913*19
 
7.30774         MSG_UDP              iDivisorNMEA    $HCHDG,284.4,0.0,E,23.3,W*68
 
7.31401         MSG_UDP              iDivisorNMEA    $GPHDT,261.14,T*05
 
7.32425         MSG_UDP              iDivisorNMEA    $TIROT,0.00,A*0B
 
7.33449         MSG_UDP              iDivisorNMEA    $GPGSA,A,3,08,10,16,18,21,23,26,,,,,,2.16,1.79,1.79*06
 
7.34485         MSG_UDP              iDivisorNMEA    $GPGSV,2,1,07,08,40,238,44,10,38,152,37,16,10,315,43,18,18,070,00*71
 
7.35532         MSG_UDP              iDivisorNMEA    $GPGSV,2,2,07,21,10,222,00,23,14,126,00,26,01,349,00*44
 
7.36577         MSG_UDP              iDivisorNMEA    $MXPGN,01FA06,681C,9F00B900C85F0F80*6E
 
7.37602         MSG_UDP              iDivisorNMEA    $MXPGN,01FA06,681C,00A400B4E3E20081*17
 
7.38627         MSG_UDP              iDivisorNMEA    $MXPGN,01FA06,681C,FFFFFFFFFF016882*19
 
7.39651         MSG_UDP              iDivisorNMEA    $MXPGN,01F803,281C,000000000000005F*17
 
7.40689         MSG_UDP              iDivisorNMEA    $MXPGN,01F804,281C,000000B071C1005F*16
 
7.41717         MSG_UDP              iDivisorNMEA    $GPGGA,133800.000,2254.75309,S,04309.53850,W,1,07,1.79,1.44,M,-5.00,M,,*77
 
7.42771         MSG_UDP              iDivisorNMEA    $GPGLL,2254.75309,S,04309.53850,W,133800.000,A,A*53
 
7.43798         MSG_UDP              iDivisorNMEA    $GPRMC,133800.000,A,2254.75309,S,04309.53850,W,0.03,246.23,070323,23.39,W,A*11
 
7.44824         MSG_UDP              iDivisorNMEA    $GPVTG,246.23,T,,M,0.03,N,0.05,K,A*3A
 
7.45847         MSG_UDP              iDivisorNMEA    $AGRSA,-0.90,A,,V*6B
 
7.45853         ANGULO_LEME          iDivisorNMEA    -0.90000     
7.46875         MSG_UDP              iDivisorNMEA    $HCHDG,284.4,0.0,E,23.3,W*68
 
7.47902         MSG_UDP              iDivisorNMEA    $GPHDT,261.14,T*05
 
7.48935         MSG_UDP              iDivisorNMEA    $TIROT,0.00,A*0B
 
7.49965         MSG_UDP              iDivisorNMEA    $MXPGN,01F803,281C,0000000000002861*69
 
7.50993         MSG_UDP              iDivisorNMEA    $MXPGN,01F804,281C,000000B071C12861*68
 
7.52016         MSG_UDP              iDivisorNMEA    $AGRSA,-0.96,A,,V*6D
 
7.52024         ANGULO_LEME          iDivisorNMEA    -0.96000     
7.53044         MSG_UDP              iDivisorNMEA    $MXPGN,00FF28,3808,FF08FFFDFC059F41*19
 
7.54072         MSG_UDP              iDivisorNMEA    $HCHDG,284.4,0.0,E,23.3,W*68
 
7.55096         MSG_UDP              iDivisorNMEA    $GPHDT,261.13,T*02
 
7.56120         MSG_UDP              iDivisorNMEA    $TIROT,-0.09,A*2F
 
7.57140         MSG_UDP              iDivisorNMEA    $MXPGN,01F803,281C,0000000000003C62*10
 
7.58166         MSG_UDP              iDivisorNMEA    $MXPGN,01F804,281C,000000427AC13C62*15
 
7.59189         MSG_UDP              iDivisorNMEA    $MXPGN,00FF00,280B,0002000005049913*19
 
7.60212         MSG_UDP              iDivisorNMEA    $AGRSA,-0.96,A,,V*6D
 
7.60221         ANGULO_LEME          iDivisorNMEA    -0.96000     
7.61242         MSG_UDP              iDivisorNMEA    $MXPGN,01FF2C,7808,FFFFFFFF9F411780*63
 
7.62264         MSG_UDP              iDivisorNMEA    $MXPGN,01FF2C,7808,FFFF7FFFFFFF7F81*1E
 
7.63285         MSG_UDP              iDivisorNMEA    $MXPGN,01FF2C,7808,FF7FFFFFFFFFFF82*6C
 
7.64305         MSG_UDP              iDivisorNMEA    $MXPGN,01FF2C,7808,FFFFFFFF7FFFFF83*6D
 
7.65333         MSG_UDP              iDivisorNMEA    $MXPGN,00FF3D,6808,7FFFFF0DFFFF9F41*6E
 
7.66359         MSG_UDP              iDivisorNMEA    $HCHDG,284.4,0.0,E,23.3,W*68
 
7.67388         MSG_UDP              iDivisorNMEA    $GPHDT,261.13,T*02
 
7.68412         MSG_UDP              iDivisorNMEA    $TIROT,-0.09,A*2F
 
7.69439         MSG_UDP              iDivisorNMEA    $MXPGN,01F803,281C,0000000000005063*64
 
7.70466         MSG_UDP              iDivisorNMEA    $MXPGN,01F804,281C,000000427AC15063*61
 
7.71493         MSG_UDP              iDivisorNMEA    $AGRSA,-0.96,A,,V*6D
 
7.71502         ANGULO_LEME          iDivisorNMEA    -0.96000     
7.72525         MSG_UDP              iDivisorNMEA    $MXPGN,00FF3C,3808,8000F8FE00009F41*1C
 
7.73552         MSG_UDP              iDivisorNMEA    $GPGSA,A,3,08,10,16,18,21,27,28,31,32,66,65,86,1.30,1.10,1.10*05
 
7.74577         MSG_UDP              iDivisorNMEA    $GPGSV,3,1,12,08,40,239,33,10,39,152,31,16,10,316,44,18,18,070,36*73
 
7.93855         MSG_UDP              iDivisorNMEA    $MXPGN,01F803,281C,0000000000008C66*1F
 
7.93952         MSG_UDP              iDivisorNMEA    $MXPGN,01F804,281C,000000213EC18C66*1F
 
7.95659         MSG_UDP              iDivisorNMEA    $AGRSA,-0.90,A,,V*6B
 
7.95669         ANGULO_LEME          iDivisorNMEA    -0.90000     
7.95987         MSG_UDP              iDivisorNMEA    $GPZDA,133800.260,07,03,2023,,*5C
 
7.97041         MSG_UDP              iDivisorNMEA    $MXPGN,01FF22,2808,FF01FFFF9F410CE0*1E
 
7.98076         MSG_UDP              iDivisorNMEA    $MXPGN,01FF22,2808,FFFF00000A0039E1*6C
 
8.00759         MSG_UDP              iDivisorNMEA    $HCHDG,284.4,0.0,E,23.3,W*68
 
8.00771         MSG_UDP              iDivisorNMEA    $GPHDT,261.12,T*03
 
8.01801         MSG_UDP              iDivisorNMEA    $TIROT,-0.19,A*2E
 
8.03764         MSG_UDP              iDivisorNMEA    $MXPGN,01F803,281C,0000000000008C66*1F
 
8.03892         MSG_UDP              iDivisorNMEA    $MXPGN,01F804,281C,00000085AEC18C66*63
 
8.04953         MSG_UDP              iDivisorNMEA    $MXPGN,00FF00,280B,0002000005049913*19
 
8.05977         MSG_UDP              iDivisorNMEA    $AGRSA,-0.96,A,,V*6D
 
8.05985         ANGULO_LEME          iDivisorNMEA    -0.96000     
8.10763         MSG_UDP              iDivisorNMEA    $HCHDG,284.4,0.0,E,23.3,W*68
 
8.10776         MSG_UDP              iDivisorNMEA    $GPHDT,261.12,T*03
 
8.11802         MSG_UDP              iDivisorNMEA    $TIROT,-0.19,A*2E
 
8.12827         MSG_UDP              iDivisorNMEA    !AIVDM,1,1,,A,1:U8RjPP00trUeIjqUbDKgwn2H0P,0*40
 
8.13852         MSG_UDP              iDivisorNMEA    $MXPGN,01F803,281C,000000000000A067*14
 
8.14876         MSG_UDP              iDivisorNMEA    $MXPGN,01F804,281C,00000085AEC1A067*68
 
8.15903         MSG_UDP              iDivisorNMEA    $AGRSA,-0.96,A,,V*6D
 
8.15909         ANGULO_LEME          iDivisorNMEA    -0.96000     
8.16933         MSG_UDP              iDivisorNMEA    $SDDPT,1.79,0.00,*74
 
8.17963         MSG_UDP              iDivisorNMEA    $MXPGN,01FF1A,782B,FFFAFF859F410520*19
 
8.20750         MSG_UDP              iDivisorNMEA    $HCHDG,284.4,0.0,E,23.3,W*68
 
8.20763         MSG_UDP              iDivisorNMEA    $GPHDT,261.13,T*02
 
8.21787         MSG_UDP              iDivisorNMEA    $TIROT,-0.19,A*2E
 
8.23756         MSG_UDP              iDivisorNMEA    $MXPGN,01F803,281C,000000000000C869*10
 
8.23881         MSG_UDP              iDivisorNMEA    $MXPGN,01F804,281C,0000000C5FC1C869*65
 
8.25658         MSG_UDP              iDivisorNMEA    $AGRSA,-0.90,A,,V*6B
 
8.25661         ANGULO_LEME          iDivisorNMEA    -0.90000     
8.29949         MSG_UDP              iDivisorNMEA    $MXPGN,00FF00,280B,0002000005049913*19
 
8.30342         MSG_UDP              iDivisorNMEA    !AIVDO,1,1,,,B:UOH3P01o>VtCLf>boACwP5oP06,0*2D
 
8.31079         MSG_UDP              iDivisorNMEA    $HCHDG,284.4,0.0,E,23.3,W*68
 
8.32106         MSG_UDP              iDivisorNMEA    $GPHDT,261.14,T*05
 
8.33130         MSG_UDP              iDivisorNMEA    $TIROT,0.00,A*0B
 
8.34155         MSG_UDP              iDivisorNMEA    $GPGSA,A,3,08,10,16,18,21,23,26,,,,,,2.16,1.79,1.79*06
 
8.35185         MSG_UDP              iDivisorNMEA    $GPGSV,2,1,07,08,40,238,44,10,38,152,36,16,10,315,42,18,18,070,00*71
 
8.36210         MSG_UDP              iDivisorNMEA    $GPGSV,2,2,07,21,10,222,00,23,14,126,00,26,01,349,00*44
 
8.37242         MSG_UDP              iDivisorNMEA    $MXPGN,01FA06,681C,9F00B900C8690FA0*6B
 
8.38270         MSG_UDP              iDivisorNMEA    $MXPGN,01FA06,681C,00A400B4E3E200A1*6E
 
8.39296         MSG_UDP              iDivisorNMEA    $MXPGN,01FA06,681C,FFFFFFFFFF0168A2*60
 
8.40322         MSG_UDP              iDivisorNMEA    $MXPGN,01F803,281C,0000000000000069*6B
 
8.41345         MSG_UDP              iDivisorNMEA    $MXPGN,01F804,281C,0000000C5FC10069*1E
 
8.42372         MSG_UDP              iDivisorNMEA    $GPGGA,133801.000,2254.75309,S,04309.53850,W,1,07,1.79,1.44,M,-5.00,M,,*76
 
8.43404         MSG_UDP              iDivisorNMEA    $GPGLL,2254.75309,S,04309.53850,W,133801.000,A,A*52
 
8.44429         MSG_UDP              iDivisorNMEA    $GPRMC,133801.000,A,2254.75309,S,04309.53850,W,0.01,196.07,070323,23.39,W,A*1A
 
8.45459         MSG_UDP              iDivisorNMEA    $GPVTG,196.07,T,,M,0.01,N,0.01,K,A*34
 
8.46487         MSG_UDP              iDivisorNMEA    $AGRSA,-0.90,A,,V*6B
 
8.46495         ANGULO_LEME          iDivisorNMEA    -0.90000     
8.47513         MSG_UDP              iDivisorNMEA    $HCHDG,284.4,0.0,E,23.3,W*68
 
8.48539         MSG_UDP              iDivisorNMEA    $GPHDT,261.14,T*05
 
8.49564         MSG_UDP              iDivisorNMEA    $TIROT,0.00,A*0B
 
8.50593         MSG_UDP              iDivisorNMEA    $MXPGN,01F803,281C,000000000000286B*1A
 
8.51618         MSG_UDP              iDivisorNMEA    $MXPGN,01F804,281C,0000000C5FC1286B*6F
 
8.52647         MSG_UDP              iDivisorNMEA    !AIVDM,1,1,,A,1:U85d000iLrMImjrvQ0F0DF0l2`,0*6A
 
8.53669         MSG_UDP              iDivisorNMEA    $AGRSA,-0.90,A,,V*6B
 
8.53677         ANGULO_LEME          iDivisorNMEA    -0.90000     
8.54700         MSG_UDP              iDivisorNMEA    $MXPGN,00FF28,3808,FF08FFFDFC059F41*19
 
8.55728         MSG_UDP              iDivisorNMEA    $HCHDG,284.4,0.0,E,23.3,W*68
 
8.56757         MSG_UDP              iDivisorNMEA    $GPHDT,261.14,T*05
 
8.57785         MSG_UDP              iDivisorNMEA    $TIROT,-0.19,A*2E
 
8.58817         MSG_UDP              iDivisorNMEA    $MXPGN,01F803,281C,0000000000003C6C*61
 
8.59846         MSG_UDP              iDivisorNMEA    $MXPGN,01F804,281C,000000EB42C13C6C*15
 
8.60875         MSG_UDP              iDivisorNMEA    $MXPGN,00FF00,280B,0002000005049913*19
 
8.61908         MSG_UDP              iDivisorNMEA    $AGRSA,-0.90,A,,V*6B
 
8.61918         ANGULO_LEME          iDivisorNMEA    -0.90000     
8.62939         MSG_UDP              iDivisorNMEA    $MXPGN,01FF2C,7808,FFFFFFFF9F4117A0*1A
 
8.63964         MSG_UDP              iDivisorNMEA    $MXPGN,01FF2C,7808,FFFF7FFFFFFF7FA1*67
 
8.64994         MSG_UDP              iDivisorNMEA    $MXPGN,01FF2C,7808,FF7FFFFFFFFFFFA2*15
 
8.83745         MSG_UDP              iDivisorNMEA    $MXPGN,01F803,281C,000257000000786F*1B
 
8.83821         MSG_UDP              iDivisorNMEA    $MXPGN,01F804,281C,000000F377C1786F*1B
 
8.85731         MSG_UDP              iDivisorNMEA    $GPGGA,,2254.75389,S,04309.53849,W,1,,,,M,,M,,*5F
 
8.85858         MSG_UDP              iDivisorNMEA    $GPGLL,2254.75389,S,04309.53849,W,,A,A*44
 
8.86885         MSG_UDP              iDivisorNMEA    $GPVTG,334.80,T,,M,0.70,N,1.29,K,A*3C
 
8.87912         MSG_UDP              iDivisorNMEA    $AGRSA,-0.90,A,,V*6B
 
8.87921         ANGULO_LEME          iDivisorNMEA    -0.90000     
8.88936         MSG_UDP              iDivisorNMEA    $MXPGN,00FF8C,6808,FFF10695C9409F41*64
 
8.90731         MSG_UDP              iDivisorNMEA    $HCHDG,284.5,0.0,E,23.3,W*69
 
8.91048         MSG_UDP              iDivisorNMEA    $GPHDT,261.16,T*07
 
8.92069         MSG_UDP              iDivisorNMEA    $TIROT,-0.29,A*2D
 
8.93832         MSG_UDP              iDivisorNMEA    $MXPGN,01F803,281C,000257FFFDA88C70*63
 
8.94148         MSG_UDP              iDivisorNMEA    $MXPGN,01F804,281C,000000F377C18C70*18
 
8.95833         MSG_UDP              iDivisorNMEA    $GPGGA,133801.000,2254.75180,S,04309.53511,W,1,12,0.70,2.62,M,-5.60,M,,*70
 
8.96263         MSG_UDP              iDivisorNMEA    $GPGLL,2254.75180,S,04309.53511,W,133801.000,A,A*59
 
8.97290         MSG_UDP              iDivisorNMEA    $GPRMC,133801.000,A,2254.75180,S,04309.53511,W,0.09,0.00,070323,23.30,W,A*19
 
8.98320         MSG_UDP              iDivisorNMEA    $GPVTG,0.00,T,,M,0.09,N,0.16,K,A*33
 
8.99344         MSG_UDP              iDivisorNMEA    $AGRSA,-0.90,A,,V*6B
 
8.99350         ANGULO_LEME          iDivisorNMEA    -0.90000     
9.00366         MSG_UDP              iDivisorNMEA    $GPZDA,133801.260,07,03,2023,,*5D
 
9.01389         MSG_UDP              iDivisorNMEA    $HCHDG,284.5,0.0,E,23.3,W*69
 
9.02415         MSG_UDP              iDivisorNMEA    $GPHDT,261.17,T*06
 
9.03440         MSG_UDP              iDivisorNMEA    $TIROT,-0.29,A*2D
 
9.04467         MSG_UDP              iDivisorNMEA    $MXPGN,01F803,281C,000257FFFDA8A071*68
 
9.05490         MSG_UDP              iDivisorNMEA    $MXPGN,01F804,281C,000000C1BEC1A071*13
 
9.06519         MSG_UDP              iDivisorNMEA    $MXPGN,00FF00,280B,0002000005049913*19
 
