%%%%%%%%%%%%%%%%%%%%%%%%%%%%%%%%%%%%%%%%%%%%%%%%%%%%%%%%%%%
%% LOG FILE:       /home/moos-ivp-douglas/log/teste_6_3_2023_____19_29_14/teste_6_3_2023_____19_29_14.alog
%% FILE OPENED ON  Wed Dec 31 21:00:00 1969
%% LOGSTART           1678141753.749363
%%%%%%%%%%%%%%%%%%%%%%%%%%%%%%%%%%%%%%%%%%%%%%%%%%%%%%%%%%%
-0.03923        MOOS_DEBUG           pHelmIvP        pHelmIvP AllStop: ManualOverride 
-0.03923        DESIRED_SPEED        pHelmIvP        0.00000      
-0.03923        DESIRED_HEADING      pHelmIvP        0.00000      
0.16056         DESIRED_RUDDER       pMarinePIDV22   0.00000      
0.16056         DESIRED_THRUST       pMarinePIDV22   0.00000      
0.65740         ANGULO_LEME          iDivisorNMEA    4.07000      
0.74555         MSG_UDP              iDivisorNMEA    $MXPGN,01FF2C,7808,FFFFFFFF7FFFFF23*67 
0.75572         MSG_UDP              iDivisorNMEA    $AGRSA,4.07,A,,V*4C 
0.75574         ANGULO_LEME          iDivisorNMEA    4.07000      
0.76933         MSG_UDP              iDivisorNMEA    $MXPGN,01F803,281C,00000000000050CC*61 
0.77950         MSG_UDP              iDivisorNMEA    $MXPGN,01F804,281C,000000BB88C150CC*14 
0.78970         MSG_UDP              iDivisorNMEA    $MXPGN,00FF3D,6808,7FFFFF0DFFFF9F41*6E 
0.79984         MSG_UDP              iDivisorNMEA    $HCHDG,284.5,0.0,E,23.3,W*69 
0.81001         MSG_UDP              iDivisorNMEA    $GPHDT,261.17,T*06 
0.82017         MSG_UDP              iDivisorNMEA    $TIROT,-0.69,A*29 
0.83032         MSG_UDP              iDivisorNMEA    $AGRSA,4.07,A,,V*4C 
0.83034         ANGULO_LEME          iDivisorNMEA    4.07000      
0.84050         MSG_UDP              iDivisorNMEA    $MXPGN,01F803,281C,00000000000078CE*6D 
0.85067         MSG_UDP              iDivisorNMEA    $MXPGN,01F804,281C,000000AE47C178CE*1F 
0.86079         MSG_UDP              iDivisorNMEA    $HCHDG,284.5,0.0,E,23.3,W*69 
0.87092         MSG_UDP              iDivisorNMEA    $GPHDT,261.16,T*07 
0.88121         MSG_UDP              iDivisorNMEA    $TIROT,-0.59,A*2A 
0.89137         MSG_UDP              iDivisorNMEA    $AGRSA,4.07,A,,V*4C 
0.89139         ANGULO_LEME          iDivisorNMEA    4.07000      
0.90161         MSG_UDP              iDivisorNMEA    $MXPGN,01F803,281C,0000000000008CCF*1A 
0.91176         MSG_UDP              iDivisorNMEA    $MXPGN,01F804,281C,000000AE47C18CCF*68 
0.92195         MSG_UDP              iDivisorNMEA    $MXPGN,00FF19,7808,0000000202009F41*15 
0.93262         MSG_UDP              iDivisorNMEA    $MXPGN,00FF19,7808,0080000A0A009F41*1D 
0.94281         MSG_UDP              iDivisorNMEA    $HCHDG,284.5,0.0,E,23.3,W*69 
0.95297         MSG_UDP              iDivisorNMEA    $GPHDT,261.18,T*09 
0.96311         MSG_UDP              iDivisorNMEA    $TIROT,-0.59,A*2A 
0.97506         MSG_UDP              iDivisorNMEA    $MXPGN,00FF8C,6808,FFF10695C9409F41*64 
0.98530         MSG_UDP              iDivisorNMEA    $MXPGN,00FF3C,3808,8000F8FE00009F41*1C 
0.99545         MSG_UDP              iDivisorNMEA    $GPGGA,,21444.9018,N,21444.90188,E,1,,,,M,,M,,*54 
1.00892         MSG_UDP              iDivisorNMEA    $GPGLL,21444.9018,N,21444.90188,E,,A,A*4F 
1.01908         MSG_UDP              iDivisorNMEA    $GPVTG,,T,,M,,N,,K,A*23 
1.02929         MSG_UDP              iDivisorNMEA    $AGRSA,4.07,A,,V*4C 
1.02935         ANGULO_LEME          iDivisorNMEA    4.07000      
1.03944         MSG_UDP              iDivisorNMEA    $MXPGN,01F803,281C,0000000000009FD0*6F 
1.04962         MSG_UDP              iDivisorNMEA    $MXPGN,01F804,281C,000000AE47C19FD0*1D 
1.05983         MSG_UDP              iDivisorNMEA    $HCHDG,284.5,0.0,E,23.3,W*69 
1.06990         MSG_UDP              iDivisorNMEA    $GPHDT,261.20,T*02 
1.08007         MSG_UDP              iDivisorNMEA    $TIROT,-0.59,A*2A 
1.09033         MSG_UDP              iDivisorNMEA    $MXPGN,00FF16,7808,FF0000002B0A9F41*1B 
1.10265         MSG_UDP              iDivisorNMEA    $AGRSA,4.07,A,,V*4C 
1.10268         ANGULO_LEME          iDivisorNMEA    4.07000      
1.11735         MSG_UDP              iDivisorNMEA    $GPZDA,130009.370,06,03,2023,,*5F 
1.12753         MSG_UDP              iDivisorNMEA    $MXPGN,01F803,281C,000000000000B4D1*67 
1.13769         MSG_UDP              iDivisorNMEA    $MXPGN,01F804,281C,0000001B43C1B4D1*66 
1.14795         MSG_UDP              iDivisorNMEA    $HCHDG,284.5,0.0,E,23.3,W*69 
1.15804         MSG_UDP              iDivisorNMEA    $GPHDT,261.20,T*02 
1.16824         MSG_UDP              iDivisorNMEA    $TIROT,-0.59,A*2A 
1.17845         MSG_UDP              iDivisorNMEA    $AGRSA,4.07,A,,V*4C 
1.17850         ANGULO_LEME          iDivisorNMEA    4.07000      
1.18861         MSG_UDP              iDivisorNMEA    $MXPGN,01F803,281C,000000000000C8D2*69 
1.19875         MSG_UDP              iDivisorNMEA    $MXPGN,01F804,281C,0000001B43C1C8D2*68 
1.20893         MSG_UDP              iDivisorNMEA    $HCHDG,284.5,0.0,E,23.3,W*69 
1.21907         MSG_UDP              iDivisorNMEA    $GPHDT,261.20,T*02 
1.22925         MSG_UDP              iDivisorNMEA    $TIROT,-0.59,A*2A 
1.24175         MSG_UDP              iDivisorNMEA    $AGRSA,4.07,A,,V*4C 
1.24179         ANGULO_LEME          iDivisorNMEA    4.07000      
1.25189         MSG_UDP              iDivisorNMEA    $MXPGN,01F803,281C,000000000000DCD3*14 
1.26212         MSG_UDP              iDivisorNMEA    $MXPGN,01F804,281C,000000CF90C1DCD3*6D 
1.27329         MSG_UDP              iDivisorNMEA    $GPGGA,130009.800,2254.75309,S,04309.53799,W,1,07,1.89,-1.76,M,-5.00,M,,*54 
1.28346         MSG_UDP              iDivisorNMEA    $GPGLL,2254.75309,S,04309.53799,W,130009.800,A,A*53 
1.29477         MSG_UDP              iDivisorNMEA    $GPRMC,130009.800,A,2254.75309,S,04309.53799,W,0.00,304.44,060323,23.39,W,A*15 
1.30566         MSG_UDP              iDivisorNMEA    $GPVTG,304.44,T,,M,0.00,N,0.00,K,A*3A 
1.31580         MSG_UDP              iDivisorNMEA    $HCHDG,284.5,0.0,E,23.3,W*69 
1.32603         MSG_UDP              iDivisorNMEA    $GPHDT,261.20,T*02 
1.33628         MSG_UDP              iDivisorNMEA    $TIROT,-0.89,A*27 
1.34708         MSG_UDP              iDivisorNMEA    $GPGSA,A,3,08,10,16,18,23,24,26,,,,,,2.30,1.89,1.89*07 
1.35709         MSG_UDP              iDivisorNMEA    $HCHDG,284.5,0.0,E,23.3,W*69 
1.36716         MSG_UDP              iDivisorNMEA    $GPHDT,261.20,T*02 
1.37728         MSG_UDP              iDivisorNMEA    $TIROT,-0.49,A*2B 
1.38754         MSG_UDP              iDivisorNMEA    $AGRSA,4.07,A,,V*4C 
1.38757         ANGULO_LEME          iDivisorNMEA    4.07000      
1.40241         MSG_UDP              iDivisorNMEA    $MXPGN,01F803,281C,00000000000028D6*1C 
1.41258         MSG_UDP              iDivisorNMEA    $MXPGN,01F804,281C,000000C4D3C128D6*69 
1.42433         MSG_UDP              iDivisorNMEA    $HCHDG,284.5,0.0,E,23.3,W*69 
1.43446         MSG_UDP              iDivisorNMEA    $GPHDT,261.21,T*03 
1.44465         MSG_UDP              iDivisorNMEA    $TIROT,-0.49,A*2B 
1.45511         MSG_UDP              iDivisorNMEA    $MXPGN,01FF2C,7808,FFFFFFFF9F411740*6F 
1.46525         MSG_UDP              iDivisorNMEA    $MXPGN,01FF2C,7808,FFFF7FFFFFFF7F41*12 
1.47538         MSG_UDP              iDivisorNMEA    $MXPGN,01FF2C,7808,FF7FFFFFFFFFFF42*60 
1.48556         MSG_UDP              iDivisorNMEA    $MXPGN,01FF2C,7808,FFFFFFFF7FFFFF43*61 
1.49576         MSG_UDP              iDivisorNMEA    $AGRSA,4.07,A,,V*4C 
1.49579         ANGULO_LEME          iDivisorNMEA    4.07000      
1.50592         MSG_UDP              iDivisorNMEA    $MXPGN,01F803,281C,0000000000003CD7*67 
1.51604         MSG_UDP              iDivisorNMEA    $MXPGN,01F804,281C,000000C4D3C13CD7*12 
1.52630         MSG_UDP              iDivisorNMEA    $MXPGN,00FF3D,6808,7FFFFF0DFFFF9F41*6E 
1.53649         MSG_UDP              iDivisorNMEA    $HCHDG,284.5,0.0,E,23.3,W*69 
1.54667         MSG_UDP              iDivisorNMEA    $GPHDT,261.21,T*03 
1.55684         MSG_UDP              iDivisorNMEA    $TIROT,-0.79,A*28 
1.56699         MSG_UDP              iDivisorNMEA    $AGRSA,4.07,A,,V*4C 
1.56701         ANGULO_LEME          iDivisorNMEA    4.07000      
1.58151         MSG_UDP              iDivisorNMEA    $MXPGN,01F803,281C,00000000000050D8*1D 
1.59168         MSG_UDP              iDivisorNMEA    $MXPGN,01F804,281C,000000B0CFC150D8*1F 
1.60184         MSG_UDP              iDivisorNMEA    $HCHDG,284.5,0.0,E,23.3,W*69 
1.61203         MSG_UDP              iDivisorNMEA    $GPHDT,261.23,T*01 
1.62219         MSG_UDP              iDivisorNMEA    $TIROT,-0.79,A*28 
1.63237         MSG_UDP              iDivisorNMEA    $AGRSA,4.07,A,,V*4C 
1.63240         ANGULO_LEME          iDivisorNMEA    4.07000      
1.64257         MSG_UDP              iDivisorNMEA    $MXPGN,01F803,281C,00000000000064D9*1B 
1.65284         MSG_UDP              iDivisorNMEA    $MXPGN,01F804,281C,000000B0CFC164D9*19 
1.66305         MSG_UDP              iDivisorNMEA    $MXPGN,00FF19,7808,0000000202009F41*15 
1.67326         MSG_UDP              iDivisorNMEA    $MXPGN,00FF19,7808,0080000A0A009F41*1D 
1.68621         MSG_UDP              iDivisorNMEA    $HCHDG,284.6,0.0,E,23.3,W*6A 
1.69571         MSG_UDP              iDivisorNMEA    $GPHDT,261.26,T*04 
1.70588         MSG_UDP              iDivisorNMEA    $TIROT,-0.39,A*2C 
1.72059         MSG_UDP              iDivisorNMEA    $MXPGN,00FF8C,6808,FFF10695C9409F41*64 
1.73070         MSG_UDP              iDivisorNMEA    $MXPGN,00FF3C,3808,8000F8FE00009F41*1C 
1.74096         MSG_UDP              iDivisorNMEA    $GPGGA,,21444.9018,N,21444.90188,E,1,,,,M,,M,,*54 
1.75114         MSG_UDP              iDivisorNMEA    $GPGLL,21444.9018,N,21444.90188,E,,A,A*4F 
1.76138         MSG_UDP              iDivisorNMEA    $GPVTG,,T,,M,,N,,K,A*23 
1.77159         MSG_UDP              iDivisorNMEA    $AGRSA,4.07,A,,V*4C 
1.77162         ANGULO_LEME          iDivisorNMEA    4.07000      
1.78185         MSG_UDP              iDivisorNMEA    $MXPGN,01F803,281C,00000000000078DA*6E 
1.79215         MSG_UDP              iDivisorNMEA    $MXPGN,01F804,281C,000000B0CFC178DA*6C 
1.80236         MSG_UDP              iDivisorNMEA    $HCHDG,284.6,0.0,E,23.3,W*6A 
1.81306         MSG_UDP              iDivisorNMEA    $GPHDT,261.27,T*05 
1.82343         MSG_UDP              iDivisorNMEA    $TIROT,-0.39,A*2C 
1.83368         MSG_UDP              iDivisorNMEA    $MXPGN,00FF16,7808,FF0000002B0A9F41*1B 
1.84390         MSG_UDP              iDivisorNMEA    $AGRSA,4.07,A,,V*4C 
1.84396         ANGULO_LEME          iDivisorNMEA    4.07000      
1.85414         MSG_UDP              iDivisorNMEA    $GPZDA,130010.570,06,03,2023,,*51 
1.86442         MSG_UDP              iDivisorNMEA    $MXPGN,01F803,281C,0000000000008CDB*19 
1.87460         MSG_UDP              iDivisorNMEA    $MXPGN,01F804,281C,0000001F99C18CDB*1B 
1.88484         MSG_UDP              iDivisorNMEA    $HCHDG,284.6,0.0,E,23.3,W*6A 
1.89502         MSG_UDP              iDivisorNMEA    $GPHDT,261.27,T*05 
1.90522         MSG_UDP              iDivisorNMEA    $TIROT,-0.39,A*2C 
1.91874         MSG_UDP              iDivisorNMEA    !AIVDM,1,1,,B,1:U8:OPP1LtrKsEjqM2ItOv>2L2d,0*46 
1.92888         MSG_UDP              iDivisorNMEA    $AGRSA,4.07,A,,V*4C 
1.92893         ANGULO_LEME          iDivisorNMEA    4.07000      
1.93909         MSG_UDP              iDivisorNMEA    $MXPGN,01F803,281C,0000000000008CDB*19 
1.95054         MSG_UDP              iDivisorNMEA    $MXPGN,01F804,281C,0000001F99C18CDB*1B 
1.96074         MSG_UDP              iDivisorNMEA    $HCHDG,284.6,0.0,E,23.3,W*6A 
1.97088         MSG_UDP              iDivisorNMEA    $GPHDT,261.27,T*05 
1.98119         MSG_UDP              iDivisorNMEA    $TIROT,-0.59,A*2A 
1.99169         MSG_UDP              iDivisorNMEA    $AGRSA,4.07,A,,V*4C 
1.99178         ANGULO_LEME          iDivisorNMEA    4.07000      
2.00785         MSG_UDP              iDivisorNMEA    $MXPGN,01F803,281C,000000000000B4DD*12 
2.02187         MSG_UDP              iDivisorNMEA    $MXPGN,01F804,281C,0000005A7DC1B4DD*60 
2.03209         MSG_UDP              iDivisorNMEA    $GPGGA,130010.800,2254.75309,S,04309.53799,W,1,07,1.89,-1.76,M,-5.00,M,,*5C 
2.04255         MSG_UDP              iDivisorNMEA    $HCHDG,284.6,0.0,E,23.3,W*6A 
2.05279         MSG_UDP              iDivisorNMEA    $GPHDT,261.27,T*05 
2.06681         MSG_UDP              iDivisorNMEA    $TIROT,-0.79,A*28 
2.07966         MSG_UDP              iDivisorNMEA    $AGRSA,4.07,A,,V*4C 
2.07978         ANGULO_LEME          iDivisorNMEA    4.07000      
2.09002         MSG_UDP              iDivisorNMEA    $MXPGN,01F803,281C,00000000000014DF*63 
2.10695         MSG_UDP              iDivisorNMEA    $MXPGN,01F804,281C,0000005A7DC114DF*11 
2.12219         MSG_UDP              iDivisorNMEA    $HCHDG,284.6,0.0,E,23.3,W*6A 
2.13247         MSG_UDP              iDivisorNMEA    $GPHDT,261.27,T*05 
2.14648         MSG_UDP              iDivisorNMEA    $TIROT,-0.59,A*2A 
2.15917         MSG_UDP              iDivisorNMEA    $AGRSA,4.07,A,,V*4C 
2.15927         ANGULO_LEME          iDivisorNMEA    4.07000      
2.16958         MSG_UDP              iDivisorNMEA    $MXPGN,01F803,281C,00000000000028E0*1B 
2.17993         MSG_UDP              iDivisorNMEA    $MXPGN,01F804,281C,00000015F7C128E0*1B 
2.19716         MSG_UDP              iDivisorNMEA    $HCHDG,284.6,0.0,E,23.3,W*6A 
2.21039         MSG_UDP              iDivisorNMEA    $GPHDT,261.27,T*05 
2.22164         MSG_UDP              iDivisorNMEA    $TIROT,-0.59,A*2A 
2.23198         MSG_UDP              iDivisorNMEA    $MXPGN,01FF2C,7808,FFFFFFFF9F411760*6D 
2.25159         MSG_UDP              iDivisorNMEA    $MXPGN,01FF2C,7808,FFFF7FFFFFFF7F61*10 
2.26176         MSG_UDP              iDivisorNMEA    $MXPGN,01FF2C,7808,FF7FFFFFFFFFFF62*62 
2.28467         MSG_UDP              iDivisorNMEA    $MXPGN,01FF2C,7808,FFFFFFFF7FFFFF63*63 
2.29487         MSG_UDP              iDivisorNMEA    $AGRSA,4.07,A,,V*4C 
2.29494         ANGULO_LEME          iDivisorNMEA    4.07000      
2.30644         MSG_UDP              iDivisorNMEA    $MXPGN,01F803,281C,0000000000003CE1*60 
2.31676         MSG_UDP              iDivisorNMEA    $MXPGN,01F804,281C,00000015F7C13CE1*60 
2.32709         MSG_UDP              iDivisorNMEA    $MXPGN,00FF3D,6808,7FFFFF0DFFFF9F41*6E 
2.33924         MSG_UDP              iDivisorNMEA    $HCHDG,284.6,0.0,E,23.3,W*6A 
2.35369         MSG_UDP              iDivisorNMEA    $GPHDT,261.25,T*07 
2.36438         MSG_UDP              iDivisorNMEA    $TIROT,-1.19,A*2F 
2.37720         MSG_UDP              iDivisorNMEA    $AGRSA,4.07,A,,V*4C 
2.37725         ANGULO_LEME          iDivisorNMEA    4.07000      
2.38757         MSG_UDP              iDivisorNMEA    $MXPGN,01F803,281C,00000000000050E2*16 
2.39779         MSG_UDP              iDivisorNMEA    $MXPGN,01F804,281C,0000006CD4C150E2*66 
2.41409         MSG_UDP              iDivisorNMEA    $HCHDG,284.5,0.0,E,23.3,W*69 
2.42426         MSG_UDP              iDivisorNMEA    $GPHDT,261.24,T*06 
2.43793         MSG_UDP              iDivisorNMEA    $TIROT,-1.19,A*2F 
2.44808         MSG_UDP              iDivisorNMEA    $AGRSA,4.07,A,,V*4C 
2.44815         ANGULO_LEME          iDivisorNMEA    4.07000      
2.45920         MSG_UDP              iDivisorNMEA    $MXPGN,01F803,281C,00000000000064E3*10 
2.46942         MSG_UDP              iDivisorNMEA    $MXPGN,01F804,281C,0000006CD4C164E3*60 
2.47951         MSG_UDP              iDivisorNMEA    $MXPGN,00FF19,7808,0000000202009F41*15 
2.48966         MSG_UDP              iDivisorNMEA    $MXPGN,00FF19,7808,0080000A0A009F41*1D 
2.49981         MSG_UDP              iDivisorNMEA    $HCHDG,284.6,0.0,E,23.3,W*6A 
2.51054         MSG_UDP              iDivisorNMEA    $GPHDT,261.25,T*07 
2.52095         MSG_UDP              iDivisorNMEA    $TIROT,-0.79,A*28 
2.53119         MSG_UDP              iDivisorNMEA    $MXPGN,00FF8C,6808,FFF10695C9409F41*64 
2.54146         MSG_UDP              iDivisorNMEA    $MXPGN,00FF3C,3808,8000F8FE00009F41*1C 
2.55177         MSG_UDP              iDivisorNMEA    $GPGGA,,21444.9018,N,21444.90188,E,1,,,,M,,M,,*54 
2.56868         MSG_UDP              iDivisorNMEA    $GPGLL,21444.9018,N,21444.90188,E,,A,A*4F 
2.57890         MSG_UDP              iDivisorNMEA    $GPVTG,,T,,M,,N,,K,A*23 
2.59493         MSG_UDP              iDivisorNMEA    $AGRSA,4.07,A,,V*4C 
2.59500         ANGULO_LEME          iDivisorNMEA    4.07000      
2.60542         MSG_UDP              iDivisorNMEA    $MXPGN,01F803,281C,00000000000078E4*1A 
2.61579         MSG_UDP              iDivisorNMEA    $MXPGN,01F804,281C,0000006CD4C178E4*6A 
2.62605         MSG_UDP              iDivisorNMEA    $HCHDG,284.6,0.0,E,23.3,W*6A 
2.63642         MSG_UDP              iDivisorNMEA    $GPHDT,261.25,T*07 
2.64680         MSG_UDP              iDivisorNMEA    $TIROT,-0.79,A*28 
2.66383         MSG_UDP              iDivisorNMEA    $MXPGN,00FF16,7808,FF0000002B0A9F41*1B 
2.67425         MSG_UDP              iDivisorNMEA    $AGRSA,4.07,A,,V*4C 
2.67432         ANGULO_LEME          iDivisorNMEA    4.07000      
2.69705         MSG_UDP              iDivisorNMEA    $GPZDA,130011.570,06,03,2023,,*50 
2.70726         MSG_UDP              iDivisorNMEA    $MXPGN,01F803,281C,0000000000008CE5*6F 
2.72128         MSG_UDP              iDivisorNMEA    $MXPGN,01F804,281C,000000DCF2C18CE5*69 
2.73167         MSG_UDP              iDivisorNMEA    $HCHDG,284.5,0.0,E,23.3,W*69 
2.74205         MSG_UDP              iDivisorNMEA    $GPHDT,261.24,T*06 
2.75243         MSG_UDP              iDivisorNMEA    $TIROT,-0.69,A*29 
2.76552         MSG_UDP              iDivisorNMEA    $AGRSA,4.07,A,,V*4C 
2.76558         ANGULO_LEME          iDivisorNMEA    4.07000      
2.77761         MSG_UDP              iDivisorNMEA    $MXPGN,01F803,281C,000000000000A0E6*66 
2.78777         MSG_UDP              iDivisorNMEA    $MXPGN,01F804,281C,000000DCF2C1A0E6*60 
2.79809         MSG_UDP              iDivisorNMEA    $HCHDG,284.5,0.0,E,23.3,W*69 
2.80848         MSG_UDP              iDivisorNMEA    $GPHDT,261.23,T*01 
2.81884         MSG_UDP              iDivisorNMEA    $GPGGA,130011.800,2254.75309,S,04309.53799,W,1,07,1.89,-1.76,M,-5.00,M,,*5D 
2.82901         MSG_UDP              iDivisorNMEA    $GPGLL,2254.75309,S,04309.53799,W,130011.800,A,A*5A 
2.84150         MSG_UDP              iDivisorNMEA    $GPRMC,130011.800,A,2254.75309,S,04309.53799,W,0.01,146.16,060323,23.39,W,A*1E 
2.85163         MSG_UDP              iDivisorNMEA    $GPVTG,146.16,T,,M,0.01,N,0.01,K,A*39 
2.86192         MSG_UDP              iDivisorNMEA    $HCHDG,284.5,0.0,E,23.3,W*69 
2.87703         MSG_UDP              iDivisorNMEA    $GPHDT,261.24,T*06 
2.89164         MSG_UDP              iDivisorNMEA    $TIROT,-0.69,A*29 
2.90251         MSG_UDP              iDivisorNMEA    $GPGSA,A,3,08,10,16,18,23,24,26,,,,,,2.30,1.89,1.89*07 
2.91587         MSG_UDP              iDivisorNMEA    $GPGSV,2,1,07,08,26,222,00,10,50,174,50,16,19,298,43,18,27,089,46*74 
2.92674         MSG_UDP              iDivisorNMEA    $GPGSV,2,2,07,23,26,140,00,24,02,116,00,26,09,335,39*4E 
2.94983         MSG_UDP              iDivisorNMEA    $MXPGN,01FA06,681C,9000DD00C8E80F80*6D 
2.96016         MSG_UDP              iDivisorNMEA    $MXPGN,01FA06,681C,009400DB07AF0081*1E 
2.98328         MSG_UDP              iDivisorNMEA    $MXPGN,01FA06,681C,FFFFFFFFFF018382*1C 
2.99348         MSG_UDP              iDivisorNMEA    $AGRSA,4.07,A,,V*4C 
2.99353         ANGULO_LEME          iDivisorNMEA    4.07000      
3.00659         MSG_UDP              iDivisorNMEA    $MXPGN,01F803,281C,00000000000000E8*19 
3.01697         MSG_UDP              iDivisorNMEA    $MXPGN,01F804,281C,00000063A7C100E8*1F 
3.02732         MSG_UDP              iDivisorNMEA    $HCHDG,284.6,0.0,E,23.3,W*6A 
3.03773         MSG_UDP              iDivisorNMEA    $GPHDT,261.26,T*04 
3.05583         MSG_UDP              iDivisorNMEA    $TIROT,-0.69,A*29 
3.06585         MSG_UDP              iDivisorNMEA    $AGRSA,4.07,A,,V*4C 
3.06589         ANGULO_LEME          iDivisorNMEA    4.07000      
3.07608         MSG_UDP              iDivisorNMEA    $MXPGN,01F803,281C,00000000000014E9*1D 
3.08653         MSG_UDP              iDivisorNMEA    $MXPGN,01F804,281C,00000063A7C114E9*1B 
3.11086         MSG_UDP              iDivisorNMEA    $HCHDG,284.6,0.0,E,23.3,W*6A 
3.12117         MSG_UDP              iDivisorNMEA    $GPHDT,261.26,T*04 
3.13552         MSG_UDP              iDivisorNMEA    $TIROT,-0.09,A*2F 
3.14595         MSG_UDP              iDivisorNMEA    $AGRSA,4.07,A,,V*4C 
3.14606         ANGULO_LEME          iDivisorNMEA    4.07000      
3.15639         MSG_UDP              iDivisorNMEA    $MXPGN,01F803,281C,00000000000028EA*6A 
3.16662         MSG_UDP              iDivisorNMEA    $MXPGN,01F804,281C,00000034ACC128EA*1A 
3.17703         MSG_UDP              iDivisorNMEA    $HCHDG,284.6,0.0,E,23.3,W*6A 
3.18719         MSG_UDP              iDivisorNMEA    $GPHDT,261.27,T*05 
3.19852         MSG_UDP              iDivisorNMEA    $TIROT,-0.09,A*2F 
3.20870         MSG_UDP              iDivisorNMEA    $MXPGN,01FF2C,7808,FFFFFFFF9F411780*63 
3.21898         MSG_UDP              iDivisorNMEA    $MXPGN,01FF2C,7808,FFFF7FFFFFFF7F81*1E 
3.22918         MSG_UDP              iDivisorNMEA    $MXPGN,01FF2C,7808,FF7FFFFFFFFFFF82*6C 
3.23946         MSG_UDP              iDivisorNMEA    $MXPGN,01FF2C,7808,FFFFFFFF7FFFFF83*6D 
3.24964         MSG_UDP              iDivisorNMEA    $AGRSA,4.07,A,,V*4C 
3.24968         ANGULO_LEME          iDivisorNMEA    4.07000      
3.25977         MSG_UDP              iDivisorNMEA    $MXPGN,01F803,281C,0000000000003CEB*13 
3.26990         MSG_UDP              iDivisorNMEA    $MXPGN,01F804,281C,00000034ACC13CEB*63 
3.28007         MSG_UDP              iDivisorNMEA    $MXPGN,00FF3D,6808,7FFFFF0DFFFF9F41*6E 
3.29056         MSG_UDP              iDivisorNMEA    $MXPGN,00FF3D,6808,0000FF0BFFFF9F41*19 
3.30083         MSG_UDP              iDivisorNMEA    $HCHDG,284.6,0.0,E,23.3,W*6A 
3.31105         MSG_UDP              iDivisorNMEA    $GPHDT,261.28,T*0A 
3.32125         MSG_UDP              iDivisorNMEA    $TIROT,-0.09,A*2F 
3.33142         MSG_UDP              iDivisorNMEA    $MXPGN,00FF3D,6808,FFFFFF0CFFFF9F41*18 
3.34185         MSG_UDP              iDivisorNMEA    $MXPGN,00FF3D,6808,FFFFFF03FFFF9F41*68 
3.35374         MSG_UDP              iDivisorNMEA    $AGRSA,4.07,A,,V*4C 
3.35381         ANGULO_LEME          iDivisorNMEA    4.07000      
3.37155         MSG_UDP              iDivisorNMEA    $MXPGN,01F803,281C,00000000000050EC*67 
3.38178         MSG_UDP              iDivisorNMEA    $MXPGN,01F804,281C,0000009524C150EC*18 
3.40513         MSG_UDP              iDivisorNMEA    $MXPGN,00FF3D,6808,FFFFFF02FFFF9F41*69 
3.41522         MSG_UDP              iDivisorNMEA    $MXPGN,01FF1A,782B,FFFAFF859F410500*1B 
3.42798         MSG_UDP              iDivisorNMEA    $HCHDG,284.6,0.0,E,23.3,W*6A 
3.43820         MSG_UDP              iDivisorNMEA    $GPHDT,261.28,T*0A 
3.45180         MSG_UDP              iDivisorNMEA    $TIROT,-0.59,A*2A 
3.46233         MSG_UDP              iDivisorNMEA    $AGRSA,4.07,A,,V*4C 
3.46239         ANGULO_LEME          iDivisorNMEA    4.07000      
3.47278         MSG_UDP              iDivisorNMEA    $MXPGN,01F803,281C,00000000000064ED*67 
3.48287         MSG_UDP              iDivisorNMEA    $MXPGN,01F804,281C,0000009524C164ED*18 
3.49302         MSG_UDP              iDivisorNMEA    $MXPGN,00FF19,7808,0000000202009F41*15 
3.50326         MSG_UDP              iDivisorNMEA    $MXPGN,00FF19,7808,0080000A0A009F41*1D 
3.51339         MSG_UDP              iDivisorNMEA    $HCHDG,284.6,0.0,E,23.3,W*6A 
3.52359         MSG_UDP              iDivisorNMEA    $GPHDT,261.30,T*03 
3.53380         MSG_UDP              iDivisorNMEA    $TIROT,-0.39,A*2C 
3.54408         MSG_UDP              iDivisorNMEA    $MXPGN,00FF8C,6808,FFF10695C9409F41*64 
3.55440         MSG_UDP              iDivisorNMEA    $MXPGN,00FF3C,3808,8000F8FE00009F41*1C 
3.56450         MSG_UDP              iDivisorNMEA    $GPGGA,,21444.9018,N,21444.90188,E,1,,,,M,,M,,*54 
3.57463         MSG_UDP              iDivisorNMEA    $HCHDG,284.6,0.0,E,23.3,W*6A 
3.58482         MSG_UDP              iDivisorNMEA    $GPHDT,261.33,T*00 
3.59507         MSG_UDP              iDivisorNMEA    $TIROT,-0.09,A*2F 
3.60527         MSG_UDP              iDivisorNMEA    $AGRSA,4.07,A,,V*4C 
3.60530         ANGULO_LEME          iDivisorNMEA    4.07000      
3.61538         MSG_UDP              iDivisorNMEA    $MXPGN,01F803,281C,000000000000B4F1*65 
3.62553         MSG_UDP              iDivisorNMEA    $MXPGN,01F804,281C,000000275BC1B4F1*62 
3.63621         MSG_UDP              iDivisorNMEA    $GPGGA,130012.800,2254.75309,S,04309.53799,W,1,07,1.89,-1.76,M,-5.00,M,,*5E 
3.64637         MSG_UDP              iDivisorNMEA    $GPGLL,2254.75309,S,04309.53799,W,130012.800,A,A*59 
3.65655         MSG_UDP              iDivisorNMEA    $GPRMC,130012.800,A,2254.75309,S,04309.53799,W,0.00,57.72,060323,23.39,W,A*2F 
3.66672         MSG_UDP              iDivisorNMEA    $GPVTG,57.72,T,,M,0.00,N,0.00,K,A*0A 
3.67693         MSG_UDP              iDivisorNMEA    $HCHDG,284.6,0.0,E,23.3,W*6A 
3.68716         MSG_UDP              iDivisorNMEA    $GPHDT,261.33,T*00 
3.69782         MSG_UDP              iDivisorNMEA    $TIROT,-0.39,A*2C 
3.70799         MSG_UDP              iDivisorNMEA    $GPGSA,A,3,08,10,16,18,23,24,26,,,,,,2.30,1.89,1.89*07 
3.71817         MSG_UDP              iDivisorNMEA    $GPGSV,2,1,07,08,26,222,00,10,50,174,50,16,19,298,43,18,27,089,46*74 
3.72833         MSG_UDP              iDivisorNMEA    $GPGSV,2,2,07,23,26,140,00,24,02,116,00,26,09,335,39*4E 
3.73957         MSG_UDP              iDivisorNMEA    $MXPGN,01FA06,681C,9000DD00C8F20FA0*1D 
3.74975         MSG_UDP              iDivisorNMEA    $MXPGN,01FA06,681C,009400DB07AF00A1*67 
3.76341         MSG_UDP              iDivisorNMEA    $MXPGN,01FA06,681C,FFFFFFFFFF0183A2*65 
3.77362         MSG_UDP              iDivisorNMEA    $AGRSA,4.07,A,,V*4C 
3.77366         ANGULO_LEME          iDivisorNMEA    4.07000      
3.78378         MSG_UDP              iDivisorNMEA    $MXPGN,01F803,281C,00000000000000F2*10 
3.79450         MSG_UDP              iDivisorNMEA    $MXPGN,01F804,281C,000000275BC100F2*17 
3.80469         MSG_UDP              iDivisorNMEA    $HCHDG,284.6,0.0,E,23.3,W*6A 
3.81491         MSG_UDP              iDivisorNMEA    $GPHDT,261.32,T*01 
3.82505         MSG_UDP              iDivisorNMEA    $TIROT,-0.39,A*2C 
3.83531         MSG_UDP              iDivisorNMEA    $AGRSA,4.07,A,,V*4C 
3.83535         ANGULO_LEME          iDivisorNMEA    4.07000      
3.84564         MSG_UDP              iDivisorNMEA    $MXPGN,01F803,281C,00000000000014F3*14 
3.85562         MSG_UDP              iDivisorNMEA    $MXPGN,01F804,281C,000000275BC114F3*13 
3.86584         MSG_UDP              iDivisorNMEA    $HCHDG,284.6,0.0,E,23.3,W*6A 
3.87603         MSG_UDP              iDivisorNMEA    $GPHDT,261.32,T*01 
3.88644         MSG_UDP              iDivisorNMEA    $TIROT,0.00,A*0B 
3.89673         MSG_UDP              iDivisorNMEA    $AGRSA,4.07,A,,V*4C 
3.89677         ANGULO_LEME          iDivisorNMEA    4.07000      
3.90691         MSG_UDP              iDivisorNMEA    $MXPGN,01F803,281C,00000000000028F4*1C 
3.91755         MSG_UDP              iDivisorNMEA    $MXPGN,01F804,281C,0000001691C128F4*66 
3.92744         MSG_UDP              iDivisorNMEA    $HCHDG,284.6,0.0,E,23.3,W*6A 
3.93764         MSG_UDP              iDivisorNMEA    $GPHDT,261.33,T*00 
3.94783         MSG_UDP              iDivisorNMEA    $TIROT,0.00,A*0B 
3.96157         MSG_UDP              iDivisorNMEA    $MXPGN,01FF2C,7808,FFFFFFFF9F4117A0*1A 
3.97252         MSG_UDP              iDivisorNMEA    $MXPGN,01FF2C,7808,FFFF7FFFFFFF7FA1*67 
3.98269         MSG_UDP              iDivisorNMEA    $MXPGN,01FF2C,7808,FF7FFFFFFFFFFFA2*15 
3.99286         MSG_UDP              iDivisorNMEA    $MXPGN,01FF2C,7808,FFFFFFFF7FFFFFA3*14 
4.00314         MSG_UDP              iDivisorNMEA    $AGRSA,4.07,A,,V*4C 
4.00317         ANGULO_LEME          iDivisorNMEA    4.07000      
4.01340         MSG_UDP              iDivisorNMEA    $MXPGN,01F803,281C,0000000000003CF5*67 
4.02358         MSG_UDP              iDivisorNMEA    $MXPGN,01F804,281C,0000001691C13CF5*1D 
4.03451         MSG_UDP              iDivisorNMEA    $MXPGN,00FF3D,6808,7FFFFF0DFFFF9F41*6E 
4.04751         MSG_UDP              iDivisorNMEA    $HCHDG,284.6,0.0,E,23.3,W*6A 
4.05786         MSG_UDP              iDivisorNMEA    $GPHDT,261.32,T*01 
4.06806         MSG_UDP              iDivisorNMEA    $TIROT,-0.09,A*2F 
4.07908         MSG_UDP              iDivisorNMEA    $AGRSA,4.07,A,,V*4C 
4.07923         ANGULO_LEME          iDivisorNMEA    4.07000      
4.08920         MSG_UDP              iDivisorNMEA    $MXPGN,01F803,281C,00000000000050F6*11 
4.09936         MSG_UDP              iDivisorNMEA    $MXPGN,01F804,281C,0000004488C150F6*64 
4.11045         MSG_UDP              iDivisorNMEA    $HCHDG,284.6,0.0,E,23.3,W*6A 
4.12062         MSG_UDP              iDivisorNMEA    $GPHDT,261.31,T*02 
4.13086         MSG_UDP              iDivisorNMEA    $TIROT,-0.09,A*2F 
4.14121         MSG_UDP              iDivisorNMEA    $AGRSA,4.07,A,,V*4C 
4.14127         ANGULO_LEME          iDivisorNMEA    4.07000      
4.15139         MSG_UDP              iDivisorNMEA    $MXPGN,01F803,281C,00000000000064F7*17 
4.16155         MSG_UDP              iDivisorNMEA    $MXPGN,01F804,281C,0000004488C164F7*62 
4.17177         MSG_UDP              iDivisorNMEA    $MXPGN,00FF19,7808,0000000202009F41*15 
4.18198         MSG_UDP              iDivisorNMEA    $MXPGN,00FF19,7808,0080000A0A009F41*1D 
4.19283         MSG_UDP              iDivisorNMEA    $HCHDG,284.6,0.0,E,23.3,W*6A 
4.20302         MSG_UDP              iDivisorNMEA    $GPHDT,261.31,T*02 
4.21391         MSG_UDP              iDivisorNMEA    $TIROT,-0.19,A*2E 
4.22576         MSG_UDP              iDivisorNMEA    $MXPGN,00FF8C,6808,FFF10695C9409F41*64 
4.23602         MSG_UDP              iDivisorNMEA    $MXPGN,00FF3C,3808,8000F8FE00009F41*1C 
4.24631         MSG_UDP              iDivisorNMEA    $HCHDG,284.6,0.0,E,23.3,W*6A 
4.25785         MSG_UDP              iDivisorNMEA    $GPHDT,261.32,T*01 
4.26801         MSG_UDP              iDivisorNMEA    $TIROT,-0.19,A*2E 
4.27820         MSG_UDP              iDivisorNMEA    $AGRSA,4.07,A,,V*4C 
4.27824         ANGULO_LEME          iDivisorNMEA    4.07000      
4.29005         MSG_UDP              iDivisorNMEA    $MXPGN,01F803,281C,0000000000008CF9*60 
4.30028         MSG_UDP              iDivisorNMEA    $MXPGN,01F804,281C,0000005E0CC18CF9*16 
4.31051         MSG_UDP              iDivisorNMEA    $HCHDG,284.6,0.0,E,23.3,W*6A 
4.32135         MSG_UDP              iDivisorNMEA    $GPHDT,261.32,T*01 
4.33801         MSG_UDP              iDivisorNMEA    $TIROT,0.19,A*03 
4.34809         MSG_UDP              iDivisorNMEA    $AGRSA,4.07,A,,V*4C 
4.34812         ANGULO_LEME          iDivisorNMEA    4.07000      
4.35832         MSG_UDP              iDivisorNMEA    $MXPGN,01F803,281C,000000000000B400*12 
4.36984         MSG_UDP              iDivisorNMEA    $MXPGN,01F804,281C,000000A30FC1B400*63 
4.38004         MSG_UDP              iDivisorNMEA    $GPGGA,130013.800,2254.75309,S,04309.53799,W,1,07,1.89,-1.76,M,-5.00,M,,*5F 
4.39043         MSG_UDP              iDivisorNMEA    $GPGLL,2254.75309,S,04309.53799,W,130013.800,A,A*58 
4.40239         MSG_UDP              iDivisorNMEA    $GPRMC,130013.800,A,2254.75309,S,04309.53799,W,0.00,137.94,060323,23.39,W,A*11 
4.41408         MSG_UDP              iDivisorNMEA    $GPVTG,137.94,T,,M,0.00,N,0.00,K,A*35 
4.42424         MSG_UDP              iDivisorNMEA    $HCHDG,284.6,0.0,E,23.3,W*6A 
4.43448         MSG_UDP              iDivisorNMEA    $GPHDT,261.31,T*02 
4.44554         MSG_UDP              iDivisorNMEA    $TIROT,0.00,A*0B 
4.45581         MSG_UDP              iDivisorNMEA    $GPGSA,A,3,08,10,16,18,23,24,26,,,,,,2.30,1.89,1.89*07 
4.46606         MSG_UDP              iDivisorNMEA    $GPGSV,2,1,07,08,26,222,00,10,50,174,50,16,19,298,43,18,27,089,46*74 
4.47915         MSG_UDP              iDivisorNMEA    $GPGSV,2,2,07,23,26,140,00,24,02,116,00,26,09,335,39*4E 
4.48930         MSG_UDP              iDivisorNMEA    $MXPGN,01FA06,681C,9000DD00C8010FC0*6A 
4.49942         MSG_UDP              iDivisorNMEA    $MXPGN,01FA06,681C,009400DB07B100C1*11 
4.50958         MSG_UDP              iDivisorNMEA    $MXPGN,01FA06,681C,FFFFFFFFFF0183C2*67 
4.51980         MSG_UDP              iDivisorNMEA    !AIVDO,1,1,,,B:UOH3P3wk?8mP=18D3Q3wwUkP06,0*70 
4.53002         MSG_UDP              iDivisorNMEA    $AGRSA,4.07,A,,V*4C 
4.53005         ANGULO_LEME          iDivisorNMEA    4.07000      
4.54015         MSG_UDP              iDivisorNMEA    $MXPGN,01F803,281C,0000000000000001*65 
4.55064         MSG_UDP              iDivisorNMEA    $MXPGN,01F804,281C,000000A30FC10001*14 
4.56085         MSG_UDP              iDivisorNMEA    $HCHDG,284.6,0.0,E,23.3,W*6A 
4.57128         MSG_UDP              iDivisorNMEA    $GPHDT,261.31,T*02 
4.58157         MSG_UDP              iDivisorNMEA    $TIROT,0.00,A*0B 
4.60182         MSG_UDP              iDivisorNMEA    $AGRSA,4.07,A,,V*4C 
4.60194         ANGULO_LEME          iDivisorNMEA    4.07000      
4.61297         MSG_UDP              iDivisorNMEA    $MXPGN,01F803,281C,0000000000001402*63 
4.63320         MSG_UDP              iDivisorNMEA    $MXPGN,01F804,281C,000000A30FC11402*12 
4.65570         MSG_UDP              iDivisorNMEA    $HCHDG,284.6,0.0,E,23.3,W*6A 
4.66600         MSG_UDP              iDivisorNMEA    $GPHDT,261.31,T*02 
4.68412         MSG_UDP              iDivisorNMEA    $TIROT,0.09,A*02 
4.69460         MSG_UDP              iDivisorNMEA    $AGRSA,4.07,A,,V*4C 
4.69470         ANGULO_LEME          iDivisorNMEA    4.07000      
4.71564         MSG_UDP              iDivisorNMEA    $MXPGN,01F803,281C,0000000000002803*6D 
4.72583         MSG_UDP              iDivisorNMEA    $MXPGN,01F804,281C,0000008A62C12803*65 
4.73606         MSG_UDP              iDivisorNMEA    $HCHDG,284.6,0.0,E,23.3,W*6A 
4.74635         MSG_UDP              iDivisorNMEA    $GPHDT,261.33,T*00 
4.75649         MSG_UDP              iDivisorNMEA    $TIROT,0.09,A*02 
4.76669         MSG_UDP              iDivisorNMEA    $MXPGN,01FF2C,7808,FFFFFFFF9F4117C0*18 
4.77685         MSG_UDP              iDivisorNMEA    $MXPGN,01FF2C,7808,FFFF7FFFFFFF7FC1*65 
4.78706         MSG_UDP              iDivisorNMEA    $MXPGN,01FF2C,7808,FF7FFFFFFFFFFFC2*17 
4.79887         MSG_UDP              iDivisorNMEA    $MXPGN,01FF2C,7808,FFFFFFFF7FFFFFC3*16 
4.80902         MSG_UDP              iDivisorNMEA    $AGRSA,4.07,A,,V*4C 
4.80908         ANGULO_LEME          iDivisorNMEA    4.07000      
4.81924         MSG_UDP              iDivisorNMEA    $MXPGN,01F803,281C,0000000000003C04*10 
4.83108         MSG_UDP              iDivisorNMEA    $MXPGN,01F804,281C,0000008A62C13C04*18 
4.84134         MSG_UDP              iDivisorNMEA    $MXPGN,00FF3D,6808,7FFFFF0DFFFF9F41*6E 
4.85152         MSG_UDP              iDivisorNMEA    $HCHDG,284.7,0.0,E,23.3,W*6B 
4.86274         MSG_UDP              iDivisorNMEA    $GPHDT,261.36,T*05 
4.87282         MSG_UDP              iDivisorNMEA    $TIROT,0.00,A*0B 
4.88304         MSG_UDP              iDivisorNMEA    $AGRSA,4.07,A,,V*4C 
4.88311         ANGULO_LEME          iDivisorNMEA    4.07000      
4.89327         MSG_UDP              iDivisorNMEA    $MXPGN,01F803,281C,0000000000005005*64 
4.90346         MSG_UDP              iDivisorNMEA    $MXPGN,01F804,281C,000000558AC15005*68 
4.91364         MSG_UDP              iDivisorNMEA    $HCHDG,284.7,0.0,E,23.3,W*6B 
4.92385         MSG_UDP              iDivisorNMEA    $GPHDT,261.37,T*04 
4.93401         MSG_UDP              iDivisorNMEA    $TIROT,0.00,A*0B 
4.94411         MSG_UDP              iDivisorNMEA    $AGRSA,4.07,A,,V*4C 
4.94414         ANGULO_LEME          iDivisorNMEA    4.07000      
4.95626         MSG_UDP              iDivisorNMEA    $MXPGN,01F803,281C,0000000000006406*60 
4.96643         MSG_UDP              iDivisorNMEA    $MXPGN,01F804,281C,000000558AC16406*6C 
4.97656         MSG_UDP              iDivisorNMEA    $HCHDG,284.7,0.0,E,23.3,W*6B 
4.98753         MSG_UDP              iDivisorNMEA    $GPHDT,261.39,T*0A 
4.99769         MSG_UDP              iDivisorNMEA    $TIROT,-0.39,A*2C 
5.00792         MSG_UDP              iDivisorNMEA    $MXPGN,00FF16,7808,FF0000002B0A9F41*1B 
5.01809         MSG_UDP              iDivisorNMEA    $AGRSA,4.07,A,,V*4C 
5.01812         ANGULO_LEME          iDivisorNMEA    4.07000      
5.02827         MSG_UDP              iDivisorNMEA    $GPZDA,130014.570,06,03,2023,,*55 
5.03847         MSG_UDP              iDivisorNMEA    $MXPGN,01F803,281C,0000000000008C08*17 
5.05144         MSG_UDP              iDivisorNMEA    $MXPGN,01F804,281C,000000D191C18C08*1F 
5.06159         MSG_UDP              iDivisorNMEA    $MXPGN,01FF1A,782B,FFFAFF859F410500*1B 
5.07185         MSG_UDP              iDivisorNMEA    $HCHDG,284.7,0.0,E,23.3,W*6B 
5.08211         MSG_UDP              iDivisorNMEA    $GPHDT,261.39,T*0A 
5.09234         MSG_UDP              iDivisorNMEA    $TIROT,-0.39,A*2C 
5.10257         MSG_UDP              iDivisorNMEA    $AGRSA,4.07,A,,V*4C 
5.10260         ANGULO_LEME          iDivisorNMEA    4.07000      
5.11274         MSG_UDP              iDivisorNMEA    !AIVDM,1,1,,A,16:>J;?P00LrE99jr:uWFOvP0<1a,0*33 
5.12298         MSG_UDP              iDivisorNMEA    $MXPGN,01F803,281C,000000000000A009*1C 
5.13444         MSG_UDP              iDivisorNMEA    $MXPGN,01F804,281C,000000D191C1A009*14 
5.14459         MSG_UDP              iDivisorNMEA    $HCHDG,284.7,0.0,E,23.3,W*6B 
5.15481         MSG_UDP              iDivisorNMEA    $GPHDT,261.39,T*0A 
5.16502         MSG_UDP              iDivisorNMEA    $TIROT,-0.39,A*2C 
5.17524         MSG_UDP              iDivisorNMEA    $AGRSA,4.07,A,,V*4C 
5.17528         ANGULO_LEME          iDivisorNMEA    4.07000      
5.18547         MSG_UDP              iDivisorNMEA    $MXPGN,01F803,281C,000000000000A009*1C 
5.19941         MSG_UDP              iDivisorNMEA    $MXPGN,01F804,281C,000000D191C1A009*14 
5.20954         MSG_UDP              iDivisorNMEA    $GPGGA,130014.600,2254.75309,S,04309.53799,W,1,07,1.89,-1.76,M,-5.00,M,,*56 
5.21978         MSG_UDP              iDivisorNMEA    $GPGLL,2254.75309,S,04309.53799,W,130014.600,A,A*51 
5.23001         MSG_UDP              iDivisorNMEA    $GPRMC,130014.600,A,2254.75309,S,04309.53799,W,0.00,307.38,060323,23.39,W,A*1F 
5.24619         MSG_UDP              iDivisorNMEA    $GPVTG,307.38,T,,M,0.00,N,0.00,K,A*32 
5.25639         MSG_UDP              iDivisorNMEA    $HCHDG,284.7,0.0,E,23.3,W*6B 
5.26648         MSG_UDP              iDivisorNMEA    $GPHDT,261.39,T*0A 
5.27664         MSG_UDP              iDivisorNMEA    $TIROT,-0.39,A*2C 
5.28685         MSG_UDP              iDivisorNMEA    $GPGSA,A,3,08,10,16,18,23,24,26,,,,,,2.30,1.89,1.89*07 
5.30162         MSG_UDP              iDivisorNMEA    $GPGSV,2,1,07,08,26,222,00,10,50,174,50,16,19,298,43,18,27,089,46*74 
5.31181         MSG_UDP              iDivisorNMEA    $GPGSV,2,2,07,23,26,140,00,24,02,116,00,26,09,335,39*4E 
5.32219         MSG_UDP              iDivisorNMEA    $MXPGN,01FA06,681C,9000DD00C8090FE0*64 
5.33238         MSG_UDP              iDivisorNMEA    $MXPGN,01FA06,681C,009400DB07B100E1*17 
5.34247         MSG_UDP              iDivisorNMEA    $MXPGN,01FA06,681C,FFFFFFFFFF0183E2*61 
5.35263         MSG_UDP              iDivisorNMEA    $AGRSA,4.07,A,,V*4C 
5.35266         ANGULO_LEME          iDivisorNMEA    4.07000      
5.36282         MSG_UDP              iDivisorNMEA    $MXPGN,01F803,281C,000000000000140A*10 
5.37619         MSG_UDP              iDivisorNMEA    $MXPGN,01F804,281C,000000D191C1140A*18 
5.38644         MSG_UDP              iDivisorNMEA    $HCHDG,284.7,0.0,E,23.3,W*6B 
5.39814         MSG_UDP              iDivisorNMEA    $GPHDT,261.40,T*04 
5.40836         MSG_UDP              iDivisorNMEA    $TIROT,-0.39,A*2C 
5.41860         MSG_UDP              iDivisorNMEA    $AGRSA,4.07,A,,V*4C 
5.41864         ANGULO_LEME          iDivisorNMEA    4.07000      
5.42876         MSG_UDP              iDivisorNMEA    $MXPGN,01F803,281C,000000000000280B*1C 
5.43895         MSG_UDP              iDivisorNMEA    $MXPGN,01F804,281C,000000708BC1280B*14 
5.44934         MSG_UDP              iDivisorNMEA    !AIVDO,1,1,,,B:UOH3P3wk?8mP=18D3Q3wwUkP06,0*70 
5.45948         MSG_UDP              iDivisorNMEA    $HCHDG,284.7,0.0,E,23.3,W*6B 
5.47081         MSG_UDP              iDivisorNMEA    $GPHDT,261.41,T*05 
5.48100         MSG_UDP              iDivisorNMEA    $TIROT,-0.39,A*2C 
5.49124         MSG_UDP              iDivisorNMEA    $AGRSA,4.07,A,,V*4C 
5.49128         ANGULO_LEME          iDivisorNMEA    4.07000      
5.50143         MSG_UDP              iDivisorNMEA    !AIVDM,1,1,,B,1:U8JFPP00LrH:QjqAlqEwvN0<2A,0*60 
5.51168         MSG_UDP              iDivisorNMEA    $MXPGN,01F803,281C,000000000000500D*15 
5.52585         MSG_UDP              iDivisorNMEA    $MXPGN,01F804,281C,00000050D6C1500D*17 
5.53609         MSG_UDP              iDivisorNMEA    $HCHDG,284.7,0.0,E,23.3,W*6B 
5.54626         MSG_UDP              iDivisorNMEA    $GPHDT,261.41,T*05 
5.55643         MSG_UDP              iDivisorNMEA    $TIROT,-0.59,A*2A 
5.56662         MSG_UDP              iDivisorNMEA    $MXPGN,01FF2C,7808,FFFFFFFF9F4117E0*1E 
5.57872         MSG_UDP              iDivisorNMEA    $MXPGN,01FF2C,7808,FFFF7FFFFFFF7FE1*63 
5.58892         MSG_UDP              iDivisorNMEA    $MXPGN,01FF2C,7808,FF7FFFFFFFFFFFE2*11 
5.59915         MSG_UDP              iDivisorNMEA    $MXPGN,01FF2C,7808,FFFFFFFF7FFFFFE3*10 
5.61361         MSG_UDP              iDivisorNMEA    $AGRSA,4.07,A,,V*4C 
5.61365         ANGULO_LEME          iDivisorNMEA    4.07000      
5.62390         MSG_UDP              iDivisorNMEA    $MXPGN,01F803,281C,000000000000500D*15 
5.63411         MSG_UDP              iDivisorNMEA    $MXPGN,01F804,281C,00000050D6C1500D*17 
5.64434         MSG_UDP              iDivisorNMEA    $MXPGN,00FF3D,6808,7FFFFF0DFFFF9F41*6E 
5.65634         MSG_UDP              iDivisorNMEA    $HCHDG,284.7,0.0,E,23.3,W*6B 
5.66650         MSG_UDP              iDivisorNMEA    $MXPGN,01F803,281C,0000000000008C10*1E 
5.67676         MSG_UDP              iDivisorNMEA    $MXPGN,01F804,281C,000000A07BC18C10*6F 
5.68697         MSG_UDP              iDivisorNMEA    $MXPGN,00FF19,7808,0000000202009F41*15 
5.69728         MSG_UDP              iDivisorNMEA    $MXPGN,00FF19,7808,0080000A0A009F41*1D 
5.70861         MSG_UDP              iDivisorNMEA    $HCHDG,284.7,0.0,E,23.3,W*6B 
5.71884         MSG_UDP              iDivisorNMEA    $GPHDT,261.42,T*06 
5.72901         MSG_UDP              iDivisorNMEA    $TIROT,-0.69,A*29 
5.73920         MSG_UDP              iDivisorNMEA    $MXPGN,00FF8C,6808,FFF10695C9409F41*64 
5.74946         MSG_UDP              iDivisorNMEA    $MXPGN,00FF3C,3808,8000F8FE00009F41*1C 
5.75970         MSG_UDP              iDivisorNMEA    $GPGGA,,21444.9018,N,21444.90188,E,1,,,,M,,M,,*54 
5.76991         MSG_UDP              iDivisorNMEA    $GPGLL,21444.9018,N,21444.90188,E,,A,A*4F 
5.78458         MSG_UDP              iDivisorNMEA    $GPVTG,,T,,M,,N,,K,A*23 
5.79525         MSG_UDP              iDivisorNMEA    $AGRSA,4.07,A,,V*4C 
5.79528         ANGULO_LEME          iDivisorNMEA    4.07000      
5.80551         MSG_UDP              iDivisorNMEA    $MXPGN,01F803,281C,0000000000009F11*1B 
5.81589         MSG_UDP              iDivisorNMEA    $MXPGN,01F804,281C,000000A07BC19F11*6A 
5.82607         MSG_UDP              iDivisorNMEA    $HCHDG,284.7,0.0,E,23.3,W*6B 
5.83628         MSG_UDP              iDivisorNMEA    $GPHDT,261.43,T*07 
5.84825         MSG_UDP              iDivisorNMEA    $TIROT,-0.69,A*29 
5.85842         MSG_UDP              iDivisorNMEA    $MXPGN,00FF16,7808,FF0000002B0A9F41*1B 
5.86862         MSG_UDP              iDivisorNMEA    $AGRSA,4.07,A,,V*4C 
5.86864         ANGULO_LEME          iDivisorNMEA    4.07000      
5.87898         MSG_UDP              iDivisorNMEA    $GPZDA,130015.370,06,03,2023,,*52 
5.88968         MSG_UDP              iDivisorNMEA    $MXPGN,01F803,281C,000000000000B412*11 
5.90279         MSG_UDP              iDivisorNMEA    $MXPGN,01F804,281C,0000008F62C1B412*1E 
5.91303         MSG_UDP              iDivisorNMEA    $HCHDG,284.7,0.0,E,23.3,W*6B 
5.92320         MSG_UDP              iDivisorNMEA    $GPHDT,261.44,T*00 
5.93532         MSG_UDP              iDivisorNMEA    $TIROT,-0.59,A*2A 
5.94572         MSG_UDP              iDivisorNMEA    $AGRSA,4.07,A,,V*4C 
5.94575         ANGULO_LEME          iDivisorNMEA    4.07000      
5.95604         MSG_UDP              iDivisorNMEA    $MXPGN,01F803,281C,000000000000C813*1D 
5.96627         MSG_UDP              iDivisorNMEA    $MXPGN,01F804,281C,0000008F62C1C813*12 
5.97636         MSG_UDP              iDivisorNMEA    $HCHDG,284.7,0.0,E,23.3,W*6B 
5.98655         MSG_UDP              iDivisorNMEA    $GPHDT,261.43,T*07 
5.99915         MSG_UDP              iDivisorNMEA    $TIROT,-0.59,A*2A 
6.00933         MSG_UDP              iDivisorNMEA    $AGRSA,4.07,A,,V*4C 
6.00937         ANGULO_LEME          iDivisorNMEA    4.07000      
6.01958         MSG_UDP              iDivisorNMEA    $MXPGN,01F803,281C,000000000000DC14*66 
6.02980         MSG_UDP              iDivisorNMEA    $MXPGN,01F804,281C,0000005314C1DC14*10 
6.03998         MSG_UDP              iDivisorNMEA    !AIVDM,1,1,,A,1:U7;pPP00LrGuijpjb:BOvN20Sf,0*4B 
6.05020         MSG_UDP              iDivisorNMEA    $GPGGA,130015.800,2254.75309,S,04309.53799,W,1,07,1.89,-1.76,M,-5.00,M,,*59 
6.06246         MSG_UDP              iDivisorNMEA    $GPGLL,2254.75309,S,04309.53799,W,130015.800,A,A*5E 
6.07257         MSG_UDP              iDivisorNMEA    $GPRMC,130015.800,A,2254.75309,S,04309.53799,W,0.00,121.85,060323,23.39,W,A*10 
6.08285         MSG_UDP              iDivisorNMEA    $GPVTG,121.85,T,,M,0.00,N,0.00,K,A*32 
6.09298         MSG_UDP              iDivisorNMEA    $HCHDG,284.7,0.0,E,23.3,W*6B 
6.10320         MSG_UDP              iDivisorNMEA    $GPHDT,261.42,T*06 
6.11340         MSG_UDP              iDivisorNMEA    $TIROT,-0.79,A*28 
6.12366         MSG_UDP              iDivisorNMEA    $GPGSA,A,3,08,10,16,18,23,24,26,,,,,,2.30,1.89,1.89*07 
6.13382         MSG_UDP              iDivisorNMEA    $GPGSV,2,1,07,08,26,222,00,10,50,174,50,16,19,298,42,18,27,089,46*75 
6.14405         MSG_UDP              iDivisorNMEA    $GPGSV,2,2,07,23,26,140,00,24,02,116,00,26,09,335,39*4E 
6.15431         MSG_UDP              iDivisorNMEA    $MXPGN,01FA06,681C,9000DD00C8150F00*1C 
6.16505         MSG_UDP              iDivisorNMEA    $MXPGN,01FA06,681C,009400DB07B10001*62 
6.17846         MSG_UDP              iDivisorNMEA    $MXPGN,01FA06,681C,FFFFFFFFFF018302*14 
6.19088         MSG_UDP              iDivisorNMEA    $AGRSA,4.07,A,,V*4C 
6.19094         ANGULO_LEME          iDivisorNMEA    4.07000      
6.20100         MSG_UDP              iDivisorNMEA    $MXPGN,01F803,281C,0000000000000015*60 
6.21121         MSG_UDP              iDivisorNMEA    $MXPGN,01F804,281C,0000005314C10015*16 
6.22138         MSG_UDP              iDivisorNMEA    $HCHDG,284.7,0.0,E,23.3,W*6B 
6.23232         MSG_UDP              iDivisorNMEA    $GPHDT,261.43,T*07 
6.24264         MSG_UDP              iDivisorNMEA    $TIROT,-0.79,A*28 
6.25285         MSG_UDP              iDivisorNMEA    $AGRSA,4.07,A,,V*4C 
6.25289         ANGULO_LEME          iDivisorNMEA    4.07000      
6.27017         MSG_UDP              iDivisorNMEA    $MXPGN,01F803,281C,0000000000001416*66 
6.28045         MSG_UDP              iDivisorNMEA    $MXPGN,01F804,281C,0000005314C11416*10 
6.29071         MSG_UDP              iDivisorNMEA    $HCHDG,284.7,0.0,E,23.3,W*6B 
6.30097         MSG_UDP              iDivisorNMEA    $GPHDT,261.43,T*07 
6.31116         MSG_UDP              iDivisorNMEA    $TIROT,-0.29,A*2D 
6.32135         MSG_UDP              iDivisorNMEA    $AGRSA,4.07,A,,V*4C 
6.32138         ANGULO_LEME          iDivisorNMEA    4.07000      
6.33242         MSG_UDP              iDivisorNMEA    $MXPGN,01F803,281C,0000000000002817*68 
6.34269         MSG_UDP              iDivisorNMEA    $MXPGN,01F804,281C,00000053EBC12817*1C 
6.35290         MSG_UDP              iDivisorNMEA    $AGRSA,4.07,A,,V*4C 
6.35294         ANGULO_LEME          iDivisorNMEA    4.07000      
6.36300         MSG_UDP              iDivisorNMEA    $MXPGN,01F803,281C,0000000000005019*69 
6.37313         MSG_UDP              iDivisorNMEA    $MXPGN,01F804,281C,0000008017C15019*12 
6.38379         MSG_UDP              iDivisorNMEA    $HCHDG,284.7,0.0,E,23.3,W*6B 
6.39399         MSG_UDP              iDivisorNMEA    $GPHDT,261.41,T*05 
6.40795         MSG_UDP              iDivisorNMEA    $TIROT,-0.29,A*2D 
6.41936         MSG_UDP              iDivisorNMEA    $AGRSA,4.07,A,,V*4C 
6.41940         ANGULO_LEME          iDivisorNMEA    4.07000      
6.43231         MSG_UDP              iDivisorNMEA    $MXPGN,01F803,281C,000000000000641A*16 
6.44250         MSG_UDP              iDivisorNMEA    $MXPGN,01F804,281C,0000008017C1641A*6D 
6.45271         MSG_UDP              iDivisorNMEA    $MXPGN,00FF19,7808,0000000202009F41*15 
6.46294         MSG_UDP              iDivisorNMEA    $MXPGN,00FF19,7808,0080000A0A009F41*1D 
6.47314         MSG_UDP              iDivisorNMEA    $HCHDG,284.7,0.0,E,23.3,W*6B 
6.48326         MSG_UDP              iDivisorNMEA    $GPHDT,261.41,T*05 
6.49347         MSG_UDP              iDivisorNMEA    $TIROT,0.09,A*02 
6.50374         MSG_UDP              iDivisorNMEA    !AIVDM,1,1,,A,1:U8vhSuP2LrNfIjsHB=jqQp0`9?,0*07 
6.51537         MSG_UDP              iDivisorNMEA    $MXPGN,00FF8C,6808,FFF10695C9409F41*64 
6.52610         MSG_UDP              iDivisorNMEA    $MXPGN,00FF3C,3808,8000F8FE00009F41*1C 
6.53633         MSG_UDP              iDivisorNMEA    $GPGGA,,21444.9018,N,21444.90188,E,1,,,,M,,M,,*54 
6.54666         MSG_UDP              iDivisorNMEA    $GPGLL,21444.9018,N,21444.90188,E,,A,A*4F 
6.55867         MSG_UDP              iDivisorNMEA    $GPVTG,,T,,M,,N,,K,A*23 
6.56884         MSG_UDP              iDivisorNMEA    $AGRSA,4.07,A,,V*4C 
6.56889         ANGULO_LEME          iDivisorNMEA    4.07000      
6.57896         MSG_UDP              iDivisorNMEA    $MXPGN,01F803,281C,000000000000781B*18 
6.58955         MSG_UDP              iDivisorNMEA    $MXPGN,01F804,281C,0000008017C1781B*63 
6.60013         MSG_UDP              iDivisorNMEA    $HCHDG,284.7,0.0,E,23.3,W*6B 
6.61031         MSG_UDP              iDivisorNMEA    $GPHDT,261.41,T*05 
6.62209         MSG_UDP              iDivisorNMEA    $TIROT,0.09,A*02 
6.63228         MSG_UDP              iDivisorNMEA    $MXPGN,00FF16,7808,FF0000002B0A9F41*1B 
6.64247         MSG_UDP              iDivisorNMEA    $AGRSA,4.07,A,,V*4C 
6.64250         ANGULO_LEME          iDivisorNMEA    4.07000      
6.65269         MSG_UDP              iDivisorNMEA    $GPZDA,130016.570,06,03,2023,,*57 
6.66291         MSG_UDP              iDivisorNMEA    $MXPGN,01F803,281C,0000000000008C1C*6D 
6.67857         MSG_UDP              iDivisorNMEA    $MXPGN,01F804,281C,000000CBF1C18C1C*6E 
6.68879         MSG_UDP              iDivisorNMEA    $HCHDG,284.7,0.0,E,23.3,W*6B 
6.69910         MSG_UDP              iDivisorNMEA    $GPHDT,261.41,T*05 
6.71042         MSG_UDP              iDivisorNMEA    $TIROT,0.09,A*02 
6.72062         MSG_UDP              iDivisorNMEA    $AGRSA,4.07,A,,V*4C 
6.72067         ANGULO_LEME          iDivisorNMEA    4.07000      
6.73085         MSG_UDP              iDivisorNMEA    $MXPGN,01F803,281C,0000000000008C1C*6D 
6.74100         MSG_UDP              iDivisorNMEA    $MXPGN,01F804,281C,000000CBF1C18C1C*6E 
6.75118         MSG_UDP              iDivisorNMEA    !AIVDM,1,1,,B,1:U79fP01TLrQF5joiV6bEBR0L2S,0*2C 
6.76134         MSG_UDP              iDivisorNMEA    $HCHDG,284.7,0.0,E,23.3,W*6B 
6.77170         MSG_UDP              iDivisorNMEA    $GPHDT,261.40,T*04 
6.78188         MSG_UDP              iDivisorNMEA    $TIROT,0.39,A*01 
6.79213         MSG_UDP              iDivisorNMEA    !AIVDO,1,1,,,B:UOH3P3wk?8mP=18D3Q3wwUkP06,0*70 
6.80261         MSG_UDP              iDivisorNMEA    $AGRSA,4.07,A,,V*4C 
6.80265         ANGULO_LEME          iDivisorNMEA    4.07000      
6.81282         MSG_UDP              iDivisorNMEA    $MXPGN,01F803,281C,000000000000B41E*66 
6.82309         MSG_UDP              iDivisorNMEA    $MXPGN,01F804,281C,000000CADAC1B41E*14 
6.83329         MSG_UDP              iDivisorNMEA    $GPGGA,130016.800,2254.75309,S,04309.53799,W,1,07,1.89,-1.76,M,-5.00,M,,*5A 
6.84566         MSG_UDP              iDivisorNMEA    $GPGLL,2254.75309,S,04309.53799,W,130016.800,A,A*5D 
6.85585         MSG_UDP              iDivisorNMEA    $GPRMC,130016.800,A,2254.75309,S,04309.53799,W,0.00,299.13,060323,23.39,W,A*1C 
6.86601         MSG_UDP              iDivisorNMEA    $GPVTG,299.13,T,,M,0.00,N,0.00,K,A*3D 
6.87672         MSG_UDP              iDivisorNMEA    $HCHDG,284.7,0.0,E,23.3,W*6B 
6.88690         MSG_UDP              iDivisorNMEA    $GPHDT,261.38,T*0B 
6.89811         MSG_UDP              iDivisorNMEA    $TIROT,0.39,A*01 
6.90841         MSG_UDP              iDivisorNMEA    $GPGSA,A,3,08,10,16,18,23,24,26,,,,,,2.30,1.89,1.89*07 
6.91852         MSG_UDP              iDivisorNMEA    $GPGSV,2,1,07,08,26,222,00,10,50,174,50,16,19,298,42,18,27,089,47*74 
6.92883         MSG_UDP              iDivisorNMEA    $GPGSV,2,2,07,23,26,140,00,24,02,116,00,26,09,335,39*4E 
6.93913         MSG_UDP              iDivisorNMEA    $MXPGN,01FA06,681C,9000DD00C81F0F20*6D 
6.94943         MSG_UDP              iDivisorNMEA    $MXPGN,01FA06,681C,009400DB07B30021*62 
6.95962         MSG_UDP              iDivisorNMEA    $MXPGN,01FA06,681C,FFFFFFFFFF018322*16 
6.96981         MSG_UDP              iDivisorNMEA    !AIVDM,1,1,,A,1:U8?kPP1nLrOE9jqMoS0gwp0d1s,0*6A 
6.98265         MSG_UDP              iDivisorNMEA    $AGRSA,4.07,A,,V*4C 
6.98268         ANGULO_LEME          iDivisorNMEA    4.07000      
6.99330         MSG_UDP              iDivisorNMEA    $MXPGN,01F803,281C,000000000000001F*13 
7.00358         MSG_UDP              iDivisorNMEA    $MXPGN,01F804,281C,000000CADAC1001F*61 
7.01370         MSG_UDP              iDivisorNMEA    $HCHDG,284.7,0.0,E,23.3,W*6B 
7.02434         MSG_UDP              iDivisorNMEA    $GPHDT,261.36,T*05 
7.03452         MSG_UDP              iDivisorNMEA    $MXPGN,01FF2C,7808,FFFFFFFF7FFFFF23*67 
7.04482         MSG_UDP              iDivisorNMEA    $AGRSA,4.07,A,,V*4C 
7.04485         ANGULO_LEME          iDivisorNMEA    4.07000      
7.05507         MSG_UDP              iDivisorNMEA    $MXPGN,01F803,281C,0000000000003C22*14 
7.06526         MSG_UDP              iDivisorNMEA    $MXPGN,01F804,281C,0000000298C13C22*62 
7.07552         MSG_UDP              iDivisorNMEA    $MXPGN,00FF3D,6808,7FFFFF0DFFFF9F41*6E 
7.08611         MSG_UDP              iDivisorNMEA    $MXPGN,00FF3D,6808,0000FF0BFFFF9F41*19 
7.10149         MSG_UDP              iDivisorNMEA    $HCHDG,284.7,0.0,E,23.3,W*6B 
7.11198         MSG_UDP              iDivisorNMEA    $GPHDT,261.36,T*05 
7.12213         MSG_UDP              iDivisorNMEA    $TIROT,0.09,A*02 
7.13223         MSG_UDP              iDivisorNMEA    $MXPGN,00FF3D,6808,FFFFFF0CFFFF9F41*18 
7.14240         MSG_UDP              iDivisorNMEA    $MXPGN,00FF3D,6808,FFFFFF03FFFF9F41*68 
7.15345         MSG_UDP              iDivisorNMEA    $AGRSA,4.07,A,,V*4C 
7.15348         ANGULO_LEME          iDivisorNMEA    4.07000      
7.16363         MSG_UDP              iDivisorNMEA    $MXPGN,01F803,281C,0000000000005023*60 
7.17377         MSG_UDP              iDivisorNMEA    $MXPGN,01F804,281C,0000006C16C15023*67 
7.18796         MSG_UDP              iDivisorNMEA    $MXPGN,00FF3D,6808,FFFFFF02FFFF9F41*69 
7.20095         MSG_UDP              iDivisorNMEA    $HCHDG,284.7,0.0,E,23.3,W*6B 
7.21508         MSG_UDP              iDivisorNMEA    $GPHDT,261.36,T*05 
7.22541         MSG_UDP              iDivisorNMEA    $TIROT,0.19,A*03 
7.23575         MSG_UDP              iDivisorNMEA    $AGRSA,4.07,A,,V*4C 
7.23584         ANGULO_LEME          iDivisorNMEA    4.07000      
7.24787         MSG_UDP              iDivisorNMEA    $MXPGN,01F803,281C,0000000000006424*60 
7.25906         MSG_UDP              iDivisorNMEA    $MXPGN,01F804,281C,0000006C16C16424*67 
7.27393         MSG_UDP              iDivisorNMEA    $MXPGN,00FF19,7808,0000000202009F41*15 
7.29854         MSG_UDP              iDivisorNMEA    $MXPGN,00FF19,7808,0080000A0A009F41*1D 
7.30880         MSG_UDP              iDivisorNMEA    $HCHDG,284.7,0.0,E,23.3,W*6B 
7.32347         MSG_UDP              iDivisorNMEA    $GPHDT,261.37,T*04 
7.33531         MSG_UDP              iDivisorNMEA    $TIROT,0.49,A*06 
7.34670         MSG_UDP              iDivisorNMEA    $MXPGN,00FF8C,6808,FFF10695C9409F41*64 
7.36478         MSG_UDP              iDivisorNMEA    $MXPGN,00FF3C,3808,8000F8FE00009F41*1C 
7.37512         MSG_UDP              iDivisorNMEA    $GPGGA,,21444.9018,N,21444.90188,E,1,,,,M,,M,,*54 
7.38887         MSG_UDP              iDivisorNMEA    $GPGLL,21444.9018,N,21444.90188,E,,A,A*4F 
7.39996         MSG_UDP              iDivisorNMEA    $GPVTG,,T,,M,,N,,K,A*23 
7.41274         MSG_UDP              iDivisorNMEA    $AGRSA,4.07,A,,V*4C 
7.41278         ANGULO_LEME          iDivisorNMEA    4.07000      
7.42299         MSG_UDP              iDivisorNMEA    $MXPGN,01F803,281C,0000000000007825*6C 
7.43315         MSG_UDP              iDivisorNMEA    $MXPGN,01F804,281C,0000006C16C17825*6B 
7.44719         MSG_UDP              iDivisorNMEA    $HCHDG,284.7,0.0,E,23.3,W*6B 
7.45728         MSG_UDP              iDivisorNMEA    $GPHDT,261.37,T*04 
7.46746         MSG_UDP              iDivisorNMEA    $TIROT,0.49,A*06 
7.47907         MSG_UDP              iDivisorNMEA    $MXPGN,00FF16,7808,FF0000002B0A9F41*1B 
7.48938         MSG_UDP              iDivisorNMEA    $AGRSA,4.07,A,,V*4C 
7.48941         ANGULO_LEME          iDivisorNMEA    4.07000      
7.49956         MSG_UDP              iDivisorNMEA    $GPZDA,130017.570,06,03,2023,,*56 
7.51032         MSG_UDP              iDivisorNMEA    $MXPGN,01F803,281C,0000000000008C26*1B 
7.52053         MSG_UDP              iDivisorNMEA    $MXPGN,01F804,281C,000000A7D1C18C26*6D 
7.53070         MSG_UDP              iDivisorNMEA    $HCHDG,284.7,0.0,E,23.3,W*6B 
7.54083         MSG_UDP              iDivisorNMEA    $GPHDT,261.36,T*05 
7.55100         MSG_UDP              iDivisorNMEA    $TIROT,0.29,A*00 
7.56117         MSG_UDP              iDivisorNMEA    $AGRSA,4.07,A,,V*4C 
7.56120         ANGULO_LEME          iDivisorNMEA    4.07000      
7.57139         MSG_UDP              iDivisorNMEA    $MXPGN,01F803,281C,000000000000A027*10 
7.58157         MSG_UDP              iDivisorNMEA    $MXPGN,01F804,281C,000000A7D1C1A027*66 
7.59173         MSG_UDP              iDivisorNMEA    $HCHDG,284.7,0.0,E,23.3,W*6B 
7.60204         MSG_UDP              iDivisorNMEA    $GPHDT,261.35,T*06 
7.61217         MSG_UDP              iDivisorNMEA    $TIROT,0.29,A*00 
7.62237         MSG_UDP              iDivisorNMEA    $AGRSA,4.07,A,,V*4C 
7.62240         ANGULO_LEME          iDivisorNMEA    4.07000      
7.63264         MSG_UDP              iDivisorNMEA    $MXPGN,01F803,281C,000000000000B428*18 
7.64280         MSG_UDP              iDivisorNMEA    $MXPGN,01F804,281C,000000D290C1B428*12 
7.65299         MSG_UDP              iDivisorNMEA    $GPGGA,130017.800,2254.75309,S,04309.53799,W,1,07,1.89,-1.76,M,-5.00,M,,*5B 
7.66324         MSG_UDP              iDivisorNMEA    $GPGLL,2254.75309,S,04309.53799,W,130017.800,A,A*5C 
7.67340         MSG_UDP              iDivisorNMEA    $GPRMC,130017.800,A,2254.75309,S,04309.53799,W,0.03,246.14,060323,23.39,W,A*1B 
