%%%%%%%%%%%%%%%%%%%%%%%%%%%%%%%%%%%%%%%%%%%%%%%%%%%%%%%%%%%
%% LOG FILE:       /home/moos-ivp-douglas/log/teste_7_3_2023_____11_01_41/teste_7_3_2023_____11_01_41.alog
%% FILE OPENED ON  Wed Dec 31 21:00:00 1969
%% LOGSTART           1678197700.696545
%%%%%%%%%%%%%%%%%%%%%%%%%%%%%%%%%%%%%%%%%%%%%%%%%%%%%%%%%%%
-0.03795        MOOS_DEBUG           pHelmIvP        pHelmIvP AllStop: ManualOverride 
-0.03794        DESIRED_SPEED        pHelmIvP        0.00000      
-0.03794        DESIRED_HEADING      pHelmIvP        0.00000      
0.16745         DESIRED_RUDDER       pMarinePIDV22   0.00000      
0.16745         DESIRED_THRUST       pMarinePIDV22   0.00000      
0.92440         MSG_UDP              iDivisorNMEA    $AGRSA,-0.96,A,,V*6D
 
0.92449         ANGULO_LEME          iDivisorNMEA    -0.96000     
0.97447         MSG_UDP              iDivisorNMEA    $HCHDG,284.6,0.0,E,23.3,W*6A
 
0.97576         MSG_UDP              iDivisorNMEA    $GPHDT,261.30,T*03
 
0.98494         MSG_UDP              iDivisorNMEA    $TIROT,1.09,A*03
 
0.99510         MSG_UDP              iDivisorNMEA    $MXPGN,01F803,281C,0000000000008D04*1C
 
1.00527         MSG_UDP              iDivisorNMEA    $MXPGN,01F804,281C,0000007EEBC18D04*1C
 
1.02547         MSG_UDP              iDivisorNMEA    $GPGGA,,2254.75649,S,04309.54149,W,1,,,,M,,M,,*58
 
1.02651         MSG_UDP              iDivisorNMEA    $GPGLL,2254.75649,S,04309.54149,W,,A,A*43
 
1.03572         MSG_UDP              iDivisorNMEA    $GPVTG,15.40,T,,M,0.20,N,0.37,K,A*0B
 
1.04591         MSG_UDP              iDivisorNMEA    $AGRSA,-0.96,A,,V*6D
 
1.04598         ANGULO_LEME          iDivisorNMEA    -0.96000     
1.05609         MSG_UDP              iDivisorNMEA    $MXPGN,01FF2C,7808,FFFFFFFF9F411720*69
 
1.06629         MSG_UDP              iDivisorNMEA    $MXPGN,01FF2C,7808,FFFF7FFFFFFF7F21*14
 
1.07659         MSG_UDP              iDivisorNMEA    $MXPGN,01FF2C,7808,FF7FFFFFFFFFFF22*66
 
1.08679         MSG_UDP              iDivisorNMEA    $MXPGN,01FF2C,7808,FFFFFFFF7FFFFF23*67
 
1.09697         MSG_UDP              iDivisorNMEA    $MXPGN,00FF3D,6808,7FFFFF0DFFFF9F41*6E
 
1.10710         MSG_UDP              iDivisorNMEA    $HCHDG,284.6,0.0,E,23.3,W*6A
 
1.11726         MSG_UDP              iDivisorNMEA    $GPHDT,261.30,T*03
 
1.12741         MSG_UDP              iDivisorNMEA    $TIROT,1.29,A*01
 
1.13756         MSG_UDP              iDivisorNMEA    $MXPGN,01F803,281C,000000000000A005*10
 
1.14770         MSG_UDP              iDivisorNMEA    $MXPGN,01F804,281C,0000003D3CC1A005*62
 
1.15782         MSG_UDP              iDivisorNMEA    $MXPGN,00FF00,280B,0002000005049913*19
 
1.16801         MSG_UDP              iDivisorNMEA    !AIVDO,1,1,,,B:UOH3P00o>Vt6Lf>a<9cwlUoP06,0*0D
 
1.17818         MSG_UDP              iDivisorNMEA    $AGRSA,-0.96,A,,V*6D
 
1.17822         ANGULO_LEME          iDivisorNMEA    -0.96000     
1.18835         MSG_UDP              iDivisorNMEA    $GPZDA,140141.160,07,03,2023,,*57
 
1.19851         MSG_UDP              iDivisorNMEA    $MXPGN,00FF28,3808,FF08FFFDFC059F41*19
 
1.20868         MSG_UDP              iDivisorNMEA    $HCHDG,284.6,0.0,E,23.3,W*6A
 
1.21888         MSG_UDP              iDivisorNMEA    $GPHDT,261.29,T*0B
 
1.22905         MSG_UDP              iDivisorNMEA    $TIROT,1.29,A*01
 
1.23919         MSG_UDP              iDivisorNMEA    $MXPGN,01F803,281C,000000000000B406*14
 
1.24939         MSG_UDP              iDivisorNMEA    $MXPGN,01F804,281C,0000003D3CC1B406*66
 
1.25955         MSG_UDP              iDivisorNMEA    $MXPGN,01FF1A,680B,FF022B849F410560*6A
 
1.26971         MSG_UDP              iDivisorNMEA    $AGRSA,-0.96,A,,V*6D
 
1.26977         ANGULO_LEME          iDivisorNMEA    -0.96000     
1.27989         MSG_UDP              iDivisorNMEA    $MXPGN,01FF1A,782B,FF010B049F410520*64
 
1.29008         MSG_UDP              iDivisorNMEA    $MXPGN,00FF19,7808,0000000202009F41*15
 
1.30030         MSG_UDP              iDivisorNMEA    $HCHDG,284.6,0.0,E,23.3,W*6A
 
1.31046         MSG_UDP              iDivisorNMEA    $GPHDT,261.29,T*0B
 
1.32064         MSG_UDP              iDivisorNMEA    $TIROT,1.39,A*00
 
1.33081         MSG_UDP              iDivisorNMEA    $MXPGN,01F803,281C,000000000000C807*18
 
1.34099         MSG_UDP              iDivisorNMEA    $MXPGN,01F804,281C,0000003D3CC1C807*6A
 
1.35111         MSG_UDP              iDivisorNMEA    $MXPGN,00FF19,7808,0080000A0A009F41*1D
 
1.36124         MSG_UDP              iDivisorNMEA    $AGRSA,-0.96,A,,V*6D
 
1.36129         ANGULO_LEME          iDivisorNMEA    -0.96000     
1.37143         MSG_UDP              iDivisorNMEA    $SDDPT,1.78,0.00,*75
 
1.38158         MSG_UDP              iDivisorNMEA    $MXPGN,00FF8C,6808,FFF10695C9409F41*64
 
1.39173         MSG_UDP              iDivisorNMEA    $MXPGN,00FF3C,3808,8000F8FE00009F41*1C
 
1.40191         MSG_UDP              iDivisorNMEA    $MXPGN,00FF00,280B,0002000005049913*19
 
1.41204         MSG_UDP              iDivisorNMEA    $HCHDG,284.6,0.0,E,23.3,W*6A
 
1.42218         MSG_UDP              iDivisorNMEA    $GPHDT,261.31,T*02
 
1.43236         MSG_UDP              iDivisorNMEA    $TIROT,1.39,A*00
 
1.44254         MSG_UDP              iDivisorNMEA    $MXPGN,01F803,281C,000000000000DC08*6B
 
1.45275         MSG_UDP              iDivisorNMEA    $MXPGN,01F804,281C,FFFF9D4B18C1DC08*1C
 
1.46293         MSG_UDP              iDivisorNMEA    $AGRSA,-0.96,A,,V*6D
 
1.46297         ANGULO_LEME          iDivisorNMEA    -0.96000     
1.47310         MSG_UDP              iDivisorNMEA    $MXPGN,00FF16,7808,FF0000002B0A9F41*1B
 
1.48325         MSG_UDP              iDivisorNMEA    $GPGSA,A,3,01,08,10,16,18,21,23,,,,,,2.64,2.09,2.09*06
 
1.49343         MSG_UDP              iDivisorNMEA    $GPGSV,2,1,07,01,01,225,00,08,44,252,48,10,33,142,00,16,05,324,37*7C
 
1.50362         MSG_UDP              iDivisorNMEA    $GPGSV,2,2,07,18,12,061,41,21,18,218,00,23,09,118,00*47
 
1.51382         MSG_UDP              iDivisorNMEA    $MXPGN,01FA06,681C,8B012400C8080F40*60
 
1.52400         MSG_UDP              iDivisorNMEA    $MXPGN,01FA06,681C,008C0124F3350041*16
 
1.53415         MSG_UDP              iDivisorNMEA    $MXPGN,01FA06,681C,FFFFFFFFFF01A442*6E
 
1.54435         MSG_UDP              iDivisorNMEA    $GPGGA,140142.000,2254.75339,S,04309.53839,W,1,07,2.09,1.83,M,-5.00,M,,*7F
 
1.55446         MSG_UDP              iDivisorNMEA    $GPGLL,2254.75339,S,04309.53839,W,140142.000,A,A*54
 
1.56463         MSG_UDP              iDivisorNMEA    $GPRMC,140142.000,A,2254.75339,S,04309.53839,W,0.00,89.81,070323,23.39,W,A*2C
 
1.57484         MSG_UDP              iDivisorNMEA    $GPVTG,89.81,T,,M,0.00,N,0.00,K,A*05
 
1.58510         MSG_UDP              iDivisorNMEA    $HCHDG,284.6,0.0,E,23.3,W*6A
 
1.59525         MSG_UDP              iDivisorNMEA    $GPHDT,261.31,T*02
 
1.82439         MSG_UDP              iDivisorNMEA    $AGRSA,-0.96,A,,V*6D
 
1.82446         ANGULO_LEME          iDivisorNMEA    -0.96000     
1.83543         MSG_UDP              iDivisorNMEA    $GPGSA,A,3,08,10,16,18,27,28,31,32,66,65,86,88,1.60,1.40,1.40*03
 
1.83651         MSG_UDP              iDivisorNMEA    $GPGSV,3,1,12,08,45,253,46,10,33,142,31,16,06,325,38,18,12,061,38*7B
 
1.84575         MSG_UDP              iDivisorNMEA    $GPGSV,3,2,12,27,57,310,40,28,26,037,38,31,21,026,42,32,68,136,45*72
 
1.85599         MSG_UDP              iDivisorNMEA    $GPGSV,3,3,12,66,24,302,39,65,60,233,37,86,21,039,40,88,40,201,31*72
 
1.87437         MSG_UDP              iDivisorNMEA    $HCHDG,284.6,0.0,E,23.3,W*6A
 
1.87649         MSG_UDP              iDivisorNMEA    $GPHDT,261.31,T*02
 
1.88666         MSG_UDP              iDivisorNMEA    $TIROT,1.39,A*00
 
1.89683         MSG_UDP              iDivisorNMEA    $MXPGN,01F803,281C,000000000000640D*12
 
1.90700         MSG_UDP              iDivisorNMEA    $MXPGN,01F804,281C,000000B95FC1640D*6F
 
1.91720         MSG_UDP              iDivisorNMEA    $MXPGN,01FF0D,780B,FF030000989005E0*13
 
1.92747         MSG_UDP              iDivisorNMEA    $MXPGN,00FF00,280B,0002000005049913*19
 
1.93804         MSG_UDP              iDivisorNMEA    $AGRSA,-0.96,A,,V*6D
 
1.93811         ANGULO_LEME          iDivisorNMEA    -0.96000     
1.97581         MSG_UDP              iDivisorNMEA    $HCHDG,284.6,0.0,E,23.3,W*6A
 
1.97595         MSG_UDP              iDivisorNMEA    $GPHDT,261.31,T*02
 
1.98633         MSG_UDP              iDivisorNMEA    $TIROT,1.39,A*00
 
1.99645         MSG_UDP              iDivisorNMEA    $MXPGN,01F803,281C,000000000000780E*1E
 
2.00678         MSG_UDP              iDivisorNMEA    $MXPGN,01F804,281C,000000B95FC1780E*63
 
2.02556         MSG_UDP              iDivisorNMEA    $GPGGA,,2254.75659,S,04309.54129,W,1,,,,M,,M,,*5F
 
2.02779         MSG_UDP              iDivisorNMEA    $GPGLL,2254.75659,S,04309.54129,W,,A,A*44
 
2.03804         MSG_UDP              iDivisorNMEA    $GPVTG,15.40,T,,M,0.30,N,0.55,K,A*0E
 
2.04835         MSG_UDP              iDivisorNMEA    $AGRSA,-0.96,A,,V*6D
 
2.04846         ANGULO_LEME          iDivisorNMEA    -0.96000     
2.05870         MSG_UDP              iDivisorNMEA    $MXPGN,01FF2C,7808,FFFFFFFF9F411740*6F
 
2.06903         MSG_UDP              iDivisorNMEA    $MXPGN,01FF2C,7808,FFFF7FFFFFFF7F41*12
 
2.07928         MSG_UDP              iDivisorNMEA    $MXPGN,01FF2C,7808,FF7FFFFFFFFFFF42*60
 
2.08958         MSG_UDP              iDivisorNMEA    $MXPGN,01FF2C,7808,FFFFFFFF7FFFFF43*61
 
2.09981         MSG_UDP              iDivisorNMEA    $MXPGN,00FF3D,6808,7FFFFF0DFFFF9F41*6E
 
2.11005         MSG_UDP              iDivisorNMEA    $HCHDG,284.6,0.0,E,23.3,W*6A
 
2.12031         MSG_UDP              iDivisorNMEA    $GPHDT,261.31,T*02
 
2.13054         MSG_UDP              iDivisorNMEA    $TIROT,1.19,A*02
 
2.14086         MSG_UDP              iDivisorNMEA    $MXPGN,01F803,281C,0000000000008C0F*69
 
2.15120         MSG_UDP              iDivisorNMEA    $MXPGN,01F804,281C,0000005F7DC18C0F*1C
 
2.16146         MSG_UDP              iDivisorNMEA    !AIVDM,1,1,,B,1:U8l=P003LrJQMjs0T4vSiB0d38,0*01
 
2.17203         MSG_UDP              iDivisorNMEA    $AGRSA,-0.96,A,,V*6D
 
2.17211         ANGULO_LEME          iDivisorNMEA    -0.96000     
2.18235         MSG_UDP              iDivisorNMEA    $GPZDA,140142.150,07,03,2023,,*57
 
2.19257         MSG_UDP              iDivisorNMEA    $MXPGN,00FF28,3808,FF08FFFDFC059F41*19
 
2.20282         MSG_UDP              iDivisorNMEA    $MXPGN,00FF00,280B,0002000005049913*19
 
2.21307         MSG_UDP              iDivisorNMEA    $HCHDG,284.6,0.0,E,23.3,W*6A
 
2.22331         MSG_UDP              iDivisorNMEA    $GPHDT,261.31,T*02
 
2.23360         MSG_UDP              iDivisorNMEA    $TIROT,1.19,A*02
 
2.24389         MSG_UDP              iDivisorNMEA    $MXPGN,01F803,281C,0000000000008C0F*69
 
2.25413         MSG_UDP              iDivisorNMEA    $MXPGN,01F804,281C,0000005F7DC18C0F*1C
 
2.26433         MSG_UDP              iDivisorNMEA    $MXPGN,01FF1A,680B,FF022B849F410580*64
 
2.27457         MSG_UDP              iDivisorNMEA    $MXPGN,01FF1A,782B,FF010B049F410540*62
 
2.28492         MSG_UDP              iDivisorNMEA    $AGRSA,-0.96,A,,V*6D
 
2.28499         ANGULO_LEME          iDivisorNMEA    -0.96000     
2.29516         MSG_UDP              iDivisorNMEA    $MXPGN,00FF19,7808,0000000202009F41*15
 
2.30542         MSG_UDP              iDivisorNMEA    $HCHDG,284.6,0.0,E,23.3,W*6A
 
2.31568         MSG_UDP              iDivisorNMEA    $GPHDT,261.31,T*02
 
2.32594         MSG_UDP              iDivisorNMEA    $TIROT,1.19,A*02
 
2.33636         MSG_UDP              iDivisorNMEA    $MXPGN,01F803,281C,000000000000A010*14
 
2.34669         MSG_UDP              iDivisorNMEA    $MXPGN,01F804,281C,0000005F7DC1A010*61
 
2.35705         MSG_UDP              iDivisorNMEA    $MXPGN,01FF1A,782B,FFFAFF859F410560*1D
 
2.36736         MSG_UDP              iDivisorNMEA    $MXPGN,00FF19,7808,0080000A0A009F41*1D
 
2.37767         MSG_UDP              iDivisorNMEA    $AGRSA,-0.96,A,,V*6D
 
2.37777         ANGULO_LEME          iDivisorNMEA    -0.96000     
2.38803         MSG_UDP              iDivisorNMEA    $SDDPT,1.79,0.00,*74
 
2.39829         MSG_UDP              iDivisorNMEA    $MXPGN,00FF8C,6808,FFF10695C9409F41*64
 
2.40860         MSG_UDP              iDivisorNMEA    $MXPGN,00FF3C,3808,8000F8FE00009F41*1C
 
2.41891         MSG_UDP              iDivisorNMEA    $HCHDG,284.6,0.0,E,23.3,W*6A
 
2.42922         MSG_UDP              iDivisorNMEA    $GPHDT,261.31,T*02
 
2.43995         MSG_UDP              iDivisorNMEA    $TIROT,1.19,A*02
 
2.45028         MSG_UDP              iDivisorNMEA    $MXPGN,01F803,281C,000000000000C812*1C
 
2.46056         MSG_UDP              iDivisorNMEA    $MXPGN,01F804,281C,0000005651C1C812*6E
 
2.47076         MSG_UDP              iDivisorNMEA    $MXPGN,00FF00,280B,0002000005049913*19
 
2.48089         MSG_UDP              iDivisorNMEA    $AGRSA,-0.96,A,,V*6D
 
2.48092         ANGULO_LEME          iDivisorNMEA    -0.96000     
2.72469         MSG_UDP              iDivisorNMEA    $AGRSA,-0.96,A,,V*6D
 
2.72479         ANGULO_LEME          iDivisorNMEA    -0.96000     
2.77561         MSG_UDP              iDivisorNMEA    $HCHDG,284.6,0.0,E,23.3,W*6A
 
2.77577         MSG_UDP              iDivisorNMEA    $GPHDT,261.30,T*03
 
2.78603         MSG_UDP              iDivisorNMEA    $TIROT,1.39,A*00
 
2.79632         MSG_UDP              iDivisorNMEA    $MXPGN,01F803,281C,0002580000005016*69
 
2.80662         MSG_UDP              iDivisorNMEA    $MXPGN,01F804,281C,0000003D32C15016*65
 
2.82437         MSG_UDP              iDivisorNMEA    $AGRSA,-0.96,A,,V*6D
 
2.82448         ANGULO_LEME          iDivisorNMEA    -0.96000     
2.85757         MSG_UDP              iDivisorNMEA    $GPGSA,A,3,08,10,16,18,27,28,31,32,66,65,86,88,1.60,1.40,1.40*03
 
2.85865         MSG_UDP              iDivisorNMEA    $GPGSV,3,1,12,08,45,253,46,10,33,142,32,16,06,325,38,18,12,061,38*78
 
2.86790         MSG_UDP              iDivisorNMEA    $GPGSV,3,2,12,27,57,310,40,28,26,037,38,31,21,026,42,32,68,136,45*72
 
2.87820         MSG_UDP              iDivisorNMEA    $GPGSV,3,3,12,66,24,302,39,65,60,233,37,86,21,039,40,88,40,201,31*72
 
2.88848         MSG_UDP              iDivisorNMEA    $HCHDG,284.6,0.0,E,23.3,W*6A
 
2.89869         MSG_UDP              iDivisorNMEA    $GPHDT,261.29,T*0B
 
2.90897         MSG_UDP              iDivisorNMEA    $TIROT,1.29,A*01
 
2.91922         MSG_UDP              iDivisorNMEA    $MXPGN,01F803,281C,0002580000006417*6F
 
2.92952         MSG_UDP              iDivisorNMEA    $MXPGN,01F804,281C,000000315DC16417*66
 
2.94013         MSG_UDP              iDivisorNMEA    $MXPGN,01FF0D,780B,FF03000098900500*66
 
2.95051         MSG_UDP              iDivisorNMEA    $MXPGN,00FF00,280B,0002000005049913*19
 
2.96078         MSG_UDP              iDivisorNMEA    $AGRSA,-0.96,A,,V*6D
 
2.96087         ANGULO_LEME          iDivisorNMEA    -0.96000     
2.97559         MSG_UDP              iDivisorNMEA    $HCHDG,284.6,0.0,E,23.3,W*6A
 
2.98187         MSG_UDP              iDivisorNMEA    $GPHDT,261.28,T*0A
 
2.99207         MSG_UDP              iDivisorNMEA    $TIROT,1.29,A*01
 
3.00229         MSG_UDP              iDivisorNMEA    $MXPGN,01F803,281C,0002580000007818*6D
 
3.01255         MSG_UDP              iDivisorNMEA    $MXPGN,01F804,281C,000000315DC17818*64
 
3.02554         MSG_UDP              iDivisorNMEA    $GPGGA,,2254.75659,S,04309.54129,W,1,,,,M,,M,,*5F
 
3.03379         MSG_UDP              iDivisorNMEA    $GPGLL,2254.75659,S,04309.54129,W,,A,A*44
 
3.04403         MSG_UDP              iDivisorNMEA    $GPVTG,15.40,T,,M,0.30,N,0.55,K,A*0E
 
3.05423         MSG_UDP              iDivisorNMEA    $AGRSA,-0.96,A,,V*6D
 
3.05429         ANGULO_LEME          iDivisorNMEA    -0.96000     
3.06448         MSG_UDP              iDivisorNMEA    $MXPGN,01FF2C,7808,FFFFFFFF9F411760*6D
 
3.07470         MSG_UDP              iDivisorNMEA    $MXPGN,01FF2C,7808,FFFF7FFFFFFF7F61*10
 
3.08490         MSG_UDP              iDivisorNMEA    $MXPGN,01FF2C,7808,FF7FFFFFFFFFFF62*62
 
3.09514         MSG_UDP              iDivisorNMEA    $MXPGN,01FF2C,7808,FFFFFFFF7FFFFF63*63
 
3.10541         MSG_UDP              iDivisorNMEA    $MXPGN,00FF3D,6808,7FFFFF0DFFFF9F41*6E
 
3.11569         MSG_UDP              iDivisorNMEA    $HCHDG,284.6,0.0,E,23.3,W*6A
 
3.12596         MSG_UDP              iDivisorNMEA    $GPHDT,261.27,T*05
 
3.13623         MSG_UDP              iDivisorNMEA    $TIROT,1.29,A*01
 
3.14652         MSG_UDP              iDivisorNMEA    $MXPGN,01F803,281C,0002580000008C19*18
 
3.15677         MSG_UDP              iDivisorNMEA    $MXPGN,01F804,281C,000000C3A3C18C19*60
 
3.16699         MSG_UDP              iDivisorNMEA    $AGRSA,-0.96,A,,V*6D
 
3.16711         ANGULO_LEME          iDivisorNMEA    -0.96000     
3.17731         MSG_UDP              iDivisorNMEA    $GPZDA,140143.150,07,03,2023,,*56
 
3.18760         MSG_UDP              iDivisorNMEA    !AIVDO,1,1,,,B:UOH3P01o>Vt8Lf>a@9cwmUoP06,0*7F
 
3.19781         MSG_UDP              iDivisorNMEA    $MXPGN,00FF28,3808,FF08FFFDFC059F41*19
 
3.20807         MSG_UDP              iDivisorNMEA    $MXPGN,00FF00,280B,0002000005049913*19
 
3.21834         MSG_UDP              iDivisorNMEA    $HCHDG,284.6,0.0,E,23.3,W*6A
 
3.22860         MSG_UDP              iDivisorNMEA    $GPHDT,261.26,T*04
 
3.23889         MSG_UDP              iDivisorNMEA    $TIROT,1.29,A*01
 
3.24914         MSG_UDP              iDivisorNMEA    $MXPGN,01F803,281C,000258000000A01A*6A
 
3.25934         MSG_UDP              iDivisorNMEA    $MXPGN,01F804,281C,000000C3A3C1A01A*12
 
3.26961         MSG_UDP              iDivisorNMEA    $MXPGN,01FF1A,680B,FF022B849F4105A0*1D
 
3.27990         MSG_UDP              iDivisorNMEA    $MXPGN,01FF1A,782B,FF010B049F410560*60
 
3.29014         MSG_UDP              iDivisorNMEA    $AGRSA,-0.96,A,,V*6D
 
3.29019         ANGULO_LEME          iDivisorNMEA    -0.96000     
3.30040         MSG_UDP              iDivisorNMEA    $MXPGN,00FF19,7808,0000000202009F41*15
 
3.31064         MSG_UDP              iDivisorNMEA    $HCHDG,284.6,0.0,E,23.3,W*6A
 
3.32091         MSG_UDP              iDivisorNMEA    $GPHDT,261.25,T*07
 
3.33118         MSG_UDP              iDivisorNMEA    $TIROT,0.99,A*0B
 
3.34147         MSG_UDP              iDivisorNMEA    $MXPGN,01F803,281C,000258000000B41B*6E
 
3.35173         MSG_UDP              iDivisorNMEA    $MXPGN,01F804,281C,000000C3A3C1B41B*16
 
3.36197         MSG_UDP              iDivisorNMEA    $MXPGN,00FF19,7808,0080000A0A009F41*1D
 
3.37223         MSG_UDP              iDivisorNMEA    $AGRSA,-0.96,A,,V*6D
 
3.37228         ANGULO_LEME          iDivisorNMEA    -0.96000     
3.38245         MSG_UDP              iDivisorNMEA    $SDDPT,1.77,0.00,*7A
 
3.39270         MSG_UDP              iDivisorNMEA    $MXPGN,00FF8C,6808,FFF10695C9409F41*64
 
3.40297         MSG_UDP              iDivisorNMEA    $MXPGN,00FF3C,3808,8000F8FE00009F41*1C
 
3.41325         MSG_UDP              iDivisorNMEA    $HCHDG,284.5,0.0,E,23.3,W*69
 
3.42347         MSG_UDP              iDivisorNMEA    $GPHDT,261.24,T*06
 
3.62454         MSG_UDP              iDivisorNMEA    $AGRSA,-0.96,A,,V*6D
 
3.62463         ANGULO_LEME          iDivisorNMEA    -0.96000     
3.65542         MSG_UDP              iDivisorNMEA    $MXPGN,00FF00,280B,0002000005049913*19
 
3.67559         MSG_UDP              iDivisorNMEA    $HCHDG,284.6,0.0,E,23.3,W*6A
 
3.67570         MSG_UDP              iDivisorNMEA    $GPHDT,261.25,T*07
 
3.68595         MSG_UDP              iDivisorNMEA    $TIROT,1.49,A*07
 
3.69620         MSG_UDP              iDivisorNMEA    $MXPGN,01F803,281C,0000000000003C1F*63
 
3.70645         MSG_UDP              iDivisorNMEA    $MXPGN,01F804,281C,000000602DC13C1F*66
 
3.72447         MSG_UDP              iDivisorNMEA    $AGRSA,-0.96,A,,V*6D
 
3.72454         ANGULO_LEME          iDivisorNMEA    -0.96000     
3.77559         MSG_UDP              iDivisorNMEA    $HCHDG,284.6,0.0,E,23.3,W*6A
 
3.77571         MSG_UDP              iDivisorNMEA    $GPHDT,261.25,T*07
 
3.78599         MSG_UDP              iDivisorNMEA    $TIROT,1.49,A*07
 
3.79628         MSG_UDP              iDivisorNMEA    $MXPGN,01F803,281C,0000000000005020*63
 
3.80654         MSG_UDP              iDivisorNMEA    $MXPGN,01F804,281C,000000602DC15020*66
 
3.82444         MSG_UDP              iDivisorNMEA    $AGRSA,-0.96,A,,V*6D
 
3.82452         ANGULO_LEME          iDivisorNMEA    -0.96000     
3.83563         MSG_UDP              iDivisorNMEA    $GPGSA,A,3,08,10,16,18,27,28,31,32,66,65,86,88,1.60,1.40,1.40*03
 
3.83784         MSG_UDP              iDivisorNMEA    $GPGSV,3,1,12,08,45,253,46,10,33,142,32,16,06,325,38,18,12,061,38*78
 
3.84813         MSG_UDP              iDivisorNMEA    $GPGSV,3,2,12,27,57,310,40,28,26,037,38,31,21,026,42,32,68,136,45*72
 
3.85836         MSG_UDP              iDivisorNMEA    $GPGSV,3,3,12,66,24,302,40,65,60,233,37,86,21,039,41,88,40,201,31*7D
 
3.87550         MSG_UDP              iDivisorNMEA    $HCHDG,284.6,0.0,E,23.3,W*6A
 
3.87964         MSG_UDP              iDivisorNMEA    $GPHDT,261.25,T*07
 
3.88978         MSG_UDP              iDivisorNMEA    $TIROT,1.49,A*07
 
3.89993         MSG_UDP              iDivisorNMEA    $MXPGN,01F803,281C,0000000000006421*65
 
3.91011         MSG_UDP              iDivisorNMEA    $MXPGN,01F804,281C,0000004264C16421*14
 
3.92028         MSG_UDP              iDivisorNMEA    $MXPGN,01FF0D,780B,FF03000098900520*64
 
3.93049         MSG_UDP              iDivisorNMEA    $MXPGN,00FF00,280B,0002000005049913*19
 
3.94063         MSG_UDP              iDivisorNMEA    $AGRSA,-0.96,A,,V*6D
 
3.94067         ANGULO_LEME          iDivisorNMEA    -0.96000     
3.97551         MSG_UDP              iDivisorNMEA    $HCHDG,284.5,0.0,E,23.3,W*69
 
3.97559         MSG_UDP              iDivisorNMEA    $GPHDT,261.24,T*06
 
3.98575         MSG_UDP              iDivisorNMEA    $TIROT,1.49,A*07
 
3.99596         MSG_UDP              iDivisorNMEA    $MXPGN,01F803,281C,0000000002577822*6B
 
4.00609         MSG_UDP              iDivisorNMEA    $MXPGN,01F804,281C,0000004264C17822*1A
 
4.02554         MSG_UDP              iDivisorNMEA    $GPGGA,,2254.75649,S,04309.54089,W,1,,,,M,,M,,*55
 
4.02675         MSG_UDP              iDivisorNMEA    $GPGLL,2254.75649,S,04309.54089,W,,A,A*4E
 
4.03693         MSG_UDP              iDivisorNMEA    $GPVTG,15.40,T,,M,0.70,N,1.29,K,A*00
 
4.04711         MSG_UDP              iDivisorNMEA    $AGRSA,-0.96,A,,V*6D
 
4.04714         ANGULO_LEME          iDivisorNMEA    -0.96000     
4.05731         MSG_UDP              iDivisorNMEA    $MXPGN,01FF2C,7808,FFFFFFFF9F411780*63
 
4.06745         MSG_UDP              iDivisorNMEA    $MXPGN,01FF2C,7808,FFFF7FFFFFFF7F81*1E
 
4.07759         MSG_UDP              iDivisorNMEA    $MXPGN,01FF2C,7808,FF7FFFFFFFFFFF82*6C
 
4.08780         MSG_UDP              iDivisorNMEA    $MXPGN,01FF2C,7808,FFFFFFFF7FFFFF83*6D
 
4.09796         MSG_UDP              iDivisorNMEA    $MXPGN,00FF3D,6808,7FFFFF0DFFFF9F41*6E
 
4.10815         MSG_UDP              iDivisorNMEA    $HCHDG,284.5,0.0,E,23.3,W*69
 
4.11827         MSG_UDP              iDivisorNMEA    $GPHDT,261.24,T*06
 
4.12843         MSG_UDP              iDivisorNMEA    $TIROT,1.49,A*07
 
4.13857         MSG_UDP              iDivisorNMEA    $MXPGN,01F803,281C,0000000002578C23*1E
 
4.14876         MSG_UDP              iDivisorNMEA    $MXPGN,01F804,281C,00000080F4C18C23*11
 
4.15895         MSG_UDP              iDivisorNMEA    $MXPGN,00FF3D,6808,0000FF0BFFFF9F41*19
 
4.16911         MSG_UDP              iDivisorNMEA    $MXPGN,00FF3D,6808,FFFFFF0CFFFF9F41*18
 
4.17924         MSG_UDP              iDivisorNMEA    $AGRSA,-0.96,A,,V*6D
 
4.17929         ANGULO_LEME          iDivisorNMEA    -0.96000     
4.18941         MSG_UDP              iDivisorNMEA    $GPZDA,140144.150,07,03,2023,,*51
 
4.19953         MSG_UDP              iDivisorNMEA    $MXPGN,00FF3D,6808,FFFFFF03FFFF9F41*68
 
4.20969         MSG_UDP              iDivisorNMEA    $MXPGN,00FF28,3808,FF08FFFDFC059F41*19
 
4.21984         MSG_UDP              iDivisorNMEA    $MXPGN,00FF00,280B,0002000005049913*19
 
4.23005         MSG_UDP              iDivisorNMEA    $MXPGN,00FF3D,6808,FFFFFF02FFFF9F41*69
 
4.24018         MSG_UDP              iDivisorNMEA    $HCHDG,284.5,0.0,E,23.3,W*69
 
4.25038         MSG_UDP              iDivisorNMEA    $GPHDT,261.23,T*01
 
4.26053         MSG_UDP              iDivisorNMEA    $TIROT,1.49,A*07
 
4.27073         MSG_UDP              iDivisorNMEA    $MXPGN,01F803,281C,000000000257A024*13
 
4.28091         MSG_UDP              iDivisorNMEA    $MXPGN,01F804,281C,00000080F4C1A024*1C
 
4.29110         MSG_UDP              iDivisorNMEA    $MXPGN,01FF1A,680B,FF022B849F4105C0*1F
 
4.30129         MSG_UDP              iDivisorNMEA    $MXPGN,01FF1A,782B,FF010B049F410580*6E
 
4.31147         MSG_UDP              iDivisorNMEA    $AGRSA,-0.96,A,,V*6D
 
4.31151         ANGULO_LEME          iDivisorNMEA    -0.96000     
4.32165         MSG_UDP              iDivisorNMEA    $MXPGN,00FF19,7808,0000000202009F41*15
 
4.33179         MSG_UDP              iDivisorNMEA    $HCHDG,284.5,0.0,E,23.3,W*69
 
4.34202         MSG_UDP              iDivisorNMEA    $GPHDT,261.23,T*01
 
4.52457         MSG_UDP              iDivisorNMEA    $AGRSA,-0.96,A,,V*6D
 
4.52467         ANGULO_LEME          iDivisorNMEA    -0.96000     
4.57662         MSG_UDP              iDivisorNMEA    $GPGGA,140145.000,2254.75105,S,04309.54012,W,1,12,0.90,18.28,M,-5.60,M,,*4A
 
4.57755         MSG_UDP              iDivisorNMEA    $GPGLL,2254.75105,S,04309.54012,W,140145.000,A,A*58
 
4.58790         MSG_UDP              iDivisorNMEA    $GPRMC,140145.000,A,2254.75105,S,04309.54012,W,0.09,0.00,070323,23.30,W,A*18
 
4.59820         MSG_UDP              iDivisorNMEA    $GPVTG,0.00,T,,M,0.09,N,0.16,K,A*33
 
4.60843         MSG_UDP              iDivisorNMEA    $HCHDG,284.5,0.0,E,23.3,W*69
 
4.61867         MSG_UDP              iDivisorNMEA    $GPHDT,261.21,T*03
 
4.62893         MSG_UDP              iDivisorNMEA    $TIROT,1.29,A*01
 
4.63911         MSG_UDP              iDivisorNMEA    $MXPGN,01F803,281C,0000000000002828*64
 
4.64927         MSG_UDP              iDivisorNMEA    $MXPGN,01F804,281C,000000637DC12828*67
 
4.65941         MSG_UDP              iDivisorNMEA    $AGRSA,-0.96,A,,V*6D
 
4.65943         ANGULO_LEME          iDivisorNMEA    -0.96000     
4.66958         MSG_UDP              iDivisorNMEA    $MXPGN,00FF00,280B,0002000005049913*19
 
4.67975         MSG_UDP              iDivisorNMEA    $HCHDG,284.5,0.0,E,23.3,W*69
 
4.68994         MSG_UDP              iDivisorNMEA    $GPHDT,261.20,T*02
 
4.70011         MSG_UDP              iDivisorNMEA    $TIROT,1.49,A*07
 
4.71029         MSG_UDP              iDivisorNMEA    $MXPGN,01F803,281C,0000000000003C29*1F
 
4.72047         MSG_UDP              iDivisorNMEA    $MXPGN,01F804,281C,000000637DC13C29*1C
 
4.73063         MSG_UDP              iDivisorNMEA    $AGRSA,-0.96,A,,V*6D
 
4.73067         ANGULO_LEME          iDivisorNMEA    -0.96000     
4.77536         MSG_UDP              iDivisorNMEA    $HCHDG,284.5,0.0,E,23.3,W*69
 
4.77571         MSG_UDP              iDivisorNMEA    $GPHDT,261.20,T*02
 
4.78590         MSG_UDP              iDivisorNMEA    $TIROT,1.49,A*07
 
4.79607         MSG_UDP              iDivisorNMEA    $MXPGN,01F803,281C,000000000000502A*12
 
4.80628         MSG_UDP              iDivisorNMEA    $MXPGN,01F804,281C,000000637DC1502A*11
 
4.82426         MSG_UDP              iDivisorNMEA    $AGRSA,-0.96,A,,V*6D
 
4.82435         ANGULO_LEME          iDivisorNMEA    -0.96000     
4.83648         MSG_UDP              iDivisorNMEA    $GPGSA,A,3,08,10,16,18,27,28,31,32,66,65,86,88,1.60,1.40,1.40*03
 
4.83839         MSG_UDP              iDivisorNMEA    $GPGSV,3,1,12,08,45,253,46,10,33,142,32,16,06,325,38,18,12,061,38*78
 
4.84859         MSG_UDP              iDivisorNMEA    $GPGSV,3,2,12,27,57,310,40,28,26,037,38,31,21,026,42,32,68,136,45*72
 
4.85876         MSG_UDP              iDivisorNMEA    $GPGSV,3,3,12,66,24,302,40,65,60,233,36,86,21,039,41,88,40,201,31*7C
 
4.87538         MSG_UDP              iDivisorNMEA    $HCHDG,284.5,0.0,E,23.3,W*69
 
4.87956         MSG_UDP              iDivisorNMEA    $GPHDT,261.20,T*02
 
4.88971         MSG_UDP              iDivisorNMEA    $TIROT,1.29,A*01
 
4.89989         MSG_UDP              iDivisorNMEA    $MXPGN,01F803,281C,000000000000642B*16
 
4.91009         MSG_UDP              iDivisorNMEA    $MXPGN,01F804,281C,0000008023C1642B*6A
 
4.92027         MSG_UDP              iDivisorNMEA    $MXPGN,01FF0D,780B,FF03000098900540*62
 
4.93046         MSG_UDP              iDivisorNMEA    $MXPGN,00FF00,280B,0002000005049913*19
 
4.94066         MSG_UDP              iDivisorNMEA    $AGRSA,-0.96,A,,V*6D
 
4.94070         ANGULO_LEME          iDivisorNMEA    -0.96000     
4.96263         MSG_UDP              iDivisorNMEA    !AIVDM,1,1,,B,16:>J;?P00LrE:=jr;1c1OwL08Je,0*57
 
4.97538         MSG_UDP              iDivisorNMEA    $HCHDG,284.5,0.0,E,23.3,W*69
 
4.97569         MSG_UDP              iDivisorNMEA    $GPHDT,261.20,T*02
 
4.98587         MSG_UDP              iDivisorNMEA    $TIROT,1.29,A*01
 
4.99604         MSG_UDP              iDivisorNMEA    $MXPGN,01F803,281C,000000000000782C*1A
 
5.00622         MSG_UDP              iDivisorNMEA    $MXPGN,01F804,281C,0000008023C1782C*66
 
5.01640         MSG_UDP              iDivisorNMEA    !AIVDM,1,1,,B,1:U8?H0P1GtrL=ejr52oGgwH28Jg,0*78
 
5.02661         MSG_UDP              iDivisorNMEA    $GPGGA,,2254.75649,S,04309.54089,W,1,,,,M,,M,,*55
 
5.03709         MSG_UDP              iDivisorNMEA    $GPGLL,2254.75649,S,04309.54089,W,,A,A*4E
 
5.04726         MSG_UDP              iDivisorNMEA    $GPVTG,15.40,T,,M,0.70,N,1.29,K,A*00
 
5.05746         MSG_UDP              iDivisorNMEA    $AGRSA,-0.96,A,,V*6D
 
5.05748         ANGULO_LEME          iDivisorNMEA    -0.96000     
5.06765         MSG_UDP              iDivisorNMEA    $MXPGN,01FF2C,7808,FFFFFFFF9F4117A0*1A
 
5.07783         MSG_UDP              iDivisorNMEA    $MXPGN,01FF2C,7808,FFFF7FFFFFFF7FA1*67
 
5.08801         MSG_UDP              iDivisorNMEA    $MXPGN,01FF2C,7808,FF7FFFFFFFFFFFA2*15
 
5.09818         MSG_UDP              iDivisorNMEA    $MXPGN,01FF2C,7808,FFFFFFFF7FFFFFA3*14
 
5.10837         MSG_UDP              iDivisorNMEA    $MXPGN,00FF3D,6808,7FFFFF0DFFFF9F41*6E
 
5.11856         MSG_UDP              iDivisorNMEA    $HCHDG,284.5,0.0,E,23.3,W*69
 
5.12875         MSG_UDP              iDivisorNMEA    $GPHDT,261.20,T*02
 
5.13893         MSG_UDP              iDivisorNMEA    $TIROT,1.49,A*07
 
5.14913         MSG_UDP              iDivisorNMEA    $MXPGN,01F803,281C,0000000000008C2D*69
 
5.15925         MSG_UDP              iDivisorNMEA    $MXPGN,01F804,281C,0000007B56C18C2D*6A
 
5.16946         MSG_UDP              iDivisorNMEA    $AGRSA,-0.96,A,,V*6D
 
5.16948         ANGULO_LEME          iDivisorNMEA    -0.96000     
5.17964         MSG_UDP              iDivisorNMEA    $GPZDA,140145.150,07,03,2023,,*50
 
5.18982         MSG_UDP              iDivisorNMEA    $MXPGN,00FF28,3808,FF08FFFDFC059F41*19
 
5.19997         MSG_UDP              iDivisorNMEA    $MXPGN,00FF00,280B,0002000005049913*19
 
5.21016         MSG_UDP              iDivisorNMEA    !AIVDO,1,1,,,B:UOH3P02W>Vt:Lf>a@9cwnUoP06,0*45
 
5.22033         MSG_UDP              iDivisorNMEA    $HCHDG,284.5,0.0,E,23.3,W*69
 
5.23049         MSG_UDP              iDivisorNMEA    $GPHDT,261.18,T*09
 
5.40523         MSG_UDP              iDivisorNMEA    $MXPGN,00FF00,280B,0002000005049913*19
 
5.42434         MSG_UDP              iDivisorNMEA    $AGRSA,-0.96,A,,V*6D
 
5.42441         ANGULO_LEME          iDivisorNMEA    -0.96000     
5.44232         MSG_UDP              iDivisorNMEA    $MXPGN,00FF16,7808,FF0000002B0A9F41*1B
 
5.46538         MSG_UDP              iDivisorNMEA    $GPGSA,A,3,01,08,10,16,18,21,23,,,,,,2.64,2.09,2.09*06
 
5.46635         MSG_UDP              iDivisorNMEA    $GPGSV,2,1,07,01,01,225,00,08,44,252,48,10,33,142,00,16,05,324,37*7C
 
5.47656         MSG_UDP              iDivisorNMEA    $GPGSV,2,2,07,18,12,061,41,21,18,218,00,23,09,118,00*47
 
5.48675         MSG_UDP              iDivisorNMEA    $MXPGN,01FA06,681C,8B012400C8300FC0*1C
 
5.49691         MSG_UDP              iDivisorNMEA    $MXPGN,01FA06,681C,008C0124F33A00C1*15
 
5.50712         MSG_UDP              iDivisorNMEA    $MXPGN,01FA06,681C,FFFFFFFFFF01A4C2*19
 
5.51731         MSG_UDP              iDivisorNMEA    $GPGGA,140146.000,2254.75330,S,04309.53839,W,1,07,2.09,1.76,M,-5.00,M,,*78
 
5.52748         MSG_UDP              iDivisorNMEA    $GPGLL,2254.75330,S,04309.53839,W,140146.000,A,A*59
 
5.53788         MSG_UDP              iDivisorNMEA    $GPRMC,140146.000,A,2254.75330,S,04309.53839,W,0.01,180.90,070323,23.39,W,A*18
 
5.54811         MSG_UDP              iDivisorNMEA    $GPVTG,180.90,T,,M,0.01,N,0.01,K,A*3D
 
5.55828         MSG_UDP              iDivisorNMEA    $HCHDG,284.5,0.0,E,23.3,W*69
 
5.56846         MSG_UDP              iDivisorNMEA    $GPHDT,261.20,T*02
 
5.57867         MSG_UDP              iDivisorNMEA    $TIROT,1.39,A*00
 
5.58885         MSG_UDP              iDivisorNMEA    $MXPGN,01F803,281C,0000000000000030*67
 
5.59907         MSG_UDP              iDivisorNMEA    $MXPGN,01F804,281C,0000005761C10030*17
 
5.60925         MSG_UDP              iDivisorNMEA    $AGRSA,-0.96,A,,V*6D
 
5.60927         ANGULO_LEME          iDivisorNMEA    -0.96000     
5.61942         MSG_UDP              iDivisorNMEA    $HCHDG,284.5,0.0,E,23.3,W*69
 
5.62960         MSG_UDP              iDivisorNMEA    $GPHDT,261.20,T*02
 
5.63978         MSG_UDP              iDivisorNMEA    $TIROT,1.39,A*00
 
5.64998         MSG_UDP              iDivisorNMEA    $MXPGN,01F803,281C,0000000000002832*6F
 
5.66012         MSG_UDP              iDivisorNMEA    $MXPGN,01F804,281C,0000009799C12832*14
 
5.67029         MSG_UDP              iDivisorNMEA    $GPGGA,140146.000,2254.75118,S,04309.54012,W,1,12,0.90,18.15,M,-5.60,M,,*4B
 
5.68045         MSG_UDP              iDivisorNMEA    $GPGLL,2254.75118,S,04309.54012,W,140146.000,A,A*57
 
5.69057         MSG_UDP              iDivisorNMEA    $GPRMC,140146.000,A,2254.75118,S,04309.54012,W,0.19,0.00,070323,23.30,W,A*16
 
5.70071         MSG_UDP              iDivisorNMEA    $GPVTG,0.00,T,,M,0.19,N,0.35,K,A*33
 
5.71085         MSG_UDP              iDivisorNMEA    $AGRSA,-0.96,A,,V*6D
 
5.71087         ANGULO_LEME          iDivisorNMEA    -0.96000     
5.72098         MSG_UDP              iDivisorNMEA    $MXPGN,00FF00,280B,0002000005049913*19
 
5.73113         MSG_UDP              iDivisorNMEA    $HCHDG,284.5,0.0,E,23.3,W*69
 
5.74128         MSG_UDP              iDivisorNMEA    $GPHDT,261.20,T*02
 
5.75145         MSG_UDP              iDivisorNMEA    $TIROT,1.49,A*07
 
5.76161         MSG_UDP              iDivisorNMEA    $MXPGN,01F803,281C,0000000000003C33*14
 
5.77176         MSG_UDP              iDivisorNMEA    $MXPGN,01F804,281C,0000009799C13C33*6F
 
5.78188         MSG_UDP              iDivisorNMEA    !AIVDM,1,1,,B,3:U=<5wP0StrHB=jq@oCA?wJ21GC,0*0B
 
5.79207         MSG_UDP              iDivisorNMEA    $AGRSA,-0.96,A,,V*6D
 
5.79211         ANGULO_LEME          iDivisorNMEA    -0.96000     
5.80222         MSG_UDP              iDivisorNMEA    $HCHDG,284.5,0.0,E,23.3,W*69
 
5.81234         MSG_UDP              iDivisorNMEA    $GPHDT,261.21,T*03
 
5.82249         MSG_UDP              iDivisorNMEA    $TIROT,1.49,A*07
 
5.83263         MSG_UDP              iDivisorNMEA    $MXPGN,01F803,281C,0000000000005034*66
 
5.84277         MSG_UDP              iDivisorNMEA    $MXPGN,01F804,281C,FFFF9C9799C15034*67
 
5.85293         MSG_UDP              iDivisorNMEA    $AGRSA,-0.96,A,,V*6D
 
5.85295         ANGULO_LEME          iDivisorNMEA    -0.96000     
5.86311         MSG_UDP              iDivisorNMEA    $GPGSA,A,3,08,10,16,18,27,28,31,32,66,65,86,88,1.60,1.40,1.40*03
 
5.87326         MSG_UDP              iDivisorNMEA    $GPGSV,3,1,12,08,45,253,46,10,33,142,32,16,06,325,38,18,12,061,38*78
 
5.88340         MSG_UDP              iDivisorNMEA    $GPGSV,3,2,12,27,57,310,40,28,26,037,38,31,21,026,42,32,68,136,45*72
 
5.89356         MSG_UDP              iDivisorNMEA    $GPGSV,3,3,12,66,24,302,41,65,60,233,36,86,21,039,41,88,40,201,31*7D
 
5.90375         MSG_UDP              iDivisorNMEA    $HCHDG,284.5,0.0,E,23.3,W*69
 
5.91392         MSG_UDP              iDivisorNMEA    $GPHDT,261.20,T*02
 
5.92406         MSG_UDP              iDivisorNMEA    $TIROT,1.69,A*05
 
5.93420         MSG_UDP              iDivisorNMEA    $MXPGN,01F803,281C,0000000000006435*60
 
5.94439         MSG_UDP              iDivisorNMEA    $MXPGN,01F804,281C,FFFF9CD240C16435*1D
 
5.95458         MSG_UDP              iDivisorNMEA    $MXPGN,00FF00,280B,0002000005049913*19
 
5.96476         MSG_UDP              iDivisorNMEA    $AGRSA,-0.96,A,,V*6D
 
5.96477         ANGULO_LEME          iDivisorNMEA    -0.96000     
5.97494         MSG_UDP              iDivisorNMEA    $MXPGN,01FF0D,780B,FF03000098900560*60
 
5.98507         MSG_UDP              iDivisorNMEA    $HCHDG,284.5,0.0,E,23.3,W*69
 
5.99524         MSG_UDP              iDivisorNMEA    $GPHDT,261.20,T*02
 
6.00541         MSG_UDP              iDivisorNMEA    $TIROT,1.69,A*05
 
6.01554         MSG_UDP              iDivisorNMEA    $MXPGN,01F803,281C,0000000000007836*6E
 
6.02567         MSG_UDP              iDivisorNMEA    $MXPGN,01F804,281C,FFFF9CD240C17836*13
 
6.03583         MSG_UDP              iDivisorNMEA    $GPGGA,,2254.75649,S,04309.54039,W,1,,,,M,,M,,*5E
 
6.04624         MSG_UDP              iDivisorNMEA    $GPGLL,2254.75649,S,04309.54039,W,,A,A*45
 
6.05640         MSG_UDP              iDivisorNMEA    $GPVTG,15.40,T,,M,1.00,N,1.85,K,A*00
 
6.06652         MSG_UDP              iDivisorNMEA    $AGRSA,-0.96,A,,V*6D
 
6.06657         ANGULO_LEME          iDivisorNMEA    -0.96000     
6.29248         MSG_UDP              iDivisorNMEA    $MXPGN,00FF19,7808,0080000A0A009F41*1D
 
6.32442         MSG_UDP              iDivisorNMEA    $AGRSA,-0.96,A,,V*6D
 
6.32449         ANGULO_LEME          iDivisorNMEA    -0.96000     
6.32531         MSG_UDP              iDivisorNMEA    $SDDPT,1.77,0.00,*7A
 
6.34248         MSG_UDP              iDivisorNMEA    $MXPGN,00FF8C,6808,FFF10695C9409F41*64
 
6.34575         MSG_UDP              iDivisorNMEA    $MXPGN,00FF3C,3808,8000F8FE00009F41*1C
 
6.37547         MSG_UDP              iDivisorNMEA    $HCHDG,284.5,0.0,E,23.3,W*69
 
6.37561         MSG_UDP              iDivisorNMEA    $GPHDT,261.20,T*02
 
6.38583         MSG_UDP              iDivisorNMEA    $TIROT,1.39,A*00
 
6.39604         MSG_UDP              iDivisorNMEA    $MXPGN,01F803,281C,000000000000B439*18
 
6.40643         MSG_UDP              iDivisorNMEA    $MXPGN,01F804,281C,FFFF9C2B20C1B439*65
 
6.41670         MSG_UDP              iDivisorNMEA    $MXPGN,00FF00,280B,0002000005049913*19
 
6.42695         MSG_UDP              iDivisorNMEA    $AGRSA,-0.96,A,,V*6D
 
6.42707         ANGULO_LEME          iDivisorNMEA    -0.96000     
6.44241         MSG_UDP              iDivisorNMEA    $MXPGN,00FF16,7808,FF0000002B0A9F41*1B
 
6.46543         MSG_UDP              iDivisorNMEA    $GPGSA,A,3,01,08,10,16,18,21,23,,,,,,2.64,2.09,2.09*06
 
6.46649         MSG_UDP              iDivisorNMEA    $GPGSV,2,1,07,01,01,225,00,08,44,252,48,10,33,142,00,16,05,324,37*7C
 
6.47579         MSG_UDP              iDivisorNMEA    $GPGSV,2,2,07,18,12,061,41,21,18,218,00,23,09,118,00*47
 
6.48606         MSG_UDP              iDivisorNMEA    $MXPGN,01FA06,681C,8B012400C8390FE0*13
 
6.49650         MSG_UDP              iDivisorNMEA    $MXPGN,01FA06,681C,008C0124F33A00E1*13
 
6.50698         MSG_UDP              iDivisorNMEA    $MXPGN,01FA06,681C,FFFFFFFFFF01A4E2*1F
 
6.51730         MSG_UDP              iDivisorNMEA    $GPGGA,140146.900,2254.75330,S,04309.53839,W,1,07,2.09,1.63,M,-5.00,M,,*75
 
6.52762         MSG_UDP              iDivisorNMEA    $GPGLL,2254.75330,S,04309.53839,W,140146.900,A,A*50
 
6.53787         MSG_UDP              iDivisorNMEA    $GPRMC,140146.900,A,2254.75330,S,04309.53839,W,0.00,63.25,070323,23.39,W,A*22
 
6.54797         MSG_UDP              iDivisorNMEA    $GPVTG,63.25,T,,M,0.00,N,0.00,K,A*0F
 
6.55821         MSG_UDP              iDivisorNMEA    $HCHDG,284.5,0.0,E,23.3,W*69
 
6.56846         MSG_UDP              iDivisorNMEA    $GPHDT,261.20,T*02
 
6.57874         MSG_UDP              iDivisorNMEA    $TIROT,1.39,A*00
 
6.58904         MSG_UDP              iDivisorNMEA    $MXPGN,01F803,281C,0000000000000039*6E
 
6.59928         MSG_UDP              iDivisorNMEA    $MXPGN,01F804,281C,0000002B20C10039*69
 
6.60957         MSG_UDP              iDivisorNMEA    $AGRSA,-0.96,A,,V*6D
 
6.60963         ANGULO_LEME          iDivisorNMEA    -0.96000     
6.61983         MSG_UDP              iDivisorNMEA    $HCHDG,284.5,0.0,E,23.3,W*69
 
6.63008         MSG_UDP              iDivisorNMEA    $GPHDT,261.20,T*02
 
6.64034         MSG_UDP              iDivisorNMEA    $TIROT,1.49,A*07
 
6.65066         MSG_UDP              iDivisorNMEA    $MXPGN,01F803,281C,000000000000143A*13
 
6.66094         MSG_UDP              iDivisorNMEA    $MXPGN,01F804,281C,0000009DC4C1143A*6C
 
6.67121         MSG_UDP              iDivisorNMEA    $AGRSA,-0.96,A,,V*6D
 
6.67128         ANGULO_LEME          iDivisorNMEA    -0.96000     
6.68149         MSG_UDP              iDivisorNMEA    $GPGGA,140147.000,2254.75138,S,04309.54027,W,1,12,0.90,18.15,M,-5.60,M,,*4E
 
6.69177         MSG_UDP              iDivisorNMEA    $GPGLL,2254.75138,S,04309.54027,W,140147.000,A,A*52
 
6.70202         MSG_UDP              iDivisorNMEA    $GPRMC,140147.000,A,2254.75138,S,04309.54027,W,0.00,0.00,070323,23.30,W,A*1B
 
6.71233         MSG_UDP              iDivisorNMEA    $GPVTG,0.00,T,,M,0.00,N,0.00,K,A*3D
 
6.72261         MSG_UDP              iDivisorNMEA    $HCHDG,284.5,0.0,E,23.3,W*69
 
6.73300         MSG_UDP              iDivisorNMEA    $GPHDT,261.18,T*09
 
6.74322         MSG_UDP              iDivisorNMEA    $TIROT,1.49,A*07
 
6.75348         MSG_UDP              iDivisorNMEA    $MXPGN,01F803,281C,000000000000143A*13
 
6.76377         MSG_UDP              iDivisorNMEA    $MXPGN,01F804,281C,0000009DC4C1143A*6C
 
6.77401         MSG_UDP              iDivisorNMEA    $MXPGN,00FF00,280B,0002000005049913*19
 
6.78431         MSG_UDP              iDivisorNMEA    $AGRSA,-0.96,A,,V*6D
 
6.78437         ANGULO_LEME          iDivisorNMEA    -0.96000     
6.79459         MSG_UDP              iDivisorNMEA    $HCHDG,284.5,0.0,E,23.3,W*69
 
6.80483         MSG_UDP              iDivisorNMEA    $GPHDT,261.18,T*09
 
6.81513         MSG_UDP              iDivisorNMEA    $TIROT,1.49,A*07
 
6.82543         MSG_UDP              iDivisorNMEA    $MXPGN,01F803,281C,000000000000293B*1E
 
6.83567         MSG_UDP              iDivisorNMEA    $MXPGN,01F804,281C,0000009DC4C1293B*61
 
6.84594         MSG_UDP              iDivisorNMEA    $AGRSA,-0.96,A,,V*6D
 
6.84599         ANGULO_LEME          iDivisorNMEA    -0.96000     
6.87552         MSG_UDP              iDivisorNMEA    $HCHDG,284.5,0.0,E,23.3,W*69
 
6.87564         MSG_UDP              iDivisorNMEA    $GPHDT,261.17,T*06
 
6.88589         MSG_UDP              iDivisorNMEA    $TIROT,1.29,A*01
 
6.89610         MSG_UDP              iDivisorNMEA    $MXPGN,01F803,281C,000000000000643E*10
 
6.90635         MSG_UDP              iDivisorNMEA    $MXPGN,01F804,281C,000000E198C1643E*10
 
6.91663         MSG_UDP              iDivisorNMEA    $GPGSA,A,3,08,10,16,18,27,28,31,32,66,65,86,88,1.60,1.40,1.40*03
 
6.92698         MSG_UDP              iDivisorNMEA    $GPGSV,3,1,12,08,45,253,46,10,33,142,32,16,06,325,38,18,12,061,38*78
 
6.93731         MSG_UDP              iDivisorNMEA    $GPGSV,3,2,12,27,57,310,40,28,26,037,38,31,21,026,42,32,68,136,45*72
 
6.94759         MSG_UDP              iDivisorNMEA    $GPGSV,3,3,12,66,24,302,41,65,60,233,36,86,21,039,41,88,40,201,31*7D
 
6.95796         MSG_UDP              iDivisorNMEA    $AGRSA,-0.90,A,,V*6B
 
6.95804         ANGULO_LEME          iDivisorNMEA    -0.90000     
6.96827         MSG_UDP              iDivisorNMEA    $MXPGN,00FF00,280B,0002000005049913*19
 
6.97858         MSG_UDP              iDivisorNMEA    $MXPGN,01FF0D,780B,FF03000098900580*6E
 
7.17559         MSG_UDP              iDivisorNMEA    $HCHDG,284.4,0.0,E,23.3,W*68
 
7.17576         MSG_UDP              iDivisorNMEA    $GPHDT,261.14,T*05
 
7.18646         MSG_UDP              iDivisorNMEA    $TIROT,1.19,A*02
 
7.19670         MSG_UDP              iDivisorNMEA    $MXPGN,01F803,281C,000000000000B442*14
 
7.20697         MSG_UDP              iDivisorNMEA    $MXPGN,01F804,281C,0000008B3EC1B442*6D
 
7.21730         MSG_UDP              iDivisorNMEA    !AIVDO,1,1,,,B:UOH3P01o>Vt=Lf>a<9cwoUoP06,0*04
 
7.22750         MSG_UDP              iDivisorNMEA    $MXPGN,00FF00,280B,0002000005049913*19
 
7.23775         MSG_UDP              iDivisorNMEA    $AGRSA,-0.96,A,,V*6D
 
7.23780         ANGULO_LEME          iDivisorNMEA    -0.96000     
7.24798         MSG_UDP              iDivisorNMEA    $MXPGN,01FF1A,680B,FF022B849F410520*6E
 
7.25824         MSG_UDP              iDivisorNMEA    $MXPGN,01FF1A,782B,FF010B049F4105E0*13
 
7.26847         MSG_UDP              iDivisorNMEA    $MXPGN,00FF19,7808,0000000202009F41*15
 
7.27868         MSG_UDP              iDivisorNMEA    $HCHDG,284.4,0.0,E,23.3,W*68
 
7.28890         MSG_UDP              iDivisorNMEA    $GPHDT,261.14,T*05
 
7.29909         MSG_UDP              iDivisorNMEA    $TIROT,1.39,A*00
 
7.30929         MSG_UDP              iDivisorNMEA    $MXPGN,01F803,281C,000000000000C843*18
 
7.31952         MSG_UDP              iDivisorNMEA    $MXPGN,01F804,281C,0000008B3EC1C843*61
 
7.32972         MSG_UDP              iDivisorNMEA    $MXPGN,00FF19,7808,0080000A0A009F41*1D
 
7.33993         MSG_UDP              iDivisorNMEA    $AGRSA,-0.96,A,,V*6D
 
7.33999         ANGULO_LEME          iDivisorNMEA    -0.96000     
7.35015         MSG_UDP              iDivisorNMEA    $SDDPT,1.78,0.00,*75
 
7.36035         MSG_UDP              iDivisorNMEA    $MXPGN,00FF8C,6808,FFF10695C9409F41*64
 
7.37056         MSG_UDP              iDivisorNMEA    $MXPGN,00FF3C,3808,8000F8FE00009F41*1C
 
7.38077         MSG_UDP              iDivisorNMEA    $HCHDG,284.4,0.0,E,23.3,W*68
 
7.39096         MSG_UDP              iDivisorNMEA    $GPHDT,261.13,T*02
 
7.40119         MSG_UDP              iDivisorNMEA    $TIROT,1.39,A*00
 
7.41140         MSG_UDP              iDivisorNMEA    $MXPGN,01F803,281C,000000000000DC44*63
 
7.42167         MSG_UDP              iDivisorNMEA    $MXPGN,01F804,281C,FFFF9D8A62C1DC44*16
 
7.43188         MSG_UDP              iDivisorNMEA    $AGRSA,-0.96,A,,V*6D
 
7.43198         ANGULO_LEME          iDivisorNMEA    -0.96000     
7.44231         MSG_UDP              iDivisorNMEA    $MXPGN,00FF16,7808,FF0000002B0A9F41*1B
 
7.45554         MSG_UDP              iDivisorNMEA    $MXPGN,00FF00,280B,0002000005049913*19
 
7.46564         MSG_UDP              iDivisorNMEA    $GPGSA,A,3,01,08,10,16,18,21,23,,,,,,2.64,2.09,2.09*06
 
7.47387         MSG_UDP              iDivisorNMEA    $GPGSV,2,1,07,01,01,225,00,08,44,252,48,10,33,142,00,16,05,324,38*73
 
7.48408         MSG_UDP              iDivisorNMEA    $GPGSV,2,2,07,18,11,061,42,21,18,218,00,23,09,117,00*48
 
7.49442         MSG_UDP              iDivisorNMEA    $MXPGN,01FA06,681C,8B012400C8440F00*6C
 
7.50469         MSG_UDP              iDivisorNMEA    $MXPGN,01FA06,681C,008C0124F33A0001*66
 
7.51494         MSG_UDP              iDivisorNMEA    $MXPGN,01FA06,681C,FFFFFFFFFF01A402*6A
 
7.52518         MSG_UDP              iDivisorNMEA    $GPGGA,140148.000,2254.75330,S,04309.53839,W,1,07,2.09,1.57,M,-5.00,M,,*75
 
7.53541         MSG_UDP              iDivisorNMEA    $GPGLL,2254.75330,S,04309.53839,W,140148.000,A,A*57
 
7.54563         MSG_UDP              iDivisorNMEA    $GPRMC,140148.000,A,2254.75330,S,04309.53839,W,0.00,204.23,070323,23.39,W,A*10
 
7.55584         MSG_UDP              iDivisorNMEA    $GPVTG,204.23,T,,M,0.00,N,0.00,K,A*3A
 
7.56608         MSG_UDP              iDivisorNMEA    $HCHDG,284.4,0.0,E,23.3,W*68
 
7.57633         MSG_UDP              iDivisorNMEA    $GPHDT,261.12,T*03
 
7.58655         MSG_UDP              iDivisorNMEA    $TIROT,1.09,A*03
 
7.59678         MSG_UDP              iDivisorNMEA    $MXPGN,01F803,281C,0000000000000044*64
 
7.60704         MSG_UDP              iDivisorNMEA    $MXPGN,01F804,281C,0000008A62C10044*6C
 
7.61726         MSG_UDP              iDivisorNMEA    $AGRSA,-0.96,A,,V*6D
 
7.61736         ANGULO_LEME          iDivisorNMEA    -0.96000     
7.62753         MSG_UDP              iDivisorNMEA    $HCHDG,284.4,0.0,E,23.3,W*68
 
7.63776         MSG_UDP              iDivisorNMEA    $GPHDT,261.12,T*03
 
7.64796         MSG_UDP              iDivisorNMEA    $TIROT,1.09,A*03
 
7.65824         MSG_UDP              iDivisorNMEA    $MXPGN,01F803,281C,0000000000002846*6C
 
7.66846         MSG_UDP              iDivisorNMEA    $MXPGN,01F804,281C,000000A9FEC12846*62
 
7.67872         MSG_UDP              iDivisorNMEA    $AGRSA,-0.96,A,,V*6D
 
7.67877         ANGULO_LEME          iDivisorNMEA    -0.96000     
7.68934         MSG_UDP              iDivisorNMEA    $HCHDG,284.4,0.0,E,23.3,W*68
 
7.69955         MSG_UDP              iDivisorNMEA    $GPHDT,261.10,T*01
 
7.70979         MSG_UDP              iDivisorNMEA    $TIROT,0.79,A*05
 
7.72001         MSG_UDP              iDivisorNMEA    $MXPGN,01F803,281C,0000000000003C47*17
 
7.73023         MSG_UDP              iDivisorNMEA    $MXPGN,01F804,281C,000000A9FEC13C47*19
 
7.74049         MSG_UDP              iDivisorNMEA    $MXPGN,00FF00,280B,0002000005049913*19
 
7.75075         MSG_UDP              iDivisorNMEA    $GPGGA,140148.000,2254.75138,S,04309.54015,W,1,12,0.90,18.28,M,-5.60,M,,*4E
 
7.76103         MSG_UDP              iDivisorNMEA    $GPGLL,2254.75138,S,04309.54015,W,140148.000,A,A*5C
 
7.77126         MSG_UDP              iDivisorNMEA    $GPRMC,140148.000,A,2254.75138,S,04309.54015,W,0.09,0.00,070323,23.30,W,A*1C
 
7.78157         MSG_UDP              iDivisorNMEA    $GPVTG,0.00,T,,M,0.09,N,0.16,K,A*33
 
7.79185         MSG_UDP              iDivisorNMEA    $AGRSA,-0.96,A,,V*6D
 
7.79192         ANGULO_LEME          iDivisorNMEA    -0.96000     
7.80217         MSG_UDP              iDivisorNMEA    $HCHDG,284.4,0.0,E,23.3,W*68
 
7.81242         MSG_UDP              iDivisorNMEA    $GPHDT,261.11,T*00
 
8.07552         MSG_UDP              iDivisorNMEA    $HCHDG,284.4,0.0,E,23.3,W*68
 
8.07568         MSG_UDP              iDivisorNMEA    $GPHDT,261.09,T*09
 
8.08595         MSG_UDP              iDivisorNMEA    $TIROT,0.79,A*05
 
8.09622         MSG_UDP              iDivisorNMEA    $MXPGN,01F803,281C,0002580000008C4B*66
 
8.10645         MSG_UDP              iDivisorNMEA    $MXPGN,01F804,281C,00000098ACC18C4B*1F
 
8.12459         MSG_UDP              iDivisorNMEA    $AGRSA,-0.96,A,,V*6D
 
8.12469         ANGULO_LEME          iDivisorNMEA    -0.96000     
8.12687         MSG_UDP              iDivisorNMEA    $GPZDA,140148.120,07,03,2023,,*5A
 
8.14265         MSG_UDP              iDivisorNMEA    $MXPGN,00FF28,3808,FF08FFFDFC059F41*19
 
8.17552         MSG_UDP              iDivisorNMEA    $HCHDG,284.4,0.0,E,23.3,W*68
 
8.17567         MSG_UDP              iDivisorNMEA    $GPHDT,261.08,T*08
 
8.18595         MSG_UDP              iDivisorNMEA    $TIROT,0.79,A*05
 
8.19650         MSG_UDP              iDivisorNMEA    $MXPGN,01F803,281C,0002580000008C4B*66
 
8.20675         MSG_UDP              iDivisorNMEA    $MXPGN,01F804,281C,00000098ACC18C4B*1F
 
8.21706         MSG_UDP              iDivisorNMEA    $MXPGN,00FF00,280B,0002000005049913*19
 
8.22728         MSG_UDP              iDivisorNMEA    $MXPGN,01FF1A,680B,FF022B849F410540*68
 
8.23753         MSG_UDP              iDivisorNMEA    $MXPGN,01FF1A,782B,FF010B049F410500*66
 
8.24780         MSG_UDP              iDivisorNMEA    $AGRSA,-0.96,A,,V*6D
 
8.24785         ANGULO_LEME          iDivisorNMEA    -0.96000     
8.26647         MSG_UDP              iDivisorNMEA    $MXPGN,00FF19,7808,0000000202009F41*15
 
8.27551         MSG_UDP              iDivisorNMEA    $HCHDG,284.4,0.0,E,23.3,W*68
 
8.27977         MSG_UDP              iDivisorNMEA    $GPHDT,261.08,T*08
 
8.29014         MSG_UDP              iDivisorNMEA    $TIROT,0.79,A*05
 
8.30040         MSG_UDP              iDivisorNMEA    $MXPGN,01F803,281C,000258000000A04C*6D
 
8.31064         MSG_UDP              iDivisorNMEA    $MXPGN,01F804,281C,00000098ACC1A04C*14
 
8.32088         MSG_UDP              iDivisorNMEA    $MXPGN,01FF1A,782B,FFFAFF859F410520*19
 
8.33116         MSG_UDP              iDivisorNMEA    $MXPGN,00FF19,7808,0080000A0A009F41*1D
 
8.34156         MSG_UDP              iDivisorNMEA    $AGRSA,-0.96,A,,V*6D
 
8.34161         ANGULO_LEME          iDivisorNMEA    -0.96000     
8.35182         MSG_UDP              iDivisorNMEA    $SDDPT,1.78,0.00,*75
 
8.36203         MSG_UDP              iDivisorNMEA    $MXPGN,00FF8C,6808,FFF10695C9409F41*64
 
8.37228         MSG_UDP              iDivisorNMEA    $MXPGN,00FF3C,3808,8000F8FE00009F41*1C
 
8.38252         MSG_UDP              iDivisorNMEA    $HCHDG,284.4,0.0,E,23.3,W*68
 
8.39275         MSG_UDP              iDivisorNMEA    $GPHDT,261.07,T*07
 
8.40325         MSG_UDP              iDivisorNMEA    $TIROT,0.59,A*07
 
8.41359         MSG_UDP              iDivisorNMEA    $MXPGN,01F803,281C,000258000000C84E*61
 
8.42390         MSG_UDP              iDivisorNMEA    $MXPGN,01F804,281C,00000049B1C1C84E*65
 
8.43413         MSG_UDP              iDivisorNMEA    $AGRSA,-0.96,A,,V*6D
 
8.43419         ANGULO_LEME          iDivisorNMEA    -0.96000     
8.44436         MSG_UDP              iDivisorNMEA    $MXPGN,00FF16,7808,FF0000002B0A9F41*1B
 
8.45544         MSG_UDP              iDivisorNMEA    $MXPGN,00FF00,280B,0002000005049913*19
 
8.46650         MSG_UDP              iDivisorNMEA    $GPGSA,A,3,01,08,10,16,18,21,23,,,,,,2.64,2.09,2.09*06
 
8.47582         MSG_UDP              iDivisorNMEA    $GPGSV,2,1,07,01,01,225,00,08,44,252,48,10,33,142,00,16,05,324,38*73
 
8.48609         MSG_UDP              iDivisorNMEA    $GPGSV,2,2,07,18,11,061,41,21,18,218,00,23,09,117,00*4B
 
8.49636         MSG_UDP              iDivisorNMEA    $MXPGN,01FA06,681C,8B012400C84E0F20*1F
 
8.50661         MSG_UDP              iDivisorNMEA    $MXPGN,01FA06,681C,008C0124F33D0021*61
 
8.51688         MSG_UDP              iDivisorNMEA    $MXPGN,01FA06,681C,FFFFFFFFFF01A422*68
 
8.52718         MSG_UDP              iDivisorNMEA    $GPGGA,140149.000,2254.75330,S,04309.53829,W,1,07,2.09,1.57,M,-5.00,M,,*75
 
8.53748         MSG_UDP              iDivisorNMEA    $GPGLL,2254.75330,S,04309.53829,W,140149.000,A,A*57
 
8.54778         MSG_UDP              iDivisorNMEA    $GPRMC,140149.000,A,2254.75330,S,04309.53829,W,0.01,223.93,070323,23.39,W,A*1F
 
8.55814         MSG_UDP              iDivisorNMEA    $GPVTG,223.93,T,,M,0.01,N,0.01,K,A*34
 
8.56844         MSG_UDP              iDivisorNMEA    $HCHDG,284.4,0.0,E,23.3,W*68
 
8.57877         MSG_UDP              iDivisorNMEA    $GPHDT,261.07,T*07
 
8.58912         MSG_UDP              iDivisorNMEA    $TIROT,0.29,A*00
 
8.59939         MSG_UDP              iDivisorNMEA    $MXPGN,01F803,281C,000000000000004E*15
 
8.60969         MSG_UDP              iDivisorNMEA    $MXPGN,01F804,281C,00000049B1C1004E*1E
 
8.62005         MSG_UDP              iDivisorNMEA    $AGRSA,-0.96,A,,V*6D
 
8.62015         ANGULO_LEME          iDivisorNMEA    -0.96000     
8.63040         MSG_UDP              iDivisorNMEA    $HCHDG,284.4,0.0,E,23.3,W*68
 
8.64075         MSG_UDP              iDivisorNMEA    $GPHDT,261.07,T*07
 
8.65115         MSG_UDP              iDivisorNMEA    $TIROT,0.29,A*00
 
8.66155         MSG_UDP              iDivisorNMEA    $MXPGN,01F803,281C,0000000000002850*6B
 
8.67187         MSG_UDP              iDivisorNMEA    $MXPGN,01F804,281C,000000AD6BC12850*6F
 
8.68219         MSG_UDP              iDivisorNMEA    $AGRSA,-0.96,A,,V*6D
 
8.68229         ANGULO_LEME          iDivisorNMEA    -0.96000     
8.69253         MSG_UDP              iDivisorNMEA    $HCHDG,284.4,0.0,E,23.3,W*68
 
8.70327         MSG_UDP              iDivisorNMEA    $GPHDT,261.06,T*06
 
8.71354         MSG_UDP              iDivisorNMEA    $TIROT,0.59,A*07
 
8.72383         MSG_UDP              iDivisorNMEA    $MXPGN,01F803,281C,0000000000003C51*10
 
8.73413         MSG_UDP              iDivisorNMEA    $MXPGN,01F804,281C,000000AD6BC13C51*14
 
8.97551         MSG_UDP              iDivisorNMEA    $HCHDG,284.4,0.0,E,23.3,W*68
 
8.97570         MSG_UDP              iDivisorNMEA    $GPHDT,261.06,T*06
 
8.98604         MSG_UDP              iDivisorNMEA    $TIROT,0.49,A*06
 
8.99631         MSG_UDP              iDivisorNMEA    $MXPGN,01F803,281C,0000000000007854*6A
 
9.00658         MSG_UDP              iDivisorNMEA    $MXPGN,01F804,281C,00000056F5C17854*6F
 
9.02556         MSG_UDP              iDivisorNMEA    $GPGGA,,2254.75659,S,04309.53999,W,1,,,,M,,M,,*5B
 
9.02790         MSG_UDP              iDivisorNMEA    $GPGLL,2254.75659,S,04309.53999,W,,A,A*40
 
9.03822         MSG_UDP              iDivisorNMEA    $GPVTG,15.40,T,,M,0.70,N,1.29,K,A*00
 
9.04853         MSG_UDP              iDivisorNMEA    $AGRSA,-0.96,A,,V*6D
 
9.04863         ANGULO_LEME          iDivisorNMEA    -0.96000     
9.05882         MSG_UDP              iDivisorNMEA    $MXPGN,01FF2C,7808,FFFFFFFF9F411720*69
 
9.06909         MSG_UDP              iDivisorNMEA    $MXPGN,01FF2C,7808,FFFF7FFFFFFF7F21*14
 
9.07930         MSG_UDP              iDivisorNMEA    $MXPGN,01FF2C,7808,FF7FFFFFFFFFFF22*66
 
9.08956         MSG_UDP              iDivisorNMEA    $MXPGN,01FF2C,7808,FFFFFFFF7FFFFF23*67
 
9.09987         MSG_UDP              iDivisorNMEA    $MXPGN,00FF3D,6808,7FFFFF0DFFFF9F41*6E
 
9.11012         MSG_UDP              iDivisorNMEA    $HCHDG,284.4,0.0,E,23.3,W*68
 
9.12038         MSG_UDP              iDivisorNMEA    $GPHDT,261.06,T*06
 
9.13067         MSG_UDP              iDivisorNMEA    $TIROT,0.79,A*05
 
9.14088         MSG_UDP              iDivisorNMEA    $MXPGN,01F803,281C,0000000000008C55*1F
 
9.15120         MSG_UDP              iDivisorNMEA    $MXPGN,01F804,281C,000000EC39C18C55*66
 
9.16148         MSG_UDP              iDivisorNMEA    $MXPGN,00FF3D,6808,0000FF0BFFFF9F41*19
 
9.17174         MSG_UDP              iDivisorNMEA    $MXPGN,00FF3D,6808,FFFFFF0CFFFF9F41*18
 
9.18199         MSG_UDP              iDivisorNMEA    $AGRSA,-0.96,A,,V*6D
 
9.18205         ANGULO_LEME          iDivisorNMEA    -0.96000     
9.19227         MSG_UDP              iDivisorNMEA    $GPZDA,140149.120,07,03,2023,,*5B
 
9.20254         MSG_UDP              iDivisorNMEA    $MXPGN,00FF3D,6808,FFFFFF03FFFF9F41*68
 
9.21331         MSG_UDP              iDivisorNMEA    $MXPGN,00FF28,3808,FF08FFFDFC059F41*19
 
9.22357         MSG_UDP              iDivisorNMEA    $MXPGN,00FF3D,6808,FFFFFF02FFFF9F41*69
 
9.23391         MSG_UDP              iDivisorNMEA    $HCHDG,284.4,0.0,E,23.3,W*68
 
9.24425         MSG_UDP              iDivisorNMEA    $GPHDT,261.06,T*06
 
9.25459         MSG_UDP              iDivisorNMEA    $TIROT,0.79,A*05
 
9.26492         MSG_UDP              iDivisorNMEA    $MXPGN,01F803,281C,000000000000A056*16
 
