%%%%%%%%%%%%%%%%%%%%%%%%%%%%%%%%%%%%%%%%%%%%%%%%%%%%%%%%%%%
%% LOG FILE:       /home/moos-ivp-douglas/log/teste_7_3_2023_____10_28_35/teste_7_3_2023_____10_28_35.alog
%% FILE OPENED ON  Wed Dec 31 21:00:00 1969
%% LOGSTART           1678195714.620398
%%%%%%%%%%%%%%%%%%%%%%%%%%%%%%%%%%%%%%%%%%%%%%%%%%%%%%%%%%%
-0.03555        MOOS_DEBUG           pHelmIvP        pHelmIvP AllStop: ManualOverride 
-0.03553        DESIRED_SPEED        pHelmIvP        0.00000      
-0.03553        DESIRED_HEADING      pHelmIvP        0.00000      
0.15891         DESIRED_RUDDER       pMarinePIDV22   0.00000      
0.15892         DESIRED_THRUST       pMarinePIDV22   0.00000      
0.71575         ANGULO_LEME          iDivisorNMEA    -0.96000     
0.74760         MSG_UDP              iDivisorNMEA    $MXPGN,01FF2C,7808,FFFFFFFF9F4117E0*1E
 
0.75577         MSG_UDP              iDivisorNMEA    $MXPGN,01FF2C,7808,FFFF7FFFFFFF7FE1*63
 
0.76593         MSG_UDP              iDivisorNMEA    $MXPGN,01FF2C,7808,FF7FFFFFFFFFFFE2*11
 
0.77613         MSG_UDP              iDivisorNMEA    $MXPGN,01FF2C,7808,FFFFFFFF7FFFFFE3*10
 
0.78629         MSG_UDP              iDivisorNMEA    !AIVDM,1,1,,B,1:U6vLPP00trHf=jpdorMgw628Dd,0*40
 
0.79643         MSG_UDP              iDivisorNMEA    $HCHDG,283.4,0.0,E,23.3,W*6F
 
0.80657         MSG_UDP              iDivisorNMEA    $GPHDT,260.06,T*07
 
0.81675         MSG_UDP              iDivisorNMEA    $TIROT,-0.49,A*2B
 
0.82694         MSG_UDP              iDivisorNMEA    $MXPGN,00FF3D,6808,7FFFFF0DFFFF9F41*6E
 
0.83712         MSG_UDP              iDivisorNMEA    $MXPGN,01F803,281C,00000000000050DD*61
 
0.84725         MSG_UDP              iDivisorNMEA    $MXPGN,01F804,281C,000000A3ADC150DD*63
 
0.85738         MSG_UDP              iDivisorNMEA    $AGRSA,-0.96,A,,V*6D
 
0.85740         ANGULO_LEME          iDivisorNMEA    -0.96000     
0.86753         MSG_UDP              iDivisorNMEA    $MXPGN,00FF3C,3808,8000F8FE00009F41*1C
 
0.87769         MSG_UDP              iDivisorNMEA    $HCHDG,283.4,0.0,E,23.3,W*6F
 
0.88786         MSG_UDP              iDivisorNMEA    $GPHDT,260.06,T*07
 
0.89805         MSG_UDP              iDivisorNMEA    $TIROT,-0.69,A*29
 
0.90820         MSG_UDP              iDivisorNMEA    $MXPGN,01F803,281C,00000000000078DF*69
 
0.91837         MSG_UDP              iDivisorNMEA    $MXPGN,01F804,281C,0000004ABAC178DF*6A
 
0.92855         MSG_UDP              iDivisorNMEA    $AGRSA,-0.90,A,,V*6B
 
0.92861         ANGULO_LEME          iDivisorNMEA    -0.90000     
0.95147         MSG_UDP              iDivisorNMEA    $MXPGN,00FF16,7808,FF0000002B0A9F41*1B
 
0.96247         MSG_UDP              iDivisorNMEA    $HCHDG,283.3,0.0,E,23.3,W*68
 
0.96253         MSG_UDP              iDivisorNMEA    $GPHDT,260.03,T*02
 
0.97281         MSG_UDP              iDivisorNMEA    $TIROT,-0.79,A*28
 
0.98298         MSG_UDP              iDivisorNMEA    $MXPGN,00FF19,7808,0000000202009F41*15
 
0.99534         MSG_UDP              iDivisorNMEA    $MXPGN,00FF00,280B,0002000005049913*19
 
1.00351         MSG_UDP              iDivisorNMEA    $MXPGN,01FF1A,680B,FF022B849F4105C0*1F
 
1.01367         MSG_UDP              iDivisorNMEA    $MXPGN,00FF19,7808,0080000A0A009F41*1D
 
1.02382         MSG_UDP              iDivisorNMEA    $MXPGN,01F803,281C,0000000000008DE0*6D
 
1.03398         MSG_UDP              iDivisorNMEA    $MXPGN,01F804,281C,0000004ABAC18DE0*6E
 
1.04414         MSG_UDP              iDivisorNMEA    $GPGGA,,2254.75769,S,04309.53849,W,1,,,,M,,M,,*55
 
1.05432         MSG_UDP              iDivisorNMEA    $GPGLL,2254.75769,S,04309.53849,W,,A,A*4E
 
1.06449         MSG_UDP              iDivisorNMEA    $GPVTG,331.90,T,,M,0.10,N,0.18,K,A*3D
 
1.07466         MSG_UDP              iDivisorNMEA    $AGRSA,-0.90,A,,V*6B
 
1.07471         ANGULO_LEME          iDivisorNMEA    -0.90000     
1.08498         MSG_UDP              iDivisorNMEA    !AIVDM,1,1,,A,1:U8vhS1P0LrNOQjsGwpu1ap0d2G,0*1F
 
1.09514         MSG_UDP              iDivisorNMEA    $MXPGN,00FF8C,6808,FFF10695C9409F41*64
 
1.10538         MSG_UDP              iDivisorNMEA    !AIVDO,1,1,,,B:UOH3P02G>VtCLf>`O?OwiUoP06,0*0F
 
1.11557         MSG_UDP              iDivisorNMEA    $GPGGA,132835.000,2254.75255,S,04309.53746,W,1,12,0.80,9.30,M,-5.60,M,,*7E
 
1.12575         MSG_UDP              iDivisorNMEA    $GPGLL,2254.75255,S,04309.53746,W,132835.000,A,A*54
 
1.13592         MSG_UDP              iDivisorNMEA    $GPRMC,132835.000,A,2254.75255,S,04309.53746,W,0.09,0.00,070323,23.30,W,A*14
 
1.14612         MSG_UDP              iDivisorNMEA    $GPVTG,0.00,T,,M,0.09,N,0.16,K,A*33
 
1.15629         MSG_UDP              iDivisorNMEA    $HCHDG,283.3,0.0,E,23.3,W*68
 
1.16646         MSG_UDP              iDivisorNMEA    $GPHDT,260.03,T*02
 
1.17665         MSG_UDP              iDivisorNMEA    $TIROT,-0.79,A*28
 
1.18679         MSG_UDP              iDivisorNMEA    $MXPGN,01FF1A,782B,FF010B049F4105E0*13
 
1.19700         MSG_UDP              iDivisorNMEA    $MXPGN,01F803,281C,000000000000A0E1*61
 
1.20714         MSG_UDP              iDivisorNMEA    $MXPGN,01F804,281C,0000004ABAC1A0E1*62
 
1.21731         MSG_UDP              iDivisorNMEA    $AGRSA,-0.90,A,,V*6B
 
1.21737         ANGULO_LEME          iDivisorNMEA    -0.90000     
1.22748         MSG_UDP              iDivisorNMEA    $GPZDA,132835.620,07,03,2023,,*5B
 
1.23766         MSG_UDP              iDivisorNMEA    $GPGSA,A,3,08,10,16,18,21,27,28,31,32,66,65,86,1.30,0.80,1.10*0D
 
1.24783         MSG_UDP              iDivisorNMEA    $GPGSV,3,1,12,08,38,234,24,10,41,157,28,16,13,312,44,18,20,074,32*79
 
1.25800         MSG_UDP              iDivisorNMEA    $GPGSV,3,2,12,21,07,225,21,27,64,276,43,28,16,025,41,31,11,016,39*7A
 
1.26820         MSG_UDP              iDivisorNMEA    $GPGSV,3,3,12,32,78,080,45,66,12,316,37,65,61,276,31,86,33,054,42*72
 
1.27839         MSG_UDP              iDivisorNMEA    $MXPGN,01FF0D,780B,FF03000098900560*60
 
1.28856         MSG_UDP              iDivisorNMEA    $HCHDG,283.3,0.0,E,23.3,W*68
 
1.50418         MSG_UDP              iDivisorNMEA    $MXPGN,01F803,281C,00000000000000E4*15
 
1.50504         MSG_UDP              iDivisorNMEA    $MXPGN,01F804,281C,0000008C11C100E4*1B
 
1.51521         MSG_UDP              iDivisorNMEA    $GPGGA,132836.000,2254.75339,S,04309.53839,W,1,07,1.79,0.58,M,-5.00,M,,*73
 
1.52537         MSG_UDP              iDivisorNMEA    $GPGLL,2254.75339,S,04309.53839,W,132836.000,A,A*5B
 
1.53553         MSG_UDP              iDivisorNMEA    $GPRMC,132836.000,A,2254.75339,S,04309.53839,W,0.05,156.23,070323,23.39,W,A*1D
 
1.54567         MSG_UDP              iDivisorNMEA    $GPVTG,156.23,T,,M,0.05,N,0.09,K,A*32
 
1.55583         MSG_UDP              iDivisorNMEA    $AGRSA,-0.90,A,,V*6B
 
1.55591         ANGULO_LEME          iDivisorNMEA    -0.90000     
1.56602         MSG_UDP              iDivisorNMEA    $HCHDG,283.3,0.0,E,23.3,W*68
 
1.57620         MSG_UDP              iDivisorNMEA    $GPHDT,260.04,T*05
 
1.58654         MSG_UDP              iDivisorNMEA    $TIROT,-0.39,A*2C
 
1.60602         MSG_UDP              iDivisorNMEA    $MXPGN,01F803,281C,00000000000014E5*11
 
1.60720         MSG_UDP              iDivisorNMEA    $MXPGN,01F804,281C,0000008C11C114E5*1F
 
1.61735         MSG_UDP              iDivisorNMEA    $AGRSA,-0.90,A,,V*6B
 
1.61740         ANGULO_LEME          iDivisorNMEA    -0.90000     
1.64794         MSG_UDP              iDivisorNMEA    $MXPGN,00FF28,3808,FF08FFFDFC059F41*19
 
1.66204         MSG_UDP              iDivisorNMEA    $HCHDG,283.3,0.0,E,23.3,W*68
 
1.66241         MSG_UDP              iDivisorNMEA    $GPHDT,260.04,T*05
 
1.67260         MSG_UDP              iDivisorNMEA    $TIROT,-0.39,A*2C
 
1.70403         MSG_UDP              iDivisorNMEA    $MXPGN,01F803,281C,0000000000003CE7*66
 
1.70492         MSG_UDP              iDivisorNMEA    $MXPGN,01F804,281C,000000D169C13CE7*69
 
1.71515         MSG_UDP              iDivisorNMEA    $AGRSA,-0.90,A,,V*6B
 
1.71521         ANGULO_LEME          iDivisorNMEA    -0.90000     
1.74500         MSG_UDP              iDivisorNMEA    $MXPGN,00FF00,280B,0002000005049913*19
 
1.74695         MSG_UDP              iDivisorNMEA    $MXPGN,01FF2C,7808,FFFFFFFF9F411700*6B
 
1.75614         MSG_UDP              iDivisorNMEA    $MXPGN,01FF2C,7808,FFFF7FFFFFFF7F01*16
 
1.76632         MSG_UDP              iDivisorNMEA    $MXPGN,01FF2C,7808,FF7FFFFFFFFFFF02*64
 
1.77652         MSG_UDP              iDivisorNMEA    $MXPGN,01FF2C,7808,FFFFFFFF7FFFFF03*65
 
1.78671         MSG_UDP              iDivisorNMEA    $HCHDG,283.3,0.0,E,23.3,W*68
 
1.79689         MSG_UDP              iDivisorNMEA    $GPHDT,260.04,T*05
 
1.80706         MSG_UDP              iDivisorNMEA    $TIROT,-0.39,A*2C
 
1.81721         MSG_UDP              iDivisorNMEA    $MXPGN,00FF3D,6808,7FFFFF0DFFFF9F41*6E
 
1.82739         MSG_UDP              iDivisorNMEA    $MXPGN,00FF3D,6808,0000FF0BFFFF9F41*19
 
1.83754         MSG_UDP              iDivisorNMEA    $MXPGN,01F803,281C,00000000000050E8*1C
 
1.84767         MSG_UDP              iDivisorNMEA    $MXPGN,01F804,281C,000000D169C150E8*13
 
1.85781         MSG_UDP              iDivisorNMEA    $AGRSA,-0.90,A,,V*6B
 
1.85784         ANGULO_LEME          iDivisorNMEA    -0.90000     
1.86795         MSG_UDP              iDivisorNMEA    $MXPGN,00FF3D,6808,FFFFFF0CFFFF9F41*18
 
1.87808         MSG_UDP              iDivisorNMEA    $MXPGN,00FF3D,6808,FFFFFF03FFFF9F41*68
 
1.88824         MSG_UDP              iDivisorNMEA    $MXPGN,00FF3C,3808,8000F8FE00009F41*1C
 
1.89838         MSG_UDP              iDivisorNMEA    $HCHDG,283.4,0.0,E,23.3,W*6F
 
1.90853         MSG_UDP              iDivisorNMEA    $GPHDT,260.05,T*04
 
1.91867         MSG_UDP              iDivisorNMEA    $TIROT,-0.49,A*2B
 
1.92881         MSG_UDP              iDivisorNMEA    $MXPGN,00FF3D,6808,FFFFFF02FFFF9F41*69
 
1.93898         MSG_UDP              iDivisorNMEA    $MXPGN,01F803,281C,00000000000064E9*1A
 
1.94918         MSG_UDP              iDivisorNMEA    $MXPGN,01F804,281C,0000006C20C164E9*18
 
1.95965         MSG_UDP              iDivisorNMEA    $AGRSA,-0.96,A,,V*6D
 
1.95972         ANGULO_LEME          iDivisorNMEA    -0.96000     
1.96991         MSG_UDP              iDivisorNMEA    $MXPGN,00FF16,7808,FF0000002B0A9F41*1B
 
1.98013         MSG_UDP              iDivisorNMEA    $HCHDG,283.4,0.0,E,23.3,W*6F
 
1.99029         MSG_UDP              iDivisorNMEA    $GPHDT,260.05,T*04
 
2.00045         MSG_UDP              iDivisorNMEA    $TIROT,-0.49,A*2B
 
2.01057         MSG_UDP              iDivisorNMEA    $MXPGN,00FF19,7808,0000000202009F41*15
 
2.02071         MSG_UDP              iDivisorNMEA    $MXPGN,00FF00,280B,0002000005049913*19
 
2.03080         MSG_UDP              iDivisorNMEA    $MXPGN,00FF19,7808,0080000A0A009F41*1D
 
2.04102         MSG_UDP              iDivisorNMEA    $MXPGN,01F803,281C,00000000000078EA*6F
 
2.05121         MSG_UDP              iDivisorNMEA    $MXPGN,01F804,281C,0000006C20C178EA*6D
 
2.06136         MSG_UDP              iDivisorNMEA    $GPGGA,,2254.75769,S,04309.53849,W,1,,,,M,,M,,*55
 
2.07155         MSG_UDP              iDivisorNMEA    $GPGLL,2254.75769,S,04309.53849,W,,A,A*4E
 
2.08178         MSG_UDP              iDivisorNMEA    $GPVTG,331.90,T,,M,0.90,N,1.66,K,A*3D
 
2.09210         MSG_UDP              iDivisorNMEA    $AGRSA,-0.96,A,,V*6D
 
2.09217         ANGULO_LEME          iDivisorNMEA    -0.96000     
2.10240         MSG_UDP              iDivisorNMEA    $MXPGN,01FF1A,680B,FF022B849F4105E0*19
 
2.11264         MSG_UDP              iDivisorNMEA    $MXPGN,01FF1A,782B,FF010B049F410500*66
 
2.12287         MSG_UDP              iDivisorNMEA    $MXPGN,00FF8C,6808,FFF10695C9409F41*64
 
2.13309         MSG_UDP              iDivisorNMEA    $HCHDG,283.3,0.0,E,23.3,W*68
 
2.14326         MSG_UDP              iDivisorNMEA    $GPHDT,260.04,T*05
 
2.15356         MSG_UDP              iDivisorNMEA    $TIROT,-0.59,A*2A
 
2.16379         MSG_UDP              iDivisorNMEA    $MXPGN,01F803,281C,0000000000008CEB*18
 
2.17404         MSG_UDP              iDivisorNMEA    $MXPGN,01F804,281C,0000006C20C18CEB*1A
 
2.40983         MSG_UDP              iDivisorNMEA    $MXPGN,01F803,281C,000000000000B4ED*13
 
2.41088         MSG_UDP              iDivisorNMEA    $MXPGN,01F804,281C,000000575AC1B4ED*10
 
2.42017         MSG_UDP              iDivisorNMEA    $AGRSA,-0.90,A,,V*6B
 
2.42025         ANGULO_LEME          iDivisorNMEA    -0.90000     
2.46178         MSG_UDP              iDivisorNMEA    $HCHDG,283.3,0.0,E,23.3,W*68
 
2.46203         MSG_UDP              iDivisorNMEA    $GPHDT,260.04,T*05
 
2.47211         MSG_UDP              iDivisorNMEA    $TIROT,-0.69,A*29
 
2.49354         MSG_UDP              iDivisorNMEA    $GPGSA,A,3,08,10,16,18,21,23,24,,,,,,2.28,1.79,1.79*09
 
2.49471         MSG_UDP              iDivisorNMEA    $GPGSV,2,1,07,08,37,233,44,10,41,157,00,16,12,311,38,18,20,074,41*75
 
2.50394         MSG_UDP              iDivisorNMEA    $GPGSV,2,2,07,21,07,225,00,23,17,129,00,24,00,128,00*4F
 
2.51407         MSG_UDP              iDivisorNMEA    $MXPGN,01FA06,681C,8700F800C8EE0F20*62
 
2.52420         MSG_UDP              iDivisorNMEA    $MXPGN,01FA06,681C,008F00F3ECB60021*66
 
2.53435         MSG_UDP              iDivisorNMEA    $MXPGN,01FA06,681C,FFFFFFFFFF017022*1A
 
2.54452         MSG_UDP              iDivisorNMEA    $MXPGN,00FF00,280B,0002000005049913*19
 
2.55472         MSG_UDP              iDivisorNMEA    $MXPGN,01F803,281C,00000000000000EE*64
 
2.56489         MSG_UDP              iDivisorNMEA    $MXPGN,01F804,281C,000000C989C100EE*6A
 
2.57507         MSG_UDP              iDivisorNMEA    $GPGGA,132837.000,2254.75339,S,04309.53839,W,1,07,1.79,0.58,M,-5.00,M,,*72
 
2.58530         MSG_UDP              iDivisorNMEA    $GPGLL,2254.75339,S,04309.53839,W,132837.000,A,A*5A
 
2.59554         MSG_UDP              iDivisorNMEA    $GPRMC,132837.000,A,2254.75339,S,04309.53839,W,0.01,128.12,070323,23.39,W,A*13
 
2.60576         MSG_UDP              iDivisorNMEA    $GPVTG,128.12,T,,M,0.01,N,0.01,K,A*35
 
2.61601         MSG_UDP              iDivisorNMEA    $AGRSA,-0.96,A,,V*6D
 
2.61608         ANGULO_LEME          iDivisorNMEA    -0.96000     
2.62629         MSG_UDP              iDivisorNMEA    $HCHDG,283.3,0.0,E,23.3,W*68
 
2.63659         MSG_UDP              iDivisorNMEA    $GPHDT,260.04,T*05
 
2.64684         MSG_UDP              iDivisorNMEA    $TIROT,-0.69,A*29
 
2.65713         MSG_UDP              iDivisorNMEA    $AGRSA,-0.96,A,,V*6D
 
2.65720         ANGULO_LEME          iDivisorNMEA    -0.96000     
2.66742         MSG_UDP              iDivisorNMEA    $MXPGN,01F803,281C,00000000000014EF*62
 
2.67768         MSG_UDP              iDivisorNMEA    $MXPGN,01F804,281C,000000C989C114EF*6C
 
2.68801         MSG_UDP              iDivisorNMEA    $MXPGN,00FF28,3808,FF08FFFDFC059F41*19
 
2.69824         MSG_UDP              iDivisorNMEA    $HCHDG,283.3,0.0,E,23.3,W*68
 
2.70853         MSG_UDP              iDivisorNMEA    $GPHDT,260.04,T*05
 
2.71881         MSG_UDP              iDivisorNMEA    $TIROT,-0.69,A*29
 
2.72909         MSG_UDP              iDivisorNMEA    $MXPGN,01F803,281C,0000000000003CF1*63
 
2.73933         MSG_UDP              iDivisorNMEA    $MXPGN,01F804,281C,000000B57AC13CF1*17
 
2.74969         MSG_UDP              iDivisorNMEA    $AGRSA,-0.96,A,,V*6D
 
2.74980         ANGULO_LEME          iDivisorNMEA    -0.96000     
2.76004         MSG_UDP              iDivisorNMEA    $MXPGN,01FF2C,7808,FFFFFFFF9F411720*69
 
2.77028         MSG_UDP              iDivisorNMEA    $MXPGN,01FF2C,7808,FFFF7FFFFFFF7F21*14
 
2.78052         MSG_UDP              iDivisorNMEA    $MXPGN,01FF2C,7808,FF7FFFFFFFFFFF22*66
 
2.79078         MSG_UDP              iDivisorNMEA    $MXPGN,01FF2C,7808,FFFFFFFF7FFFFF23*67
 
2.80098         MSG_UDP              iDivisorNMEA    $HCHDG,283.4,0.0,E,23.3,W*6F
 
2.81124         MSG_UDP              iDivisorNMEA    $GPHDT,260.05,T*04
 
2.82149         MSG_UDP              iDivisorNMEA    $TIROT,-0.89,A*27
 
2.83171         MSG_UDP              iDivisorNMEA    $MXPGN,00FF3D,6808,7FFFFF0DFFFF9F41*6E
 
2.84194         MSG_UDP              iDivisorNMEA    $MXPGN,00FF00,280B,0002000005049913*19
 
2.85217         MSG_UDP              iDivisorNMEA    $AGRSA,-0.96,A,,V*6D
 
2.85224         ANGULO_LEME          iDivisorNMEA    -0.96000     
2.86241         MSG_UDP              iDivisorNMEA    $MXPGN,01F803,281C,00000000000050F2*15
 
2.87270         MSG_UDP              iDivisorNMEA    $MXPGN,01F804,281C,000000B57AC150F2*61
 
2.88290         MSG_UDP              iDivisorNMEA    $MXPGN,00FF3C,3808,8000F8FE00009F41*1C
 
2.89308         MSG_UDP              iDivisorNMEA    $HCHDG,283.4,0.0,E,23.3,W*6F
 
2.90329         MSG_UDP              iDivisorNMEA    $GPHDT,260.05,T*04
 
2.91355         MSG_UDP              iDivisorNMEA    $TIROT,-0.49,A*2B
 
2.92382         MSG_UDP              iDivisorNMEA    $MXPGN,01F803,281C,00000000000064F3*13
 
2.93412         MSG_UDP              iDivisorNMEA    $MXPGN,01F804,281C,000000320CC164F3*14
 
2.94436         MSG_UDP              iDivisorNMEA    $AGRSA,-0.90,A,,V*6B
 
2.94445         ANGULO_LEME          iDivisorNMEA    -0.90000     
2.95462         MSG_UDP              iDivisorNMEA    $MXPGN,00FF16,7808,FF0000002B0A9F41*1B
 
2.96484         MSG_UDP              iDivisorNMEA    $HCHDG,283.4,0.0,E,23.3,W*6F
 
2.97543         MSG_UDP              iDivisorNMEA    $GPHDT,260.05,T*04
 
2.98569         MSG_UDP              iDivisorNMEA    $TIROT,-0.49,A*2B
 
2.99594         MSG_UDP              iDivisorNMEA    $MXPGN,00FF19,7808,0000000202009F41*15
 
3.00618         MSG_UDP              iDivisorNMEA    $MXPGN,00FF19,7808,0080000A0A009F41*1D
 
3.01647         MSG_UDP              iDivisorNMEA    $MXPGN,01FF1A,680B,FF022B849F410500*6C
 
3.02674         MSG_UDP              iDivisorNMEA    $GPGGA,,2254.75769,S,04309.53849,W,1,,,,M,,M,,*55
 
3.03700         MSG_UDP              iDivisorNMEA    $GPGLL,2254.75769,S,04309.53849,W,,A,A*4E
 
3.04728         MSG_UDP              iDivisorNMEA    $GPVTG,331.90,T,,M,0.90,N,1.66,K,A*3D
 
3.05756         MSG_UDP              iDivisorNMEA    $AGRSA,-0.90,A,,V*6B
 
3.05764         ANGULO_LEME          iDivisorNMEA    -0.90000     
3.06785         MSG_UDP              iDivisorNMEA    $MXPGN,01F803,281C,00000000000078F4*19
 
3.30214         MSG_UDP              iDivisorNMEA    $MXPGN,00FF00,280B,0002000005049913*19
 
3.30350         MSG_UDP              iDivisorNMEA    $MXPGN,01F803,281C,000000000000B4F7*63
 
3.31272         MSG_UDP              iDivisorNMEA    $MXPGN,01F804,281C,0000005D9BC1B4F7*1C
 
3.32294         MSG_UDP              iDivisorNMEA    $AGRSA,-0.90,A,,V*6B
 
3.32299         ANGULO_LEME          iDivisorNMEA    -0.90000     
3.33315         MSG_UDP              iDivisorNMEA    $SDDPT,1.81,0.00,*73
 
3.34350         MSG_UDP              iDivisorNMEA    !AIVDM,1,1,,B,1:U8JFPP1bLrRrejqV9S4Ow<28F=,0*01
 
3.36124         MSG_UDP              iDivisorNMEA    $HCHDG,283.4,0.0,E,23.3,W*6F
 
3.36451         MSG_UDP              iDivisorNMEA    $GPHDT,260.06,T*07
 
3.37478         MSG_UDP              iDivisorNMEA    $TIROT,-0.69,A*29
 
3.38521         MSG_UDP              iDivisorNMEA    !AIVDM,1,1,,B,3:UPuT0P1OLrM@ejq<I8GFap2Q1@,0*14
 
3.40329         MSG_UDP              iDivisorNMEA    $MXPGN,01F803,281C,000000000000C8F8*61
 
3.40557         MSG_UDP              iDivisorNMEA    $MXPGN,01F804,281C,0000005D9BC1C8F8*1E
 
3.41584         MSG_UDP              iDivisorNMEA    $AGRSA,-0.90,A,,V*6B
 
3.41590         ANGULO_LEME          iDivisorNMEA    -0.90000     
3.46114         MSG_UDP              iDivisorNMEA    $HCHDG,283.4,0.0,E,23.3,W*6F
 
3.46146         MSG_UDP              iDivisorNMEA    $GPHDT,260.07,T*06
 
3.47175         MSG_UDP              iDivisorNMEA    $TIROT,-0.59,A*2A
 
3.49329         MSG_UDP              iDivisorNMEA    $GPGSA,A,3,08,10,16,18,21,23,24,,,,,,2.28,1.79,1.79*09
 
3.49519         MSG_UDP              iDivisorNMEA    $GPGSV,2,1,07,08,37,233,44,10,41,157,00,16,12,311,38,18,20,074,42*76
 
3.50450         MSG_UDP              iDivisorNMEA    $GPGSV,2,2,07,21,07,225,00,23,17,129,00,24,00,128,00*4F
 
3.51481         MSG_UDP              iDivisorNMEA    $MXPGN,01FA06,681C,8700F800C8F80F40*1A
 
3.52505         MSG_UDP              iDivisorNMEA    $MXPGN,01FA06,681C,008F00F3ECB60041*60
 
3.53538         MSG_UDP              iDivisorNMEA    $MXPGN,01FA06,681C,FFFFFFFFFF017042*1C
 
3.54569         MSG_UDP              iDivisorNMEA    $MXPGN,01F803,281C,00000000000000F8*1A
 
3.55594         MSG_UDP              iDivisorNMEA    $MXPGN,01F804,281C,000000C297C100F8*10
 
3.56626         MSG_UDP              iDivisorNMEA    $GPGGA,132838.000,2254.75339,S,04309.53839,W,1,07,1.79,0.58,M,-5.00,M,,*7D
 
3.57652         MSG_UDP              iDivisorNMEA    $GPGLL,2254.75339,S,04309.53839,W,132838.000,A,A*55
 
3.58672         MSG_UDP              iDivisorNMEA    $GPRMC,132838.000,A,2254.75339,S,04309.53839,W,0.01,137.29,070323,23.39,W,A*1A
 
3.59694         MSG_UDP              iDivisorNMEA    $GPVTG,137.29,T,,M,0.01,N,0.01,K,A*33
 
3.60714         MSG_UDP              iDivisorNMEA    $AGRSA,-0.90,A,,V*6B
 
3.60725         ANGULO_LEME          iDivisorNMEA    -0.90000     
3.61747         MSG_UDP              iDivisorNMEA    $MXPGN,00FF00,280B,0002000005049913*19
 
3.62775         MSG_UDP              iDivisorNMEA    $HCHDG,283.4,0.0,E,23.3,W*6F
 
3.63807         MSG_UDP              iDivisorNMEA    $GPHDT,260.07,T*06
 
3.64836         MSG_UDP              iDivisorNMEA    $TIROT,-0.59,A*2A
 
3.65865         MSG_UDP              iDivisorNMEA    !AIVDM,1,1,,A,3:U8l=PP0rLrLn9jr2nPThA80PtP,0*61
 
3.66891         MSG_UDP              iDivisorNMEA    $MXPGN,01F803,281C,00000000000014F9*1E
 
3.67919         MSG_UDP              iDivisorNMEA    $MXPGN,01F804,281C,000000C297C114F9*14
 
3.68944         MSG_UDP              iDivisorNMEA    $AGRSA,-0.90,A,,V*6B
 
3.68949         ANGULO_LEME          iDivisorNMEA    -0.90000     
3.69968         MSG_UDP              iDivisorNMEA    $MXPGN,00FF28,3808,FF08FFFDFC059F41*19
 
3.70990         MSG_UDP              iDivisorNMEA    !AIVDM,1,1,,A,1:U8Qv0tAhtrPOQjpc0MWJjt0HG0,0*4A
 
3.72016         MSG_UDP              iDivisorNMEA    $HCHDG,283.4,0.0,E,23.3,W*6F
 
3.73045         MSG_UDP              iDivisorNMEA    $GPHDT,260.08,T*09
 
3.74071         MSG_UDP              iDivisorNMEA    $TIROT,-0.79,A*28
 
3.75094         MSG_UDP              iDivisorNMEA    $MXPGN,01F803,281C,0000000000003C00*14
 
3.76116         MSG_UDP              iDivisorNMEA    $MXPGN,01F804,281C,0000005225C13C00*61
 
3.77143         MSG_UDP              iDivisorNMEA    $AGRSA,-0.96,A,,V*6D
 
3.77148         ANGULO_LEME          iDivisorNMEA    -0.96000     
3.78168         MSG_UDP              iDivisorNMEA    $MXPGN,01FF2C,7808,FFFFFFFF9F411740*6F
 
3.79197         MSG_UDP              iDivisorNMEA    $MXPGN,01FF2C,7808,FFFF7FFFFFFF7F41*12
 
3.80219         MSG_UDP              iDivisorNMEA    $MXPGN,01FF2C,7808,FF7FFFFFFFFFFF42*60
 
3.81244         MSG_UDP              iDivisorNMEA    $MXPGN,01FF2C,7808,FFFFFFFF7FFFFF43*61
 
3.82276         MSG_UDP              iDivisorNMEA    $HCHDG,283.4,0.0,E,23.3,W*6F
 
3.83307         MSG_UDP              iDivisorNMEA    $GPHDT,260.08,T*09
 
3.84333         MSG_UDP              iDivisorNMEA    $TIROT,-0.79,A*28
 
3.85363         MSG_UDP              iDivisorNMEA    $MXPGN,00FF3D,6808,7FFFFF0DFFFF9F41*6E
 
3.86408         MSG_UDP              iDivisorNMEA    $MXPGN,00FF00,280B,0002000005049913*19
 
3.87432         MSG_UDP              iDivisorNMEA    $MXPGN,01F803,281C,0000000000005001*60
 
3.88451         MSG_UDP              iDivisorNMEA    $MXPGN,01F804,281C,0000005225C15001*15
 
3.89474         MSG_UDP              iDivisorNMEA    $AGRSA,-0.96,A,,V*6D
 
3.89484         ANGULO_LEME          iDivisorNMEA    -0.96000     
3.90500         MSG_UDP              iDivisorNMEA    $MXPGN,00FF3C,3808,8000F8FE00009F41*1C
 
3.91529         MSG_UDP              iDivisorNMEA    $HCHDG,283.4,0.0,E,23.3,W*6F
 
3.92555         MSG_UDP              iDivisorNMEA    $GPHDT,260.10,T*00
 
3.93579         MSG_UDP              iDivisorNMEA    $TIROT,-0.69,A*29
 
3.94604         MSG_UDP              iDivisorNMEA    $MXPGN,01F803,281C,0000000000006402*64
 
3.95629         MSG_UDP              iDivisorNMEA    $MXPGN,01F804,281C,0000004DD8C16402*1D
 
3.96651         MSG_UDP              iDivisorNMEA    $AGRSA,-0.96,A,,V*6D
 
3.96657         ANGULO_LEME          iDivisorNMEA    -0.96000     
4.20292         MSG_UDP              iDivisorNMEA    $MXPGN,01F803,281C,000000000000A005*10
 
4.20374         MSG_UDP              iDivisorNMEA    $MXPGN,01F804,281C,000000D95EC1A005*68
 
4.21399         MSG_UDP              iDivisorNMEA    $AGRSA,-0.90,A,,V*6B
 
4.21408         ANGULO_LEME          iDivisorNMEA    -0.90000     
4.26086         MSG_UDP              iDivisorNMEA    $HCHDG,283.4,0.0,E,23.3,W*6F
 
4.26097         MSG_UDP              iDivisorNMEA    $GPHDT,260.10,T*00
 
4.27123         MSG_UDP              iDivisorNMEA    $TIROT,-0.89,A*27
 
4.30173         MSG_UDP              iDivisorNMEA    $MXPGN,00FF00,280B,0002000005049913*19
 
4.30290         MSG_UDP              iDivisorNMEA    $MXPGN,01F803,281C,000000000000B406*14
 
4.31218         MSG_UDP              iDivisorNMEA    $MXPGN,01F804,281C,000000D95EC1B406*6C
 
4.32250         MSG_UDP              iDivisorNMEA    $AGRSA,-0.96,A,,V*6D
 
4.32258         ANGULO_LEME          iDivisorNMEA    -0.96000     
4.33279         MSG_UDP              iDivisorNMEA    $SDDPT,1.80,0.00,*72
 
4.36080         MSG_UDP              iDivisorNMEA    $HCHDG,283.4,0.0,E,23.3,W*6F
 
4.36091         MSG_UDP              iDivisorNMEA    $GPHDT,260.10,T*00
 
4.37109         MSG_UDP              iDivisorNMEA    $TIROT,-0.89,A*27
 
4.40268         MSG_UDP              iDivisorNMEA    $MXPGN,01F803,281C,000000000000C807*18
 
4.40364         MSG_UDP              iDivisorNMEA    $MXPGN,01F804,281C,000000D95EC1C807*60
 
4.41383         MSG_UDP              iDivisorNMEA    $AGRSA,-0.96,A,,V*6D
 
4.41388         ANGULO_LEME          iDivisorNMEA    -0.96000     
4.46055         MSG_UDP              iDivisorNMEA    $HCHDG,283.4,0.0,E,23.3,W*6F
 
4.46101         MSG_UDP              iDivisorNMEA    $GPHDT,260.10,T*00
 
4.47120         MSG_UDP              iDivisorNMEA    $TIROT,-0.69,A*29
 
4.49269         MSG_UDP              iDivisorNMEA    $GPGSA,A,3,08,10,16,18,21,23,24,,,,,,2.28,1.79,1.79*09
 
4.49462         MSG_UDP              iDivisorNMEA    $GPGSV,2,1,07,08,37,233,44,10,41,157,00,16,12,311,38,18,20,074,41*75
 
4.50378         MSG_UDP              iDivisorNMEA    $GPGSV,2,2,07,21,07,225,00,23,17,129,00,24,00,128,00*4F
 
4.51396         MSG_UDP              iDivisorNMEA    $MXPGN,01FA06,681C,8700F800C8070F60*61
 
4.52415         MSG_UDP              iDivisorNMEA    $MXPGN,01FA06,681C,008F00F3ECB60061*62
 
4.53431         MSG_UDP              iDivisorNMEA    $MXPGN,01FA06,681C,FFFFFFFFFF017062*1E
 
4.54446         MSG_UDP              iDivisorNMEA    $MXPGN,01F803,281C,0000000000000007*63
 
4.55463         MSG_UDP              iDivisorNMEA    $MXPGN,01F804,281C,000000151FC10007*65
 
4.56480         MSG_UDP              iDivisorNMEA    $GPGGA,132839.000,2254.75339,S,04309.53839,W,1,07,1.79,0.58,M,-5.00,M,,*7C
 
4.57500         MSG_UDP              iDivisorNMEA    $GPGLL,2254.75339,S,04309.53839,W,132839.000,A,A*54
 
4.58521         MSG_UDP              iDivisorNMEA    $GPRMC,132839.000,A,2254.75339,S,04309.53839,W,0.01,318.82,070323,23.39,W,A*15
 
4.59538         MSG_UDP              iDivisorNMEA    $GPVTG,318.82,T,,M,0.01,N,0.01,K,A*3D
 
4.60558         MSG_UDP              iDivisorNMEA    $AGRSA,-0.96,A,,V*6D
 
4.60561         ANGULO_LEME          iDivisorNMEA    -0.96000     
4.61575         MSG_UDP              iDivisorNMEA    $MXPGN,00FF00,280B,0002000005049913*19
 
4.62592         MSG_UDP              iDivisorNMEA    $HCHDG,283.4,0.0,E,23.3,W*6F
 
4.63605         MSG_UDP              iDivisorNMEA    $GPHDT,260.10,T*00
 
4.64615         MSG_UDP              iDivisorNMEA    $TIROT,-0.69,A*29
 
4.65625         MSG_UDP              iDivisorNMEA    $MXPGN,01F803,281C,0000000000001408*69
 
4.66644         MSG_UDP              iDivisorNMEA    $MXPGN,01F804,281C,000000151FC11408*6F
 
4.67657         MSG_UDP              iDivisorNMEA    $AGRSA,-0.96,A,,V*6D
 
4.67662         ANGULO_LEME          iDivisorNMEA    -0.96000     
4.68673         MSG_UDP              iDivisorNMEA    $MXPGN,00FF28,3808,FF08FFFDFC059F41*19
 
4.69689         MSG_UDP              iDivisorNMEA    $HCHDG,283.4,0.0,E,23.3,W*6F
 
4.70705         MSG_UDP              iDivisorNMEA    $GPHDT,260.09,T*08
 
4.71721         MSG_UDP              iDivisorNMEA    $TIROT,-0.69,A*29
 
4.72743         MSG_UDP              iDivisorNMEA    $MXPGN,01F803,281C,0000000000003C0A*65
 
4.73762         MSG_UDP              iDivisorNMEA    $MXPGN,01F804,281C,FFFF9DA2E5C13C0A*6E
 
4.74781         MSG_UDP              iDivisorNMEA    $AGRSA,-0.90,A,,V*6B
 
4.74784         ANGULO_LEME          iDivisorNMEA    -0.90000     
4.75800         MSG_UDP              iDivisorNMEA    $MXPGN,01FF2C,7808,FFFFFFFF9F411760*6D
 
4.76821         MSG_UDP              iDivisorNMEA    $MXPGN,01FF2C,7808,FFFF7FFFFFFF7F61*10
 
4.77838         MSG_UDP              iDivisorNMEA    $MXPGN,01FF2C,7808,FF7FFFFFFFFFFF62*62
 
4.78863         MSG_UDP              iDivisorNMEA    $MXPGN,01FF2C,7808,FFFFFFFF7FFFFF63*63
 
4.79877         MSG_UDP              iDivisorNMEA    !AIVDM,1,1,,A,1539a0000vtrOwmjrr6433A<2Ua4,0*4B
 
4.80895         MSG_UDP              iDivisorNMEA    $HCHDG,283.4,0.0,E,23.3,W*6F
 
4.81915         MSG_UDP              iDivisorNMEA    $GPHDT,260.09,T*08
 
4.82933         MSG_UDP              iDivisorNMEA    $TIROT,-0.69,A*29
 
4.83948         MSG_UDP              iDivisorNMEA    $MXPGN,00FF3D,6808,7FFFFF0DFFFF9F41*6E
 
4.84966         MSG_UDP              iDivisorNMEA    $MXPGN,01F803,281C,000000000000500B*13
 
4.85984         MSG_UDP              iDivisorNMEA    $MXPGN,00FF00,280B,0002000005049913*19
 
4.87000         MSG_UDP              iDivisorNMEA    $MXPGN,01F804,281C,FFFF9DA2E5C1500B*18
 
4.88035         MSG_UDP              iDivisorNMEA    $AGRSA,-0.90,A,,V*6B
 
4.88036         ANGULO_LEME          iDivisorNMEA    -0.90000     
4.89051         MSG_UDP              iDivisorNMEA    $MXPGN,00FF3C,3808,8000F8FE00009F41*1C
 
4.90083         MSG_UDP              iDivisorNMEA    $HCHDG,283.4,0.0,E,23.3,W*6F
 
4.91096         MSG_UDP              iDivisorNMEA    $GPHDT,260.08,T*09
 
4.92125         MSG_UDP              iDivisorNMEA    $TIROT,-0.49,A*2B
 
5.08436         MSG_UDP              iDivisorNMEA    !AIVDO,1,1,,,B:UOH3P02W>VtHLf>Wc?OwkUoP06,0*0D
 
5.10352         MSG_UDP              iDivisorNMEA    $MXPGN,01F803,281C,0000000000008C0E*6A
 
5.10419         MSG_UDP              iDivisorNMEA    $MXPGN,01F804,281C,FFFF9D9283C18C0E*62
 
5.11445         MSG_UDP              iDivisorNMEA    $AGRSA,-0.96,A,,V*6D
 
5.11454         ANGULO_LEME          iDivisorNMEA    -0.96000     
5.12477         MSG_UDP              iDivisorNMEA    $GPZDA,132839.610,07,03,2023,,*54
 
5.16126         MSG_UDP              iDivisorNMEA    $GPGGA,132839.000,2254.75223,S,04309.53700,W,1,12,0.80,9.30,M,-5.60,M,,*71
 
5.16324         MSG_UDP              iDivisorNMEA    $GPGLL,2254.75223,S,04309.53700,W,132839.000,A,A*5B
 
5.17239         MSG_UDP              iDivisorNMEA    $GPRMC,132839.000,A,2254.75223,S,04309.53700,W,0.09,0.00,070323,23.30,W,A*1B
 
5.18258         MSG_UDP              iDivisorNMEA    $GPVTG,0.00,T,,M,0.09,N,0.16,K,A*33
 
5.19279         MSG_UDP              iDivisorNMEA    $HCHDG,283.4,0.0,E,23.3,W*6F
 
5.20296         MSG_UDP              iDivisorNMEA    $GPHDT,260.09,T*08
 
5.21315         MSG_UDP              iDivisorNMEA    $TIROT,-0.39,A*2C
 
5.22331         MSG_UDP              iDivisorNMEA    $GPGSA,A,3,10,16,18,21,27,28,31,32,66,65,86,87,1.30,0.80,1.10*0A
 
5.23352         MSG_UDP              iDivisorNMEA    $GPGSV,3,1,12,10,41,157,28,16,13,312,43,18,20,074,32,21,07,225,22*7F
 
5.24368         MSG_UDP              iDivisorNMEA    $GPGSV,3,2,12,27,64,276,43,28,16,025,41,31,11,016,39,32,78,080,45*7F
 
5.25387         MSG_UDP              iDivisorNMEA    $GPGSV,3,3,12,66,12,316,38,65,61,276,32,86,33,054,42,87,65,154,44*75
 
5.26407         MSG_UDP              iDivisorNMEA    $MXPGN,01FF0D,780B,FF030000989005E0*13
 
5.27426         MSG_UDP              iDivisorNMEA    $MXPGN,01F803,281C,0000000000008C0E*6A
 
5.28446         MSG_UDP              iDivisorNMEA    $MXPGN,01F804,281C,FFFF9D1647C18C0E*66
 
5.29466         MSG_UDP              iDivisorNMEA    $AGRSA,-0.96,A,,V*6D
 
5.29468         ANGULO_LEME          iDivisorNMEA    -0.96000     
5.30483         MSG_UDP              iDivisorNMEA    $HCHDG,283.4,0.0,E,23.3,W*6F
 
5.31505         MSG_UDP              iDivisorNMEA    $GPHDT,260.09,T*08
 
5.32524         MSG_UDP              iDivisorNMEA    $TIROT,-0.39,A*2C
 
5.33536         MSG_UDP              iDivisorNMEA    !AIVDM,1,1,,A,1:U7?1@P2=trOeEjq5gKSgw>28GF,0*43
 
5.34556         MSG_UDP              iDivisorNMEA    $MXPGN,00FF00,280B,0002000005049913*19
 
5.35573         MSG_UDP              iDivisorNMEA    $MXPGN,01F803,281C,000000000000A00F*63
 
5.36588         MSG_UDP              iDivisorNMEA    $MXPGN,01F804,281C,FFFF9D1647C1A00F*6F
 
5.37606         MSG_UDP              iDivisorNMEA    $AGRSA,-0.90,A,,V*6B
 
5.37611         ANGULO_LEME          iDivisorNMEA    -0.90000     
5.38626         MSG_UDP              iDivisorNMEA    $SDDPT,1.81,0.00,*73
 
5.39645         MSG_UDP              iDivisorNMEA    $MXPGN,01FF1A,782B,FFFAFF859F410580*13
 
5.40664         MSG_UDP              iDivisorNMEA    $HCHDG,283.4,0.0,E,23.3,W*6F
 
5.41681         MSG_UDP              iDivisorNMEA    $GPHDT,260.09,T*08
 
5.42698         MSG_UDP              iDivisorNMEA    $TIROT,-0.49,A*2B
 
5.43720         MSG_UDP              iDivisorNMEA    $MXPGN,01F803,281C,000000000000C811*1F
 
5.44734         MSG_UDP              iDivisorNMEA    $MXPGN,01F804,281C,FFFF9D1647C1C811*13
 
5.45752         MSG_UDP              iDivisorNMEA    $AGRSA,-0.90,A,,V*6B
 
5.45756         ANGULO_LEME          iDivisorNMEA    -0.90000     
5.46770         MSG_UDP              iDivisorNMEA    $HCHDG,283.4,0.0,E,23.3,W*6F
 
5.47784         MSG_UDP              iDivisorNMEA    $GPHDT,260.10,T*00
 
5.48801         MSG_UDP              iDivisorNMEA    $TIROT,-0.59,A*2A
 
5.49818         MSG_UDP              iDivisorNMEA    $GPGSA,A,3,08,10,16,18,21,23,24,,,,,,2.28,1.79,1.79*09
 
5.50838         MSG_UDP              iDivisorNMEA    $GPGSV,2,1,07,08,37,233,44,10,41,157,00,16,12,311,37,18,20,074,41*7A
 
5.51855         MSG_UDP              iDivisorNMEA    $GPGSV,2,2,07,21,07,225,00,23,17,129,00,24,00,128,00*4F
 
5.52868         MSG_UDP              iDivisorNMEA    $MXPGN,01FA06,681C,8700F800C8110F80*68
 
5.53882         MSG_UDP              iDivisorNMEA    $MXPGN,01FA06,681C,008F00F3ECB90081*63
 
5.54897         MSG_UDP              iDivisorNMEA    $MXPGN,01FA06,681C,FFFFFFFFFF017082*10
 
5.55911         MSG_UDP              iDivisorNMEA    $MXPGN,01FF06,380B,090001FF99130F80*6A
 
5.56926         MSG_UDP              iDivisorNMEA    $MXPGN,01FF06,380B,00001C12FC000081*63
 
5.57940         MSG_UDP              iDivisorNMEA    $MXPGN,01F803,281C,0000000000000011*64
 
5.58953         MSG_UDP              iDivisorNMEA    $MXPGN,01F804,281C,0000009751C10011*1B
 
5.59989         MSG_UDP              iDivisorNMEA    $MXPGN,01FF06,380B,FFFFFFFFFFDE6F82*65
 
5.61008         MSG_UDP              iDivisorNMEA    $GPGGA,132840.000,2254.75339,S,04309.53839,W,1,07,1.79,0.45,M,-5.00,M,,*7E
 
5.62025         MSG_UDP              iDivisorNMEA    $GPGLL,2254.75339,S,04309.53839,W,132840.000,A,A*5A
 
5.63041         MSG_UDP              iDivisorNMEA    $GPRMC,132840.000,A,2254.75339,S,04309.53839,W,0.01,32.67,070323,23.39,W,A*2B
 
5.64057         MSG_UDP              iDivisorNMEA    $GPVTG,32.67,T,,M,0.01,N,0.01,K,A*0D
 
5.65075         MSG_UDP              iDivisorNMEA    $AGRSA,-0.90,A,,V*6B
 
5.65077         ANGULO_LEME          iDivisorNMEA    -0.90000     
5.66095         MSG_UDP              iDivisorNMEA    $MXPGN,00FF00,280B,0002000005049913*19
 
5.67111         MSG_UDP              iDivisorNMEA    $HCHDG,283.4,0.0,E,23.3,W*6F
 
5.68128         MSG_UDP              iDivisorNMEA    $GPHDT,260.10,T*00
 
5.69144         MSG_UDP              iDivisorNMEA    $TIROT,-0.59,A*2A
 
5.70160         MSG_UDP              iDivisorNMEA    $MXPGN,01F803,281C,0000000000001412*62
 
5.71174         MSG_UDP              iDivisorNMEA    $MXPGN,01F804,281C,0000009751C11412*1D
 
5.72188         MSG_UDP              iDivisorNMEA    $AGRSA,-0.90,A,,V*6B
 
5.72190         ANGULO_LEME          iDivisorNMEA    -0.90000     
5.73208         MSG_UDP              iDivisorNMEA    $MXPGN,00FF28,3808,FF08FFFDFC059F41*19
 
5.74222         MSG_UDP              iDivisorNMEA    $HCHDG,283.4,0.0,E,23.3,W*6F
 
5.99476         MSG_UDP              iDivisorNMEA    $MXPGN,00FF19,7808,0080000A0A009F41*1D
 
6.00079         MSG_UDP              iDivisorNMEA    $MXPGN,01FF06,380B,801001FF99130FC0*11
 
6.00495         MSG_UDP              iDivisorNMEA    $MXPGN,01FF06,380B,0001B112FC0000C1*18
 
6.01507         MSG_UDP              iDivisorNMEA    $MXPGN,01FF06,380B,FFFFFFFFFFBE8EC2*15
 
6.02520         MSG_UDP              iDivisorNMEA    $MXPGN,01F803,281C,0000000000007817*6D
 
6.03533         MSG_UDP              iDivisorNMEA    $MXPGN,01F804,281C,0000005379C17817*10
 
6.04546         MSG_UDP              iDivisorNMEA    $MXPGN,01FF1A,680B,FF022B849F410560*6A
 
6.05559         MSG_UDP              iDivisorNMEA    $GPGGA,,2254.75909,S,04309.53759,W,1,,,,M,,M,,*53
 
6.06573         MSG_UDP              iDivisorNMEA    $GPGLL,2254.75909,S,04309.53759,W,,A,A*48
 
6.07589         MSG_UDP              iDivisorNMEA    $GPVTG,331.90,T,,M,1.00,N,1.85,K,A*38
 
6.08603         MSG_UDP              iDivisorNMEA    $AGRSA,-0.96,A,,V*6D
 
6.08606         ANGULO_LEME          iDivisorNMEA    -0.96000     
6.09616         MSG_UDP              iDivisorNMEA    $MXPGN,01FF1A,782B,FF010B049F410580*6E
 
6.10648         MSG_UDP              iDivisorNMEA    $MXPGN,00FF8C,6808,FFF10695C9409F41*64
 
6.11660         MSG_UDP              iDivisorNMEA    $MXPGN,00FF00,280B,0002000005049913*19
 
6.12677         MSG_UDP              iDivisorNMEA    $HCHDG,283.4,0.0,E,23.3,W*6F
 
6.13689         MSG_UDP              iDivisorNMEA    $GPHDT,260.09,T*08
 
6.14701         MSG_UDP              iDivisorNMEA    $TIROT,-0.39,A*2C
 
6.15714         MSG_UDP              iDivisorNMEA    $MXPGN,01F803,281C,0000000000008C18*16
 
6.16726         MSG_UDP              iDivisorNMEA    $MXPGN,01F804,281C,0000005379C18C18*6B
 
6.17738         MSG_UDP              iDivisorNMEA    $AGRSA,-0.90,A,,V*6B
 
6.17742         ANGULO_LEME          iDivisorNMEA    -0.90000     
6.18752         MSG_UDP              iDivisorNMEA    $GPZDA,132840.610,07,03,2023,,*5A
 
6.19764         MSG_UDP              iDivisorNMEA    !AIVDM,1,1,,A,1:U8?kPP00LrH;1jqAmrRgwp0d2;,0*42
 
6.20776         MSG_UDP              iDivisorNMEA    $HCHDG,283.4,0.0,E,23.3,W*6F
 
6.21789         MSG_UDP              iDivisorNMEA    $GPHDT,260.09,T*08
 
6.22804         MSG_UDP              iDivisorNMEA    $TIROT,-0.39,A*2C
 
6.23816         MSG_UDP              iDivisorNMEA    $MXPGN,01F803,281C,0000000000008C18*16
 
6.24831         MSG_UDP              iDivisorNMEA    $MXPGN,01F804,281C,00000053CAC18C18*67
 
6.25843         MSG_UDP              iDivisorNMEA    $GPGGA,132840.000,2254.75231,S,04309.53700,W,1,12,0.80,9.17,M,-5.60,M,,*79
 
6.26854         MSG_UDP              iDivisorNMEA    $GPGLL,2254.75231,S,04309.53700,W,132840.000,A,A*56
 
6.27868         MSG_UDP              iDivisorNMEA    $GPRMC,132840.000,A,2254.75231,S,04309.53700,W,0.19,0.00,070323,23.30,W,A*17
 
6.28882         MSG_UDP              iDivisorNMEA    $GPVTG,0.00,T,,M,0.19,N,0.35,K,A*33
 
6.29895         MSG_UDP              iDivisorNMEA    $AGRSA,-0.90,A,,V*6B
 
6.29900         ANGULO_LEME          iDivisorNMEA    -0.90000     
6.30913         MSG_UDP              iDivisorNMEA    $GPGSA,A,3,10,16,18,21,27,28,31,32,66,65,86,87,1.30,0.80,1.10*0A
 
6.31928         MSG_UDP              iDivisorNMEA    $GPGSV,3,1,12,10,41,157,28,16,13,312,44,18,20,074,33,21,07,225,22*79
 
6.32944         MSG_UDP              iDivisorNMEA    $GPGSV,3,2,12,27,64,276,43,28,16,025,41,31,11,016,39,32,78,080,45*7F
 
6.33961         MSG_UDP              iDivisorNMEA    $GPGSV,3,3,12,66,12,316,38,65,61,276,32,86,33,054,42,87,65,154,44*75
 
6.34979         MSG_UDP              iDivisorNMEA    $MXPGN,01FF0D,780B,FF03000098900500*66
 
6.35994         MSG_UDP              iDivisorNMEA    $MXPGN,01FF06,380B,801101FF99130FE0*16
 
6.37012         MSG_UDP              iDivisorNMEA    $MXPGN,01FF06,380B,0001B112FC0000E1*1E
 
6.38029         MSG_UDP              iDivisorNMEA    $MXPGN,01FF06,380B,FFFFFFFFFFBE8EE2*13
 
6.39047         MSG_UDP              iDivisorNMEA    $HCHDG,283.4,0.0,E,23.3,W*6F
 
6.40061         MSG_UDP              iDivisorNMEA    $GPHDT,260.09,T*08
 
6.41082         MSG_UDP              iDivisorNMEA    $TIROT,-0.39,A*2C
 
6.42099         MSG_UDP              iDivisorNMEA    $MXPGN,00FF00,280B,0002000005049913*19
 
6.43118         MSG_UDP              iDivisorNMEA    $MXPGN,01F803,281C,000000000000A019*1D
 
6.44135         MSG_UDP              iDivisorNMEA    $MXPGN,01F804,281C,00000053CAC1A019*6C
 
6.45153         MSG_UDP              iDivisorNMEA    $AGRSA,-0.96,A,,V*6D
 
6.45158         ANGULO_LEME          iDivisorNMEA    -0.96000     
6.46170         MSG_UDP              iDivisorNMEA    $SDDPT,1.80,0.00,*72
 
6.47185         MSG_UDP              iDivisorNMEA    $HCHDG,283.4,0.0,E,23.3,W*6F
 
6.48202         MSG_UDP              iDivisorNMEA    $GPHDT,260.11,T*01
 
6.49222         MSG_UDP              iDivisorNMEA    $TIROT,-0.19,A*2E
 
6.50237         MSG_UDP              iDivisorNMEA    $MXPGN,01F803,281C,000000000000A019*1D
 
6.51253         MSG_UDP              iDivisorNMEA    $MXPGN,01F804,281C,00000053CAC1A019*6C
 
6.52268         MSG_UDP              iDivisorNMEA    $AGRSA,-0.96,A,,V*6D
 
6.52271         ANGULO_LEME          iDivisorNMEA    -0.96000     
6.53288         MSG_UDP              iDivisorNMEA    $HCHDG,283.4,0.0,E,23.3,W*6F
 
6.54305         MSG_UDP              iDivisorNMEA    $GPHDT,260.11,T*01
 
6.55323         MSG_UDP              iDivisorNMEA    $TIROT,-0.19,A*2E
 
6.56341         MSG_UDP              iDivisorNMEA    $GPGSA,A,3,08,10,16,18,21,23,24,,,,,,2.28,1.79,1.79*09
 
6.57360         MSG_UDP              iDivisorNMEA    $GPGSV,2,1,07,08,37,233,44,10,41,157,00,16,12,311,37,18,20,074,41*7A
 
6.58378         MSG_UDP              iDivisorNMEA    $GPGSV,2,2,07,21,07,225,00,23,17,129,00,24,00,128,00*4F
 
6.59392         MSG_UDP              iDivisorNMEA    $MXPGN,01FA06,681C,8700F800C81A0FA0*61
 
6.60409         MSG_UDP              iDivisorNMEA    $MXPGN,01FA06,681C,008F00F3ECB900A1*1A
 
6.61445         MSG_UDP              iDivisorNMEA    $MXPGN,01FA06,681C,FFFFFFFFFF0170A2*69
 
6.62463         MSG_UDP              iDivisorNMEA    $MXPGN,01FF06,380B,800401FF99130F00*67
 
6.86941         MSG_UDP              iDivisorNMEA    $MXPGN,00FF3D,6808,FFFFFF02FFFF9F41*69
 
6.90151         MSG_UDP              iDivisorNMEA    $MXPGN,01F803,281C,0000000000007820*69
 
6.90234         MSG_UDP              iDivisorNMEA    $MXPGN,01F804,281C,0000007851C17820*17
 
6.91264         MSG_UDP              iDivisorNMEA    $AGRSA,-0.96,A,,V*6D
 
6.91273         ANGULO_LEME          iDivisorNMEA    -0.96000     
6.94840         MSG_UDP              iDivisorNMEA    $MXPGN,00FF16,7808,FF0000002B0A9F41*1B
 
6.95954         MSG_UDP              iDivisorNMEA    $HCHDG,283.4,0.0,E,23.3,W*6F
 
6.95971         MSG_UDP              iDivisorNMEA    $GPHDT,260.11,T*01
 
6.97001         MSG_UDP              iDivisorNMEA    $TIROT,0.19,A*03
 
6.98029         MSG_UDP              iDivisorNMEA    $MXPGN,00FF19,7808,0000000202009F41*15
 
6.99442         MSG_UDP              iDivisorNMEA    $MXPGN,00FF19,7808,0080000A0A009F41*1D
 
7.00071         MSG_UDP              iDivisorNMEA    $MXPGN,01FF06,380B,010001FF99130F40*6E
 
7.01099         MSG_UDP              iDivisorNMEA    $MXPGN,01FF06,380B,00007702FC010141*1C
 
7.02125         MSG_UDP              iDivisorNMEA    $MXPGN,01F803,281C,0000000000008D21*1B
 
7.03149         MSG_UDP              iDivisorNMEA    $MXPGN,01F804,281C,0000007851C18D21*65
 
7.04171         MSG_UDP              iDivisorNMEA    $MXPGN,01FF06,380B,FFFFFFFFFFA63342*6F
 
7.05201         MSG_UDP              iDivisorNMEA    $MXPGN,01FF1A,680B,FF022B849F410580*64
 
7.06227         MSG_UDP              iDivisorNMEA    $GPGGA,,2254.75909,S,04309.53759,W,1,,,,M,,M,,*53
 
7.07250         MSG_UDP              iDivisorNMEA    $GPGLL,2254.75909,S,04309.53759,W,,A,A*48
 
7.08275         MSG_UDP              iDivisorNMEA    $GPVTG,331.90,T,,M,1.00,N,1.85,K,A*38
 
7.09303         MSG_UDP              iDivisorNMEA    $AGRSA,-0.96,A,,V*6D
 
7.09313         ANGULO_LEME          iDivisorNMEA    -0.96000     
7.10331         MSG_UDP              iDivisorNMEA    $MXPGN,01FF1A,782B,FF010B049F4105A0*17
 
7.11362         MSG_UDP              iDivisorNMEA    $MXPGN,00FF8C,6808,FFF10695C9409F41*64
 
7.12430         MSG_UDP              iDivisorNMEA    $MXPGN,00FF00,280B,0002000005049913*19
 
7.13457         MSG_UDP              iDivisorNMEA    $HCHDG,283.4,0.0,E,23.3,W*6F
 
7.14486         MSG_UDP              iDivisorNMEA    $GPHDT,260.10,T*00
 
7.15518         MSG_UDP              iDivisorNMEA    $TIROT,0.29,A*00
 
7.16545         MSG_UDP              iDivisorNMEA    $MXPGN,01F803,281C,000000000000A022*15
 
7.17569         MSG_UDP              iDivisorNMEA    $MXPGN,01F804,281C,0000007851C1A022*6B
 
7.18590         MSG_UDP              iDivisorNMEA    $AGRSA,-0.96,A,,V*6D
 
7.18598         ANGULO_LEME          iDivisorNMEA    -0.96000     
7.19616         MSG_UDP              iDivisorNMEA    $GPZDA,132841.610,07,03,2023,,*5B
 
7.20641         MSG_UDP              iDivisorNMEA    !AIVDO,1,1,,,B:UOH3P037>VtILf>Wc?OwlUoP06,0*6A
 
7.21668         MSG_UDP              iDivisorNMEA    $HCHDG,283.4,0.0,E,23.3,W*6F
 
7.22695         MSG_UDP              iDivisorNMEA    $GPHDT,260.10,T*00
 
7.23740         MSG_UDP              iDivisorNMEA    $TIROT,0.29,A*00
 
7.24777         MSG_UDP              iDivisorNMEA    $MXPGN,01F803,281C,000000000000B423*13
 
7.25802         MSG_UDP              iDivisorNMEA    $MXPGN,01F804,281C,00000035E1C1B423*14
 
7.26829         MSG_UDP              iDivisorNMEA    $GPGGA,132841.000,2254.75240,S,04309.53700,W,1,12,0.80,9.43,M,-5.60,M,,*7F
 
7.27858         MSG_UDP              iDivisorNMEA    $GPGLL,2254.75240,S,04309.53700,W,132841.000,A,A*51
 
7.28885         MSG_UDP              iDivisorNMEA    $GPRMC,132841.000,A,2254.75240,S,04309.53700,W,0.09,0.00,070323,23.30,W,A*11
 
7.29913         MSG_UDP              iDivisorNMEA    $GPVTG,0.00,T,,M,0.09,N,0.16,K,A*33
 
7.30941         MSG_UDP              iDivisorNMEA    $AGRSA,-0.96,A,,V*6D
 
7.30947         ANGULO_LEME          iDivisorNMEA    -0.96000     
7.31965         MSG_UDP              iDivisorNMEA    $GPGSA,A,3,10,16,18,21,27,28,31,32,66,65,86,87,1.30,0.80,1.10*0A
 
7.32994         MSG_UDP              iDivisorNMEA    $GPGSV,3,1,12,10,41,157,28,16,13,312,44,18,20,074,32,21,07,225,23*79
 
7.34023         MSG_UDP              iDivisorNMEA    $GPGSV,3,2,12,27,64,276,43,28,16,025,41,31,11,016,39,32,78,080,45*7F
 
7.35073         MSG_UDP              iDivisorNMEA    $GPGSV,3,3,12,66,12,316,38,65,61,276,32,86,33,054,42,87,65,154,44*75
 
7.36103         MSG_UDP              iDivisorNMEA    $MXPGN,01FF0D,780B,FF03000098900520*64
 
7.37155         MSG_UDP              iDivisorNMEA    $HCHDG,283.4,0.0,E,23.3,W*6F
 
7.38182         MSG_UDP              iDivisorNMEA    $GPHDT,260.09,T*08
 
7.39214         MSG_UDP              iDivisorNMEA    $TIROT,0.19,A*03
 
7.40241         MSG_UDP              iDivisorNMEA    $MXPGN,00FF00,280B,0002000005049913*19
 
7.41269         MSG_UDP              iDivisorNMEA    $MXPGN,01F803,281C,000000000000C824*19
 
7.42326         MSG_UDP              iDivisorNMEA    $MXPGN,01F804,281C,00000035E1C1C824*1E
 
7.43357         MSG_UDP              iDivisorNMEA    $AGRSA,-0.90,A,,V*6B
 
7.43363         ANGULO_LEME          iDivisorNMEA    -0.90000     
7.44385         MSG_UDP              iDivisorNMEA    $SDDPT,1.81,0.00,*73
 
7.45432         MSG_UDP              iDivisorNMEA    $HCHDG,283.4,0.0,E,23.3,W*6F
 
7.46464         MSG_UDP              iDivisorNMEA    $GPHDT,260.08,T*09
 
7.47498         MSG_UDP              iDivisorNMEA    $TIROT,0.19,A*03
 
7.48522         MSG_UDP              iDivisorNMEA    $MXPGN,01F803,281C,000000000000DC25*64
 
7.49542         MSG_UDP              iDivisorNMEA    $MXPGN,01F804,281C,00000035E1C1DC25*63
 
7.50582         MSG_UDP              iDivisorNMEA    $AGRSA,-0.90,A,,V*6B
 
7.50587         ANGULO_LEME          iDivisorNMEA    -0.90000     
7.51602         MSG_UDP              iDivisorNMEA    !AIVDM,1,1,,A,1:U85d0015LrLwajrJc0BPA`0`HW,0*0C
 
7.52622         MSG_UDP              iDivisorNMEA    $HCHDG,283.4,0.0,E,23.3,W*6F
 
7.53648         MSG_UDP              iDivisorNMEA    $GPHDT,260.09,T*08
 
7.54680         MSG_UDP              iDivisorNMEA    $TIROT,0.09,A*02
 
7.76909         MSG_UDP              iDivisorNMEA    $MXPGN,00FF3D,6808,7FFFFF0DFFFF9F41*6E
 
7.80105         MSG_UDP              iDivisorNMEA    $MXPGN,01F803,281C,0000000000005029*6A
 
7.80192         MSG_UDP              iDivisorNMEA    $MXPGN,01F804,281C,0000008524C15029*14
 
7.81225         MSG_UDP              iDivisorNMEA    $AGRSA,-0.96,A,,V*6D
 
7.81231         ANGULO_LEME          iDivisorNMEA    -0.96000     
7.83187         MSG_UDP              iDivisorNMEA    $MXPGN,00FF00,280B,0002000005049913*19
 
7.84494         MSG_UDP              iDivisorNMEA    $MXPGN,00FF3C,3808,8000F8FE00009F41*1C
 
7.85906         MSG_UDP              iDivisorNMEA    $HCHDG,283.4,0.0,E,23.3,W*6F
 
7.85919         MSG_UDP              iDivisorNMEA    $GPHDT,260.09,T*08
 
7.86947         MSG_UDP              iDivisorNMEA    $TIROT,0.39,A*01
 
7.88016         MSG_UDP              iDivisorNMEA    $MXPGN,01FF06,380B,020001FF99130F60*6F
 
7.89048         MSG_UDP              iDivisorNMEA    $MXPGN,01FF06,380B,0002570200370061*1F
 
7.90075         MSG_UDP              iDivisorNMEA    $MXPGN,01FF06,380B,FFFFFFFFFF912762*17
 
7.91138         MSG_UDP              iDivisorNMEA    $MXPGN,01F803,281C,000000000000642A*15
 
7.92166         MSG_UDP              iDivisorNMEA    $MXPGN,01F804,281C,0000001841C1642A*6C
 
7.93193         MSG_UDP              iDivisorNMEA    $AGRSA,-0.90,A,,V*6B
 
7.93200         ANGULO_LEME          iDivisorNMEA    -0.90000     
7.94806         MSG_UDP              iDivisorNMEA    $MXPGN,00FF16,7808,FF0000002B0A9F41*1B
 
7.95924         MSG_UDP              iDivisorNMEA    $HCHDG,283.4,0.0,E,23.3,W*6F
 
7.96353         MSG_UDP              iDivisorNMEA    $GPHDT,260.08,T*09
 
7.97386         MSG_UDP              iDivisorNMEA    $TIROT,0.39,A*01
 
7.98407         MSG_UDP              iDivisorNMEA    $MXPGN,00FF19,7808,0000000202009F41*15
 
7.99427         MSG_UDP              iDivisorNMEA    $MXPGN,00FF19,7808,0080000A0A009F41*1D
 
8.00447         MSG_UDP              iDivisorNMEA    $MXPGN,01F803,281C,000000000000782B*1B
 
8.01466         MSG_UDP              iDivisorNMEA    $MXPGN,01F804,281C,0000001841C1782B*62
 
8.02493         MSG_UDP              iDivisorNMEA    $MXPGN,01FF1A,680B,FF022B849F4105A0*1D
 
8.03519         MSG_UDP              iDivisorNMEA    $GPGGA,,2254.75909,S,04309.53739,W,1,,,,M,,M,,*55
 
8.04542         MSG_UDP              iDivisorNMEA    $GPGLL,2254.75909,S,04309.53739,W,,A,A*4E
 
8.05565         MSG_UDP              iDivisorNMEA    $GPVTG,331.90,T,,M,1.20,N,2.22,K,A*34
 
8.06592         MSG_UDP              iDivisorNMEA    $AGRSA,-0.90,A,,V*6B
 
8.06600         ANGULO_LEME          iDivisorNMEA    -0.90000     
8.07620         MSG_UDP              iDivisorNMEA    $MXPGN,01FF1A,782B,FF010B049F4105C0*15
 
8.08650         MSG_UDP              iDivisorNMEA    $MXPGN,00FF8C,6808,FFF10695C9409F41*64
 
8.09676         MSG_UDP              iDivisorNMEA    $HCHDG,283.4,0.0,E,23.3,W*6F
 
8.10696         MSG_UDP              iDivisorNMEA    $GPHDT,260.09,T*08
 
8.11723         MSG_UDP              iDivisorNMEA    $TIROT,0.39,A*01
 
8.12743         MSG_UDP              iDivisorNMEA    $MXPGN,00FF00,280B,0002000005049913*19
 
8.13770         MSG_UDP              iDivisorNMEA    $MXPGN,01F803,281C,0000000000008C2C*6E
 
8.14794         MSG_UDP              iDivisorNMEA    $MXPGN,01F804,281C,0000001841C18C2C*17
 
8.15820         MSG_UDP              iDivisorNMEA    $AGRSA,-0.96,A,,V*6D
 
8.15826         ANGULO_LEME          iDivisorNMEA    -0.96000     
8.16845         MSG_UDP              iDivisorNMEA    $GPZDA,132842.610,07,03,2023,,*58
 
8.17871         MSG_UDP              iDivisorNMEA    $MXPGN,01FF06,380B,080001FF99130F80*6B
 
8.18897         MSG_UDP              iDivisorNMEA    $MXPGN,01FF06,380B,000B7A0202850581*1B
 
8.19927         MSG_UDP              iDivisorNMEA    $MXPGN,01FF06,380B,FFFFFFFFFF467882*19
 
8.20948         MSG_UDP              iDivisorNMEA    $HCHDG,283.4,0.0,E,23.3,W*6F
 
8.21971         MSG_UDP              iDivisorNMEA    $GPHDT,260.08,T*09
 
8.23005         MSG_UDP              iDivisorNMEA    $TIROT,0.39,A*01
 
8.24037         MSG_UDP              iDivisorNMEA    $MXPGN,01F803,281C,0000000000008C2C*6E
 
8.25062         MSG_UDP              iDivisorNMEA    $MXPGN,01F804,281C,0000000995C18C2C*1E
 
8.26090         MSG_UDP              iDivisorNMEA    $GPGGA,132842.000,2254.75249,S,04309.53700,W,1,12,0.80,9.50,M,-5.60,M,,*77
 
8.27119         MSG_UDP              iDivisorNMEA    $GPGLL,2254.75249,S,04309.53700,W,132842.000,A,A*5B
 
8.28203         MSG_UDP              iDivisorNMEA    $GPRMC,132842.000,A,2254.75249,S,04309.53700,W,0.09,0.00,070323,23.30,W,A*1B
 
8.29230         MSG_UDP              iDivisorNMEA    $GPVTG,0.00,T,,M,0.09,N,0.16,K,A*33
 
8.30253         MSG_UDP              iDivisorNMEA    $AGRSA,-0.96,A,,V*6D
 
8.30262         ANGULO_LEME          iDivisorNMEA    -0.96000     
8.31279         MSG_UDP              iDivisorNMEA    $GPGSA,A,3,10,16,18,21,27,28,31,32,66,65,86,87,1.30,0.80,1.10*0A
 
8.32305         MSG_UDP              iDivisorNMEA    $GPGSV,3,1,12,10,41,157,28,16,13,312,44,18,20,074,31,21,07,225,23*7A
 
8.33334         MSG_UDP              iDivisorNMEA    $GPGSV,3,2,12,27,64,276,43,28,16,025,41,31,11,016,39,32,78,080,45*7F
 
8.34366         MSG_UDP              iDivisorNMEA    $GPGSV,3,3,12,66,12,316,38,65,61,276,32,86,33,054,42,87,65,154,44*75
 
8.35398         MSG_UDP              iDivisorNMEA    $MXPGN,01FF0D,780B,FF03000098900540*62
 
8.36424         MSG_UDP              iDivisorNMEA    $HCHDG,283.4,0.0,E,23.3,W*6F
 
8.37452         MSG_UDP              iDivisorNMEA    $GPHDT,260.08,T*09
 
8.38477         MSG_UDP              iDivisorNMEA    $TIROT,0.39,A*01
 
8.39505         MSG_UDP              iDivisorNMEA    $MXPGN,01F803,281C,000000000000A02D*63
 
8.40532         MSG_UDP              iDivisorNMEA    $MXPGN,01F804,281C,0000000995C1A02D*13
 
8.41553         MSG_UDP              iDivisorNMEA    $AGRSA,-0.96,A,,V*6D
 
8.41560         ANGULO_LEME          iDivisorNMEA    -0.96000     
8.42575         MSG_UDP              iDivisorNMEA    $SDDPT,1.80,0.00,*72
 
8.43596         MSG_UDP              iDivisorNMEA    $MXPGN,00FF00,280B,0002000005049913*19
 
8.65688         MSG_UDP              iDivisorNMEA    $MXPGN,01FF06,380B,00015202003600C1*6D
 
8.65749         MSG_UDP              iDivisorNMEA    $MXPGN,01FF06,380B,FFFFFFFFFF41C4C2*1D
 
8.66777         MSG_UDP              iDivisorNMEA    $HCHDG,283.4,0.0,E,23.3,W*6F
 
8.67803         MSG_UDP              iDivisorNMEA    $GPHDT,260.07,T*06
 
8.68825         MSG_UDP              iDivisorNMEA    $TIROT,-0.19,A*2E
 
8.69844         MSG_UDP              iDivisorNMEA    $MXPGN,01FF1A,680B,FF022B849F410500*6C
 
8.70869         MSG_UDP              iDivisorNMEA    $MXPGN,01FF1A,782B,FF010B049F4105E0*13
 
8.71899         MSG_UDP              iDivisorNMEA    $MXPGN,01F803,281C,0000000000003C32*15
 
8.72924         MSG_UDP              iDivisorNMEA    $MXPGN,01F804,281C,00000017BBC13C32*66
 
8.73948         MSG_UDP              iDivisorNMEA    $MXPGN,00EA01,630B,00EE00*12
 
8.74977         MSG_UDP              iDivisorNMEA    $AGRSA,-0.90,A,,V*6B
 
8.74987         ANGULO_LEME          iDivisorNMEA    -0.90000     
8.76005         MSG_UDP              iDivisorNMEA    $MXPGN,01FF2C,7808,FFFFFFFF9F4117E0*1E
 
8.77030         MSG_UDP              iDivisorNMEA    $MXPGN,01FF2C,7808,FFFF7FFFFFFF7FE1*63
 
8.78055         MSG_UDP              iDivisorNMEA    $MXPGN,01FF2C,7808,FF7FFFFFFFFFFFE2*11
 
8.79145         MSG_UDP              iDivisorNMEA    $MXPGN,01FF2C,7808,FFFFFFFF7FFFFFE3*10
 
8.80170         MSG_UDP              iDivisorNMEA    $MXPGN,00EA02,630B,00EE00*11
 
8.81190         MSG_UDP              iDivisorNMEA    $HCHDG,283.4,0.0,E,23.3,W*6F
 
8.82213         MSG_UDP              iDivisorNMEA    $GPHDT,260.06,T*07
 
8.83245         MSG_UDP              iDivisorNMEA    $TIROT,-0.19,A*2E
 
8.84275         MSG_UDP              iDivisorNMEA    $MXPGN,00FF3D,6808,7FFFFF0DFFFF9F41*6E
 
8.85307         MSG_UDP              iDivisorNMEA    $MXPGN,01FF1A,680B,FF022B849F410500*6C
 
8.86349         MSG_UDP              iDivisorNMEA    $MXPGN,01FF1A,782B,FF010B049F410500*66
 
8.87376         MSG_UDP              iDivisorNMEA    $MXPGN,01F803,281C,0000000000005033*61
 
8.88402         MSG_UDP              iDivisorNMEA    $MXPGN,01F804,281C,00000017BBC15033*12
 
8.89425         MSG_UDP              iDivisorNMEA    $MXPGN,00EA03,630B,00EE00*10
 
8.90452         MSG_UDP              iDivisorNMEA    $AGRSA,-0.90,A,,V*6B
 
8.90459         ANGULO_LEME          iDivisorNMEA    -0.90000     
8.91478         MSG_UDP              iDivisorNMEA    $MXPGN,00FF00,280B,0002000005049913*19
 
8.92507         MSG_UDP              iDivisorNMEA    $MXPGN,00FF3C,3808,8000F8FE00009F41*1C
 
8.93528         MSG_UDP              iDivisorNMEA    $MXPGN,00EA04,630B,00EE00*17
 
8.94559         MSG_UDP              iDivisorNMEA    $HCHDG,283.4,0.0,E,23.3,W*6F
 
8.95586         MSG_UDP              iDivisorNMEA    $GPHDT,260.06,T*07
 
8.96610         MSG_UDP              iDivisorNMEA    $TIROT,-0.19,A*2E
 
8.97644         MSG_UDP              iDivisorNMEA    $MXPGN,01FF1A,680B,FF022B849F410500*6C
 
8.98675         MSG_UDP              iDivisorNMEA    $MXPGN,01F803,281C,0000000000006434*61
 
8.99702         MSG_UDP              iDivisorNMEA    $MXPGN,01F804,281C,000000C290C16434*6C
 
9.00729         MSG_UDP              iDivisorNMEA    $MXPGN,01FF06,380B,040001FF99130FE0*1A
 
9.01759         MSG_UDP              iDivisorNMEA    $MXPGN,01FF06,380B,0003F102005600E1*1F
 
9.02785         MSG_UDP              iDivisorNMEA    $MXPGN,01FF06,380B,FFFFFFFFFF245AE2*1B
 
9.03805         MSG_UDP              iDivisorNMEA    $AGRSA,-0.96,A,,V*6D
 
