%%%%%%%%%%%%%%%%%%%%%%%%%%%%%%%%%%%%%%%%%%%%%%%%%%%%%%%%%%%
%% LOG FILE:       /home/moos-ivp-douglas/log/teste_7_3_2023_____10_17_54/teste_7_3_2023_____10_17_54.alog
%% FILE OPENED ON  Wed Dec 31 21:00:00 1969
%% LOGSTART            1678195073.89005
%%%%%%%%%%%%%%%%%%%%%%%%%%%%%%%%%%%%%%%%%%%%%%%%%%%%%%%%%%%
-0.04049        MOOS_DEBUG           pHelmIvP        pHelmIvP AllStop: ManualOverride 
-0.04047        DESIRED_SPEED        pHelmIvP        0.00000      
-0.04047        DESIRED_HEADING      pHelmIvP        0.00000      
0.16001         DESIRED_RUDDER       pMarinePIDV22   0.00000      
0.16001         DESIRED_THRUST       pMarinePIDV22   0.00000      
0.72535         ANGULO_LEME          iDivisorNMEA    -0.84000     
0.74577         MSG_UDP              iDivisorNMEA    $MXPGN,01F803,281C,0000000000008C5A*6B
 
0.75599         MSG_UDP              iDivisorNMEA    $MXPGN,01F804,281C,00000076D5C18C5A*6E
 
0.76618         MSG_UDP              iDivisorNMEA    $MXPGN,00FF00,280B,0002000005049913*19
 
0.77633         MSG_UDP              iDivisorNMEA    !AIVDM,1,1,,B,1:U8?M0P00trH?=jq@hIOwwb2<2P,0*26
 
0.78649         MSG_UDP              iDivisorNMEA    $HCHDG,283.2,0.0,E,23.3,W*69
 
0.79663         MSG_UDP              iDivisorNMEA    $GPHDT,259.86,T*05
 
0.80683         MSG_UDP              iDivisorNMEA    $TIROT,0.19,A*03
 
0.81698         MSG_UDP              iDivisorNMEA    $AGRSA,-0.84,A,,V*6E
 
0.81702         ANGULO_LEME          iDivisorNMEA    -0.84000     
0.82711         MSG_UDP              iDivisorNMEA    $MXPGN,01F803,281C,0000000000008C5A*6B
 
0.83729         MSG_UDP              iDivisorNMEA    $MXPGN,01F804,281C,000000398CC18C5A*6F
 
0.84747         MSG_UDP              iDivisorNMEA    !AIVDM,1,1,,B,1:U6vLPP06trHfQjpdlcC?wd28P6,0*7A
 
0.85929         MSG_UDP              iDivisorNMEA    $HCHDG,283.2,0.0,E,23.3,W*69
 
0.86845         MSG_UDP              iDivisorNMEA    $GPHDT,259.86,T*05
 
0.87860         MSG_UDP              iDivisorNMEA    $TIROT,0.19,A*03
 
0.90927         MSG_UDP              iDivisorNMEA    $AGRSA,-0.84,A,,V*6E
 
0.90932         ANGULO_LEME          iDivisorNMEA    -0.84000     
0.91010         MSG_UDP              iDivisorNMEA    $SDDPT,1.78,0.00,*75
 
0.92026         MSG_UDP              iDivisorNMEA    $MXPGN,01F803,281C,0000000000008C5A*6B
 
0.93043         MSG_UDP              iDivisorNMEA    $MXPGN,01F804,281C,000000398CC18C5A*6F
 
0.94061         MSG_UDP              iDivisorNMEA    $MXPGN,01FF0D,780B,FF030000989005C0*15
 
0.95723         MSG_UDP              iDivisorNMEA    $MXPGN,01FF1A,782B,FFFAFF859F410540*1F
 
0.96136         MSG_UDP              iDivisorNMEA    $HCHDG,283.2,0.0,E,23.3,W*69
 
0.97149         MSG_UDP              iDivisorNMEA    $GPHDT,259.86,T*05
 
0.98166         MSG_UDP              iDivisorNMEA    $TIROT,0.19,A*03
 
0.99184         MSG_UDP              iDivisorNMEA    $MXPGN,00FF00,280B,0002000005049913*19
 
1.00201         MSG_UDP              iDivisorNMEA    $MXPGN,01FF2C,7808,FFFFFFFF9F4117E0*1E
 
1.01218         MSG_UDP              iDivisorNMEA    $MXPGN,01FF2C,7808,FFFF7FFFFFFF7FE1*63
 
1.02236         MSG_UDP              iDivisorNMEA    $MXPGN,01FF2C,7808,FF7FFFFFFFFFFFE2*11
 
1.03255         MSG_UDP              iDivisorNMEA    $MXPGN,01FF2C,7808,FFFFFFFF7FFFFFE3*10
 
1.04272         MSG_UDP              iDivisorNMEA    $MXPGN,00FF3D,6808,7FFFFF0DFFFF9F41*6E
 
1.05294         MSG_UDP              iDivisorNMEA    $AGRSA,-0.84,A,,V*6E
 
1.05297         ANGULO_LEME          iDivisorNMEA    -0.84000     
1.06309         MSG_UDP              iDivisorNMEA    $MXPGN,01F803,281C,000000000000B45C*64
 
1.07333         MSG_UDP              iDivisorNMEA    $MXPGN,01F804,281C,000000398CC1B45C*60
 
1.08344         MSG_UDP              iDivisorNMEA    $HCHDG,283.2,0.0,E,23.3,W*69
 
1.09353         MSG_UDP              iDivisorNMEA    $GPHDT,259.86,T*05
 
1.10370         MSG_UDP              iDivisorNMEA    $TIROT,0.09,A*02
 
1.11396         MSG_UDP              iDivisorNMEA    $GPGSA,A,3,08,10,16,18,21,23,24,26,27,,,,1.88,1.60,1.60*01
 
1.12410         MSG_UDP              iDivisorNMEA    $GPGSV,3,1,09,08,34,229,45,10,44,162,41,16,14,307,43,18,22,079,44*72
 
1.13423         MSG_UDP              iDivisorNMEA    $GPGSV,3,2,09,21,04,227,00,23,20,133,00,24,01,124,00,26,05,342,41*72
 
1.14442         MSG_UDP              iDivisorNMEA    $GPGSV,3,3,09,27,63,262,49*4B
 
1.15462         MSG_UDP              iDivisorNMEA    $MXPGN,01FA06,681C,8300A900C85D0FE0*66
 
1.16474         MSG_UDP              iDivisorNMEA    $MXPGN,01FA06,681C,008400A8EEF100E1*6A
 
1.17490         MSG_UDP              iDivisorNMEA    $MXPGN,01FA06,681C,FFFFFFFFFF0143E2*6D
 
1.18508         MSG_UDP              iDivisorNMEA    $GPGGA,131755.000,2254.75309,S,04309.53829,W,1,09,1.60,0.78,M,-5.00,M,,*7C
 
1.19526         MSG_UDP              iDivisorNMEA    $GPGLL,2254.75309,S,04309.53829,W,131755.000,A,A*50
 
1.20544         MSG_UDP              iDivisorNMEA    $GPRMC,131755.000,A,2254.75309,S,04309.53829,W,0.00,84.40,070323,23.39,W,A*28
 
1.21560         MSG_UDP              iDivisorNMEA    $GPVTG,84.40,T,,M,0.00,N,0.00,K,A*05
 
1.22574         MSG_UDP              iDivisorNMEA    $AGRSA,-0.90,A,,V*6B
 
1.22578         ANGULO_LEME          iDivisorNMEA    -0.90000     
1.23590         MSG_UDP              iDivisorNMEA    $MXPGN,01F803,281C,000000000000005D*15
 
1.48348         MSG_UDP              iDivisorNMEA    $MXPGN,00FF3C,3808,8000F8FE00009F41*1C
 
1.50834         MSG_UDP              iDivisorNMEA    $AGRSA,-0.84,A,,V*6E
 
1.50837         ANGULO_LEME          iDivisorNMEA    -0.84000     
1.51447         MSG_UDP              iDivisorNMEA    $MXPGN,01F803,281C,0000000000006462*62
 
1.51858         MSG_UDP              iDivisorNMEA    $MXPGN,01F804,281C,000000CD88C16462*10
 
1.56046         MSG_UDP              iDivisorNMEA    $GPGGA,131755.000,2254.75028,S,04309.53896,W,1,12,1.40,10.55,M,-5.60,M,,*48
 
1.56136         MSG_UDP              iDivisorNMEA    $GPGLL,2254.75028,S,04309.53896,W,131755.000,A,A*54
 
1.57149         MSG_UDP              iDivisorNMEA    $GPRMC,131755.000,A,2254.75028,S,04309.53896,W,0.19,0.00,070323,23.30,W,A*15
 
1.58206         MSG_UDP              iDivisorNMEA    $GPVTG,0.00,T,,M,0.19,N,0.35,K,A*33
 
1.59224         MSG_UDP              iDivisorNMEA    $HCHDG,283.2,0.0,E,23.3,W*69
 
1.60243         MSG_UDP              iDivisorNMEA    $GPHDT,259.86,T*05
 
1.61263         MSG_UDP              iDivisorNMEA    $TIROT,0.59,A*07
 
1.62278         MSG_UDP              iDivisorNMEA    $MXPGN,00FF16,7808,FF0000002B0A9F41*1B
 
1.63296         MSG_UDP              iDivisorNMEA    !AIVDM,1,1,,A,1:U8vhS1h0LrNMqjsGqHu1qp0W3h,0*36
 
1.64311         MSG_UDP              iDivisorNMEA    $GPGSA,A,3,08,10,16,18,26,27,28,31,32,66,65,86,1.60,1.40,1.40*07
 
1.65326         MSG_UDP              iDivisorNMEA    $GPGSV,3,1,12,08,34,230,37,10,44,162,34,16,15,308,40,18,23,079,38*70
 
1.66347         MSG_UDP              iDivisorNMEA    $GPGSV,3,2,12,26,05,343,36,27,63,263,42,28,13,021,43,31,08,012,40*7B
 
1.67361         MSG_UDP              iDivisorNMEA    $GPGSV,3,3,12,32,77,052,47,66,08,319,40,65,58,289,38,86,37,060,45*73
 
1.68381         MSG_UDP              iDivisorNMEA    $GPGGA,,2254.75199,S,04309.53469,W,1,,,,M,,M,,*52
 
1.69400         MSG_UDP              iDivisorNMEA    $GPGLL,2254.75199,S,04309.53469,W,,A,A*49
 
1.70418         MSG_UDP              iDivisorNMEA    $GPVTG,281.40,T,,M,0.30,N,0.55,K,A*31
 
1.71437         MSG_UDP              iDivisorNMEA    $AGRSA,-0.84,A,,V*6E
 
1.71440         ANGULO_LEME          iDivisorNMEA    -0.84000     
1.72456         MSG_UDP              iDivisorNMEA    $MXPGN,01F803,281C,0000000000007863*6E
 
1.73470         MSG_UDP              iDivisorNMEA    $MXPGN,01F804,281C,000000A852C17863*65
 
1.74493         MSG_UDP              iDivisorNMEA    !AIVDM,1,1,,A,16:>J;?P00LrE99jr:sUwwwh05a4,0*0B
 
1.75512         MSG_UDP              iDivisorNMEA    $HCHDG,283.2,0.0,E,23.3,W*69
 
1.76533         MSG_UDP              iDivisorNMEA    $GPHDT,259.85,T*06
 
1.77550         MSG_UDP              iDivisorNMEA    $TIROT,0.59,A*07
 
1.78564         MSG_UDP              iDivisorNMEA    $AGRSA,-0.84,A,,V*6E
 
1.78569         ANGULO_LEME          iDivisorNMEA    -0.84000     
1.79584         MSG_UDP              iDivisorNMEA    $GPZDA,131754.690,07,03,2023,,*5B
 
1.80603         MSG_UDP              iDivisorNMEA    $MXPGN,01F803,281C,0000000000008C64*1D
 
1.81623         MSG_UDP              iDivisorNMEA    $MXPGN,01F804,281C,000000A852C18C64*16
 
1.82643         MSG_UDP              iDivisorNMEA    $MXPGN,00FF00,280B,0002000005049913*19
 
1.83664         MSG_UDP              iDivisorNMEA    $HCHDG,283.1,0.0,E,23.3,W*6A
 
1.84682         MSG_UDP              iDivisorNMEA    $GPHDT,259.84,T*07
 
1.85699         MSG_UDP              iDivisorNMEA    $TIROT,0.59,A*07
 
1.86716         MSG_UDP              iDivisorNMEA    $AGRSA,-0.84,A,,V*6E
 
1.86721         ANGULO_LEME          iDivisorNMEA    -0.84000     
1.87732         MSG_UDP              iDivisorNMEA    $MXPGN,01F803,281C,000000000000A065*16
 
1.88749         MSG_UDP              iDivisorNMEA    $MXPGN,01F804,281C,0000006291C1A065*6F
 
1.89766         MSG_UDP              iDivisorNMEA    $HCHDG,283.1,0.0,E,23.3,W*6A
 
1.90812         MSG_UDP              iDivisorNMEA    $GPHDT,259.84,T*07
 
1.91854         MSG_UDP              iDivisorNMEA    $TIROT,0.59,A*07
 
1.92881         MSG_UDP              iDivisorNMEA    $AGRSA,-0.84,A,,V*6E
 
1.92887         ANGULO_LEME          iDivisorNMEA    -0.84000     
1.93906         MSG_UDP              iDivisorNMEA    $SDDPT,1.79,0.00,*74
 
1.94930         MSG_UDP              iDivisorNMEA    $MXPGN,01F803,281C,000000000000B466*12
 
1.95948         MSG_UDP              iDivisorNMEA    $MXPGN,01F804,281C,0000006291C1B466*6B
 
1.96958         MSG_UDP              iDivisorNMEA    $MXPGN,01FF0D,780B,FF030000989005E0*13
 
1.97972         MSG_UDP              iDivisorNMEA    $HCHDG,283.1,0.0,E,23.3,W*6A
 
1.98986         MSG_UDP              iDivisorNMEA    $GPHDT,259.83,T*00
 
2.00022         MSG_UDP              iDivisorNMEA    $TIROT,0.59,A*07
 
2.01035         MSG_UDP              iDivisorNMEA    $MXPGN,00FF00,280B,0002000005049913*19
 
2.02068         MSG_UDP              iDivisorNMEA    $MXPGN,01FF2C,7808,FFFFFFFF9F411700*6B
 
2.03096         MSG_UDP              iDivisorNMEA    $MXPGN,01FF2C,7808,FFFF7FFFFFFF7F01*16
 
2.04112         MSG_UDP              iDivisorNMEA    $MXPGN,01FF2C,7808,FF7FFFFFFFFFFF02*64
 
2.05135         MSG_UDP              iDivisorNMEA    $MXPGN,01FF2C,7808,FFFFFFFF7FFFFF03*65
 
2.06156         MSG_UDP              iDivisorNMEA    $MXPGN,00FF3D,6808,7FFFFF0DFFFF9F41*6E
 
2.07174         MSG_UDP              iDivisorNMEA    $AGRSA,-0.84,A,,V*6E
 
2.07179         ANGULO_LEME          iDivisorNMEA    -0.84000     
2.08193         MSG_UDP              iDivisorNMEA    $MXPGN,01F803,281C,000000000000B466*12
 
2.09218         MSG_UDP              iDivisorNMEA    $MXPGN,01F804,281C,0000006291C1B466*6B
 
2.10249         MSG_UDP              iDivisorNMEA    $HCHDG,283.1,0.0,E,23.3,W*6A
 
2.11289         MSG_UDP              iDivisorNMEA    $GPHDT,259.81,T*02
 
2.12322         MSG_UDP              iDivisorNMEA    $TIROT,0.59,A*07
 
2.13354         MSG_UDP              iDivisorNMEA    $GPGSA,A,3,08,10,16,18,21,23,24,26,27,,,,1.88,1.60,1.60*01
 
2.14386         MSG_UDP              iDivisorNMEA    $GPGSV,3,1,09,08,34,229,45,10,44,162,41,16,14,307,42,18,22,079,44*73
 
2.15416         MSG_UDP              iDivisorNMEA    $GPGSV,3,2,09,21,04,227,00,23,20,133,00,24,01,124,00,26,05,342,41*72
 
2.38336         MSG_UDP              iDivisorNMEA    !AIVDM,1,1,,A,1:U8RjPP2EtrMVmjqK2k3?wf2<2f,0*31
 
2.40726         MSG_UDP              iDivisorNMEA    $AGRSA,-0.84,A,,V*6E
 
2.40733         ANGULO_LEME          iDivisorNMEA    -0.84000     
2.41533         MSG_UDP              iDivisorNMEA    $MXPGN,01F803,281C,000000000000506B*15
 
2.41755         MSG_UDP              iDivisorNMEA    $MXPGN,01F804,281C,000000C59FC1506B*69
 
2.45834         MSG_UDP              iDivisorNMEA    $HCHDG,283.1,0.0,E,23.3,W*6A
 
2.45852         MSG_UDP              iDivisorNMEA    $GPHDT,259.79,T*05
 
2.46883         MSG_UDP              iDivisorNMEA    $TIROT,0.49,A*06
 
2.47907         MSG_UDP              iDivisorNMEA    $MXPGN,00FF00,280B,0002000005049913*19
 
2.48935         MSG_UDP              iDivisorNMEA    $MXPGN,00FF3C,3808,8000F8FE00009F41*1C
 
2.50716         MSG_UDP              iDivisorNMEA    $AGRSA,-0.90,A,,V*6B
 
2.50724         ANGULO_LEME          iDivisorNMEA    -0.90000     
2.51318         MSG_UDP              iDivisorNMEA    $MXPGN,01F803,281C,000000000000646C*13
 
2.52145         MSG_UDP              iDivisorNMEA    $MXPGN,01F804,281C,000000C59FC1646C*6F
 
2.55521         MSG_UDP              iDivisorNMEA    !AIVDM,2,1,6,A,5:U8vhT2CPbM1G;WK21E20<u84j222222222221J1q86=76<0<4RCp11H2PC,0*38
 
2.55532         MSG_UDP              iDivisorNMEA    !AIVDM,2,2,6,A,QBDSp888888,2*66
 
2.56564         MSG_UDP              iDivisorNMEA    $GPGGA,131756.000,2254.75027,S,04309.53899,W,1,12,1.40,10.61,M,-5.60,M,,*4C
 
2.57587         MSG_UDP              iDivisorNMEA    $GPGLL,2254.75027,S,04309.53899,W,131756.000,A,A*57
 
2.58611         MSG_UDP              iDivisorNMEA    $GPRMC,131756.000,A,2254.75027,S,04309.53899,W,0.00,0.00,070323,23.30,W,A*1E
 
2.59642         MSG_UDP              iDivisorNMEA    $GPVTG,0.00,T,,M,0.00,N,0.00,K,A*3D
 
2.60667         MSG_UDP              iDivisorNMEA    $HCHDG,283.1,0.0,E,23.3,W*6A
 
2.61695         MSG_UDP              iDivisorNMEA    $GPHDT,259.78,T*04
 
2.62720         MSG_UDP              iDivisorNMEA    $TIROT,0.49,A*06
 
2.63753         MSG_UDP              iDivisorNMEA    $MXPGN,00FF16,7808,FF0000002B0A9F41*1B
 
2.64783         MSG_UDP              iDivisorNMEA    $GPGSA,A,3,08,10,16,18,26,27,28,31,32,66,65,86,1.60,1.40,1.40*07
 
2.65810         MSG_UDP              iDivisorNMEA    $GPGSV,3,1,12,08,34,230,37,10,44,162,34,16,15,308,40,18,23,079,38*70
 
2.66832         MSG_UDP              iDivisorNMEA    $GPGSV,3,2,12,26,05,343,36,27,63,263,42,28,13,021,43,31,08,012,40*7B
 
2.67853         MSG_UDP              iDivisorNMEA    $GPGSV,3,3,12,32,77,052,47,66,08,319,40,65,58,289,38,86,37,060,45*73
 
2.68884         MSG_UDP              iDivisorNMEA    $GPGGA,,2254.75199,S,04309.53469,W,1,,,,M,,M,,*52
 
2.69908         MSG_UDP              iDivisorNMEA    $GPGLL,2254.75199,S,04309.53469,W,,A,A*49
 
2.70938         MSG_UDP              iDivisorNMEA    $GPVTG,281.40,T,,M,0.30,N,0.55,K,A*31
 
2.71958         MSG_UDP              iDivisorNMEA    $AGRSA,-0.90,A,,V*6B
 
2.71964         ANGULO_LEME          iDivisorNMEA    -0.90000     
2.72980         MSG_UDP              iDivisorNMEA    $MXPGN,01F803,281C,000000000000646C*13
 
2.74010         MSG_UDP              iDivisorNMEA    $MXPGN,01F804,281C,00000066CCC1646C*66
 
2.75041         MSG_UDP              iDivisorNMEA    $HCHDG,283.1,0.0,E,23.3,W*6A
 
2.76069         MSG_UDP              iDivisorNMEA    $GPHDT,259.78,T*04
 
2.77095         MSG_UDP              iDivisorNMEA    $TIROT,0.69,A*04
 
2.78123         MSG_UDP              iDivisorNMEA    $AGRSA,-0.84,A,,V*6E
 
2.78128         ANGULO_LEME          iDivisorNMEA    -0.84000     
2.79151         MSG_UDP              iDivisorNMEA    $GPZDA,131755.690,07,03,2023,,*5A
 
2.80175         MSG_UDP              iDivisorNMEA    $MXPGN,01F803,281C,0000000000008C6E*6C
 
2.81210         MSG_UDP              iDivisorNMEA    $MXPGN,01F804,281C,00000066CCC18C6E*19
 
2.82243         MSG_UDP              iDivisorNMEA    $MXPGN,00FF00,280B,0002000005049913*19
 
2.83272         MSG_UDP              iDivisorNMEA    $HCHDG,283.1,0.0,E,23.3,W*6A
 
2.84301         MSG_UDP              iDivisorNMEA    $GPHDT,259.77,T*0B
 
2.85333         MSG_UDP              iDivisorNMEA    $TIROT,0.69,A*04
 
2.86363         MSG_UDP              iDivisorNMEA    $AGRSA,-0.84,A,,V*6E
 
2.86373         ANGULO_LEME          iDivisorNMEA    -0.84000     
2.87394         MSG_UDP              iDivisorNMEA    $MXPGN,01F803,281C,000000000000A06F*65
 
2.88424         MSG_UDP              iDivisorNMEA    $MXPGN,01F804,281C,000000BBF4C1A06F*62
 
2.89456         MSG_UDP              iDivisorNMEA    $HCHDG,283.1,0.0,E,23.3,W*6A
 
2.90486         MSG_UDP              iDivisorNMEA    $GPHDT,259.76,T*0A
 
2.91519         MSG_UDP              iDivisorNMEA    $TIROT,0.59,A*07
 
2.92548         MSG_UDP              iDivisorNMEA    $AGRSA,-0.84,A,,V*6E
 
2.92563         ANGULO_LEME          iDivisorNMEA    -0.84000     
2.93606         MSG_UDP              iDivisorNMEA    $SDDPT,1.81,0.00,*73
 
2.94633         MSG_UDP              iDivisorNMEA    $MXPGN,01F803,281C,000000000000B470*15
 
2.95653         MSG_UDP              iDivisorNMEA    $MXPGN,01F804,281C,000000BBF4C1B470*12
 
2.96675         MSG_UDP              iDivisorNMEA    $HCHDG,283.1,0.0,E,23.3,W*6A
 
2.97695         MSG_UDP              iDivisorNMEA    $GPHDT,259.75,T*09
 
2.98719         MSG_UDP              iDivisorNMEA    $TIROT,0.59,A*07
 
2.99747         MSG_UDP              iDivisorNMEA    $MXPGN,00FF00,280B,0002000005049913*19
 
3.00779         MSG_UDP              iDivisorNMEA    $MXPGN,01FF0D,780B,FF03000098900500*66
 
3.01813         MSG_UDP              iDivisorNMEA    $MXPGN,01FF2C,7808,FFFFFFFF9F411720*69
 
3.02842         MSG_UDP              iDivisorNMEA    $MXPGN,01FF2C,7808,FFFF7FFFFFFF7F21*14
 
3.03872         MSG_UDP              iDivisorNMEA    $MXPGN,01FF2C,7808,FF7FFFFFFFFFFF22*66
 
3.04899         MSG_UDP              iDivisorNMEA    $MXPGN,01FF2C,7808,FFFFFFFF7FFFFF23*67
 
3.05925         MSG_UDP              iDivisorNMEA    $MXPGN,00FF3D,6808,7FFFFF0DFFFF9F41*6E
 
3.06958         MSG_UDP              iDivisorNMEA    $AGRSA,-0.84,A,,V*6E
 
3.06967         ANGULO_LEME          iDivisorNMEA    -0.84000     
3.28043         MSG_UDP              iDivisorNMEA    $MXPGN,00FF8C,6808,FFF10695C9409F41*64
 
3.28122         MSG_UDP              iDivisorNMEA    $MXPGN,00FF28,3808,FF08FFFDFC059F41*19
 
3.30616         MSG_UDP              iDivisorNMEA    $AGRSA,-0.84,A,,V*6E
 
3.30624         ANGULO_LEME          iDivisorNMEA    -0.84000     
3.31257         MSG_UDP              iDivisorNMEA    $MXPGN,01F803,281C,0000000000003C74*17
 
3.31682         MSG_UDP              iDivisorNMEA    $MXPGN,01F804,281C,0000002ADBC13C74*17
 
3.35720         MSG_UDP              iDivisorNMEA    $HCHDG,283.0,0.0,E,23.3,W*6B
 
3.35732         MSG_UDP              iDivisorNMEA    $GPHDT,259.73,T*0F
 
3.36757         MSG_UDP              iDivisorNMEA    $TIROT,0.59,A*07
 
3.40614         MSG_UDP              iDivisorNMEA    $AGRSA,-0.84,A,,V*6E
 
3.40621         ANGULO_LEME          iDivisorNMEA    -0.84000     
3.41320         MSG_UDP              iDivisorNMEA    $MXPGN,01F803,281C,0000000000005075*63
 
3.41651         MSG_UDP              iDivisorNMEA    $MXPGN,01F804,281C,0000002ADBC15075*63
 
3.45714         MSG_UDP              iDivisorNMEA    $HCHDG,283.0,0.0,E,23.3,W*6B
 
3.45779         MSG_UDP              iDivisorNMEA    $GPHDT,259.73,T*0F
 
3.46804         MSG_UDP              iDivisorNMEA    $TIROT,0.49,A*06
 
3.48093         MSG_UDP              iDivisorNMEA    $MXPGN,00FF3C,3808,8000F8FE00009F41*1C
 
3.50602         MSG_UDP              iDivisorNMEA    $MXPGN,00FF00,280B,0002000005049913*19
 
3.50694         MSG_UDP              iDivisorNMEA    $AGRSA,-0.84,A,,V*6E
 
3.50701         ANGULO_LEME          iDivisorNMEA    -0.84000     
3.51722         MSG_UDP              iDivisorNMEA    $MXPGN,01F803,281C,0000000000006476*67
 
3.52747         MSG_UDP              iDivisorNMEA    $MXPGN,01F804,281C,0000002ADBC16476*67
 
3.55808         MSG_UDP              iDivisorNMEA    $GPGGA,131757.000,2254.75016,S,04309.53919,W,1,12,0.90,10.35,M,-5.60,M,,*4B
 
3.55895         MSG_UDP              iDivisorNMEA    $GPGLL,2254.75016,S,04309.53919,W,131757.000,A,A*5D
 
3.56927         MSG_UDP              iDivisorNMEA    $GPRMC,131757.000,A,2254.75016,S,04309.53919,W,0.09,0.00,070323,23.30,W,A*1D
 
3.57957         MSG_UDP              iDivisorNMEA    $GPVTG,0.00,T,,M,0.09,N,0.16,K,A*33
 
3.58977         MSG_UDP              iDivisorNMEA    $HCHDG,283.0,0.0,E,23.3,W*6B
 
3.60001         MSG_UDP              iDivisorNMEA    $GPHDT,259.73,T*0F
 
3.61027         MSG_UDP              iDivisorNMEA    $TIROT,0.49,A*06
 
3.62077         MSG_UDP              iDivisorNMEA    $MXPGN,00FF16,7808,FF0000002B0A9F41*1B
 
3.63109         MSG_UDP              iDivisorNMEA    $GPGGA,,2254.75209,S,04309.53469,W,1,,,,M,,M,,*58
 
3.64138         MSG_UDP              iDivisorNMEA    $GPGLL,2254.75209,S,04309.53469,W,,A,A*43
 
3.65170         MSG_UDP              iDivisorNMEA    $GPVTG,281.40,T,,M,0.20,N,0.37,K,A*34
 
3.66202         MSG_UDP              iDivisorNMEA    $AGRSA,-0.84,A,,V*6E
 
3.66210         ANGULO_LEME          iDivisorNMEA    -0.84000     
3.67225         MSG_UDP              iDivisorNMEA    $GPGSA,A,3,08,10,16,18,26,27,28,31,32,66,65,86,1.60,1.40,1.40*07
 
3.68248         MSG_UDP              iDivisorNMEA    $GPGSV,3,1,12,08,34,230,37,10,44,162,34,16,15,308,40,18,23,079,38*70
 
3.69273         MSG_UDP              iDivisorNMEA    $GPGSV,3,2,12,26,05,343,36,27,63,263,43,28,13,021,43,31,08,012,40*7A
 
3.70301         MSG_UDP              iDivisorNMEA    $GPGSV,3,3,12,32,77,052,47,66,08,319,40,65,58,289,38,86,37,060,45*73
 
3.71324         MSG_UDP              iDivisorNMEA    $MXPGN,01F803,281C,0000000000007877*6B
 
3.72350         MSG_UDP              iDivisorNMEA    $MXPGN,01F804,281C,0000002B55C17877*6E
 
3.73369         MSG_UDP              iDivisorNMEA    $HCHDG,283.0,0.0,E,23.3,W*6B
 
3.74396         MSG_UDP              iDivisorNMEA    $GPHDT,259.72,T*0E
 
3.75422         MSG_UDP              iDivisorNMEA    $TIROT,0.29,A*00
 
3.76449         MSG_UDP              iDivisorNMEA    $AGRSA,-0.84,A,,V*6E
 
3.76455         ANGULO_LEME          iDivisorNMEA    -0.84000     
3.77474         MSG_UDP              iDivisorNMEA    $GPZDA,131756.690,07,03,2023,,*59
 
3.78493         MSG_UDP              iDivisorNMEA    $MXPGN,01F803,281C,0000000000008C78*10
 
3.79521         MSG_UDP              iDivisorNMEA    $MXPGN,01F804,281C,0000002B55C18C78*15
 
3.80546         MSG_UDP              iDivisorNMEA    $MXPGN,00FF00,280B,0002000005049913*19
 
3.81576         MSG_UDP              iDivisorNMEA    $HCHDG,283.0,0.0,E,23.3,W*6B
 
3.82599         MSG_UDP              iDivisorNMEA    $GPHDT,259.72,T*0E
 
3.83626         MSG_UDP              iDivisorNMEA    $TIROT,0.29,A*00
 
3.84653         MSG_UDP              iDivisorNMEA    $AGRSA,-0.84,A,,V*6E
 
3.84658         ANGULO_LEME          iDivisorNMEA    -0.84000     
3.85686         MSG_UDP              iDivisorNMEA    $MXPGN,01F803,281C,0000000000008C78*10
 
3.86778         MSG_UDP              iDivisorNMEA    $MXPGN,01F804,281C,0000005E1EC18C78*61
 
3.87779         MSG_UDP              iDivisorNMEA    $HCHDG,283.0,0.0,E,23.3,W*6B
 
3.88797         MSG_UDP              iDivisorNMEA    $GPHDT,259.72,T*0E
 
3.89813         MSG_UDP              iDivisorNMEA    $TIROT,0.29,A*00
 
3.90825         MSG_UDP              iDivisorNMEA    !AIVDM,1,1,,B,1:U8JFPP1CLrID5jqD=jrwwl08Qq,0*05
 
3.91837         MSG_UDP              iDivisorNMEA    $AGRSA,-0.84,A,,V*6E
 
3.91840         ANGULO_LEME          iDivisorNMEA    -0.84000     
3.92849         MSG_UDP              iDivisorNMEA    $SDDPT,1.78,0.00,*75
 
3.93882         MSG_UDP              iDivisorNMEA    $MXPGN,01F803,281C,0000000000008C78*10
 
3.94902         MSG_UDP              iDivisorNMEA    $MXPGN,01F804,281C,0000005E1EC18C78*61
 
3.95925         MSG_UDP              iDivisorNMEA    $MXPGN,01FF1A,782B,FFFAFF859F4105A0*6A
 
3.96947         MSG_UDP              iDivisorNMEA    $HCHDG,283.0,0.0,E,23.3,W*6B
 
3.97972         MSG_UDP              iDivisorNMEA    $GPHDT,259.72,T*0E
 
3.98994         MSG_UDP              iDivisorNMEA    $TIROT,0.39,A*01
 
4.00019         MSG_UDP              iDivisorNMEA    $MXPGN,01FF2C,7808,FFFFFFFF9F411740*6F
 
4.15635         MSG_UDP              iDivisorNMEA    $HCHDG,283.0,0.0,E,23.3,W*6B
 
4.15651         MSG_UDP              iDivisorNMEA    $GPHDT,259.73,T*0F
 
4.16678         MSG_UDP              iDivisorNMEA    $TIROT,0.49,A*06
 
4.20430         MSG_UDP              iDivisorNMEA    $MXPGN,00FF19,7808,0000000202009F41*15
 
4.20510         MSG_UDP              iDivisorNMEA    $AGRSA,-0.84,A,,V*6E
 
4.20521         ANGULO_LEME          iDivisorNMEA    -0.84000     
4.21545         MSG_UDP              iDivisorNMEA    $MXPGN,01F803,281C,000000000000147C*15
 
4.22574         MSG_UDP              iDivisorNMEA    $MXPGN,01F804,281C,0000005498C1147C*60
 
4.23599         MSG_UDP              iDivisorNMEA    $MXPGN,00FF19,7808,0080000A0A009F41*1D
 
4.25528         MSG_UDP              iDivisorNMEA    $MXPGN,00FF00,280B,0002000005049913*19
 
4.25654         MSG_UDP              iDivisorNMEA    $HCHDG,283.0,0.0,E,23.3,W*6B
 
4.26677         MSG_UDP              iDivisorNMEA    $GPHDT,259.73,T*0F
 
4.27701         MSG_UDP              iDivisorNMEA    $TIROT,0.29,A*00
 
4.28724         MSG_UDP              iDivisorNMEA    $MXPGN,00FF8C,6808,FFF10695C9409F41*64
 
4.29745         MSG_UDP              iDivisorNMEA    $MXPGN,00FF28,3808,FF08FFFDFC059F41*19
 
4.30773         MSG_UDP              iDivisorNMEA    $AGRSA,-0.84,A,,V*6E
 
4.30779         ANGULO_LEME          iDivisorNMEA    -0.84000     
4.31798         MSG_UDP              iDivisorNMEA    $MXPGN,01F803,281C,0000000000003C7E*66
 
4.32826         MSG_UDP              iDivisorNMEA    $MXPGN,01F804,281C,000000B8DCC13C7E*6E
 
4.35618         MSG_UDP              iDivisorNMEA    $HCHDG,283.0,0.0,E,23.3,W*6B
 
4.35629         MSG_UDP              iDivisorNMEA    $GPHDT,259.73,T*0F
 
4.36654         MSG_UDP              iDivisorNMEA    $TIROT,0.29,A*00
 
4.40489         MSG_UDP              iDivisorNMEA    $AGRSA,-0.84,A,,V*6E
 
4.40492         ANGULO_LEME          iDivisorNMEA    -0.84000     
4.41293         MSG_UDP              iDivisorNMEA    $MXPGN,01F803,281C,000000000000507F*10
 
4.41509         MSG_UDP              iDivisorNMEA    $MXPGN,01F804,281C,000000B8DCC1507F*18
 
4.45591         MSG_UDP              iDivisorNMEA    $HCHDG,283.0,0.0,E,23.3,W*6B
 
4.45616         MSG_UDP              iDivisorNMEA    $GPHDT,259.73,T*0F
 
4.46651         MSG_UDP              iDivisorNMEA    $TIROT,0.19,A*03
 
4.48005         MSG_UDP              iDivisorNMEA    $MXPGN,00FF3C,3808,8000F8FE00009F41*1C
 
4.50490         MSG_UDP              iDivisorNMEA    $MXPGN,00FF00,280B,0002000005049913*19
 
4.50575         MSG_UDP              iDivisorNMEA    $AGRSA,-0.84,A,,V*6E
 
4.50580         ANGULO_LEME          iDivisorNMEA    -0.84000     
4.51594         MSG_UDP              iDivisorNMEA    $MXPGN,01F803,281C,0000000000006480*6E
 
4.52971         MSG_UDP              iDivisorNMEA    $MXPGN,01F804,281C,000000B8DCC16480*66
 
4.55695         MSG_UDP              iDivisorNMEA    $GPGGA,131758.000,2254.75027,S,04309.53931,W,1,12,0.90,10.42,M,-5.60,M,,*4C
 
4.55875         MSG_UDP              iDivisorNMEA    $GPGLL,2254.75027,S,04309.53931,W,131758.000,A,A*5A
 
4.56791         MSG_UDP              iDivisorNMEA    $GPRMC,131758.000,A,2254.75027,S,04309.53931,W,0.19,0.00,070323,23.30,W,A*1B
 
4.57809         MSG_UDP              iDivisorNMEA    $GPVTG,0.00,T,,M,0.19,N,0.35,K,A*33
 
4.58828         MSG_UDP              iDivisorNMEA    $HCHDG,283.0,0.0,E,23.3,W*6B
 
4.59842         MSG_UDP              iDivisorNMEA    $GPHDT,259.72,T*0E
 
4.60856         MSG_UDP              iDivisorNMEA    $TIROT,0.19,A*03
 
4.61878         MSG_UDP              iDivisorNMEA    $MXPGN,00FF16,7808,FF0000002B0A9F41*1B
 
4.62890         MSG_UDP              iDivisorNMEA    $GPGGA,,2254.75209,S,04309.53469,W,1,,,,M,,M,,*58
 
4.63904         MSG_UDP              iDivisorNMEA    $GPGLL,2254.75209,S,04309.53469,W,,A,A*43
 
4.64924         MSG_UDP              iDivisorNMEA    $GPVTG,281.40,T,,M,0.20,N,0.37,K,A*34
 
4.65938         MSG_UDP              iDivisorNMEA    $AGRSA,-0.84,A,,V*6E
 
4.65940         ANGULO_LEME          iDivisorNMEA    -0.84000     
4.66953         MSG_UDP              iDivisorNMEA    $GPGSA,A,3,08,10,16,18,26,27,28,31,32,66,65,86,1.60,1.40,1.40*07
 
4.67966         MSG_UDP              iDivisorNMEA    $GPGSV,3,1,12,08,34,230,37,10,44,162,34,16,15,308,40,18,23,079,38*70
 
4.68984         MSG_UDP              iDivisorNMEA    $GPGSV,3,2,12,26,05,343,36,27,63,263,43,28,13,021,43,31,08,012,40*7A
 
4.70004         MSG_UDP              iDivisorNMEA    $GPGSV,3,3,12,32,77,052,47,66,08,319,40,65,58,289,38,86,37,060,45*73
 
4.71023         MSG_UDP              iDivisorNMEA    $MXPGN,01F803,281C,0000000000007881*62
 
4.72041         MSG_UDP              iDivisorNMEA    $MXPGN,01F804,281C,000000C17CC17881*11
 
4.73059         MSG_UDP              iDivisorNMEA    $HCHDG,283.0,0.0,E,23.3,W*6B
 
4.74076         MSG_UDP              iDivisorNMEA    $GPHDT,259.73,T*0F
 
4.75094         MSG_UDP              iDivisorNMEA    $TIROT,0.29,A*00
 
4.76113         MSG_UDP              iDivisorNMEA    $AGRSA,-0.84,A,,V*6E
 
4.76117         ANGULO_LEME          iDivisorNMEA    -0.84000     
4.77131         MSG_UDP              iDivisorNMEA    $GPZDA,131757.680,07,03,2023,,*59
 
4.78146         MSG_UDP              iDivisorNMEA    $MXPGN,01F803,281C,0000000000008C82*15
 
4.79162         MSG_UDP              iDivisorNMEA    $MXPGN,01F804,281C,000000C17CC18C82*66
 
4.80177         MSG_UDP              iDivisorNMEA    $MXPGN,00FF00,280B,0002000005049913*19
 
4.81195         MSG_UDP              iDivisorNMEA    $HCHDG,283.0,0.0,E,23.3,W*6B
 
4.82212         MSG_UDP              iDivisorNMEA    $GPHDT,259.73,T*0F
 
4.83229         MSG_UDP              iDivisorNMEA    $TIROT,0.29,A*00
 
4.84244         MSG_UDP              iDivisorNMEA    $AGRSA,-0.84,A,,V*6E
 
4.84249         ANGULO_LEME          iDivisorNMEA    -0.84000     
4.85264         MSG_UDP              iDivisorNMEA    $MXPGN,01F803,281C,0000000000008C82*15
 
4.86282         MSG_UDP              iDivisorNMEA    $MXPGN,01F804,281C,0000006501C18C82*62
 
4.87302         MSG_UDP              iDivisorNMEA    $HCHDG,283.0,0.0,E,23.3,W*6B
 
5.05547         MSG_UDP              iDivisorNMEA    $HCHDG,283.0,0.0,E,23.3,W*6B
 
5.05564         MSG_UDP              iDivisorNMEA    $GPHDT,259.73,T*0F
 
5.06648         MSG_UDP              iDivisorNMEA    $TIROT,0.49,A*06
 
5.10044         MSG_UDP              iDivisorNMEA    $GPGSA,A,3,08,10,16,18,21,23,24,26,27,,,,1.88,1.60,1.60*01
 
5.10134         MSG_UDP              iDivisorNMEA    $GPGSV,3,1,09,08,34,229,45,10,44,162,41,16,14,307,42,18,22,079,44*73
 
5.11163         MSG_UDP              iDivisorNMEA    $GPGSV,3,2,09,21,04,227,00,23,20,133,00,24,01,124,00,26,05,342,41*72
 
5.12190         MSG_UDP              iDivisorNMEA    $GPGSV,3,3,09,27,63,262,49*4B
 
5.13216         MSG_UDP              iDivisorNMEA    $MXPGN,01FA06,681C,8300A900C8840F60*68
 
5.14239         MSG_UDP              iDivisorNMEA    $MXPGN,01FA06,681C,008400A8EEFD0061*6C
 
5.15261         MSG_UDP              iDivisorNMEA    $MXPGN,01FA06,681C,FFFFFFFFFF014362*1E
 
5.16498         MSG_UDP              iDivisorNMEA    $GPGGA,131758.900,2254.75309,S,04309.53829,W,1,09,1.60,0.78,M,-5.00,M,,*78
 
5.17528         MSG_UDP              iDivisorNMEA    $GPGLL,2254.75309,S,04309.53829,W,131758.900,A,A*54
 
5.18548         MSG_UDP              iDivisorNMEA    $GPRMC,131758.900,A,2254.75309,S,04309.53829,W,0.01,148.14,070323,23.39,W,A*1D
 
5.19565         MSG_UDP              iDivisorNMEA    $GPVTG,148.14,T,,M,0.01,N,0.01,K,A*35
 
5.20579         MSG_UDP              iDivisorNMEA    $AGRSA,-0.84,A,,V*6E
 
5.20581         ANGULO_LEME          iDivisorNMEA    -0.84000     
5.21594         MSG_UDP              iDivisorNMEA    $MXPGN,01FF1A,680B,FF022B849F4105A0*1D
 
5.22609         MSG_UDP              iDivisorNMEA    $MXPGN,01F803,281C,0000000000000084*68
 
5.23625         MSG_UDP              iDivisorNMEA    $MXPGN,01F804,281C,0000006501C10084*1F
 
5.24641         MSG_UDP              iDivisorNMEA    $MXPGN,01FF1A,782B,FF010B049F4105C0*15
 
5.25663         MSG_UDP              iDivisorNMEA    $HCHDG,283.0,0.0,E,23.3,W*6B
 
5.26683         MSG_UDP              iDivisorNMEA    $GPHDT,259.72,T*0E
 
5.27701         MSG_UDP              iDivisorNMEA    $TIROT,0.49,A*06
 
5.28723         MSG_UDP              iDivisorNMEA    $MXPGN,00FF19,7808,0000000202009F41*15
 
5.29743         MSG_UDP              iDivisorNMEA    $AGRSA,-0.84,A,,V*6E
 
5.29747         ANGULO_LEME          iDivisorNMEA    -0.84000     
5.30761         MSG_UDP              iDivisorNMEA    $MXPGN,01F803,281C,0000000000001485*6C
 
5.31773         MSG_UDP              iDivisorNMEA    $MXPGN,01F804,281C,000000AB50C11485*1F
 
5.32794         MSG_UDP              iDivisorNMEA    $MXPGN,00FF19,7808,0080000A0A009F41*1D
 
5.33812         MSG_UDP              iDivisorNMEA    $MXPGN,00FF00,280B,0002000005049913*19
 
5.34833         MSG_UDP              iDivisorNMEA    $HCHDG,283.0,0.0,E,23.3,W*6B
 
5.35848         MSG_UDP              iDivisorNMEA    $GPHDT,259.71,T*0D
 
5.36868         MSG_UDP              iDivisorNMEA    $TIROT,0.39,A*01
 
5.37889         MSG_UDP              iDivisorNMEA    !AIVDO,1,1,,,B:UOH3P00G>VtaLf>d2gswuUoP06,0*2E
 
5.38906         MSG_UDP              iDivisorNMEA    $MXPGN,00FF8C,6808,FFF10695C9409F41*64
 
5.39923         MSG_UDP              iDivisorNMEA    $MXPGN,00FF28,3808,FF08FFFDFC059F41*19
 
5.40943         MSG_UDP              iDivisorNMEA    $AGRSA,-0.84,A,,V*6E
 
5.40945         ANGULO_LEME          iDivisorNMEA    -0.84000     
5.41961         MSG_UDP              iDivisorNMEA    $MXPGN,01F803,281C,0000000000001485*6C
 
5.42976         MSG_UDP              iDivisorNMEA    $MXPGN,01F804,281C,000000AB50C11485*1F
 
5.43994         MSG_UDP              iDivisorNMEA    $HCHDG,283.0,0.0,E,23.3,W*6B
 
5.45009         MSG_UDP              iDivisorNMEA    $GPHDT,259.71,T*0D
 
5.46029         MSG_UDP              iDivisorNMEA    $TIROT,0.39,A*01
 
5.47043         MSG_UDP              iDivisorNMEA    $AGRSA,-0.84,A,,V*6E
 
5.47048         ANGULO_LEME          iDivisorNMEA    -0.84000     
5.48063         MSG_UDP              iDivisorNMEA    $MXPGN,01F803,281C,0000000000003C87*1B
 
5.49082         MSG_UDP              iDivisorNMEA    $MXPGN,01F804,281C,0000002427C13C87*6D
 
5.50101         MSG_UDP              iDivisorNMEA    $HCHDG,283.0,0.0,E,23.3,W*6B
 
5.51119         MSG_UDP              iDivisorNMEA    $GPHDT,259.70,T*0C
 
5.52141         MSG_UDP              iDivisorNMEA    $TIROT,0.49,A*06
 
5.53160         MSG_UDP              iDivisorNMEA    $MXPGN,00FF3C,3808,8000F8FE00009F41*1C
 
5.54175         MSG_UDP              iDivisorNMEA    $MXPGN,00FF00,280B,0002000005049913*19
 
5.55190         MSG_UDP              iDivisorNMEA    $AGRSA,-0.84,A,,V*6E
 
5.55197         ANGULO_LEME          iDivisorNMEA    -0.84000     
5.56210         MSG_UDP              iDivisorNMEA    $MXPGN,01F803,281C,000000000000788A*12
 
5.57244         MSG_UDP              iDivisorNMEA    $MXPGN,01F804,281C,0000002427C1788A*64
 
5.58261         MSG_UDP              iDivisorNMEA    $GPGGA,131759.000,2254.75051,S,04309.53926,W,1,12,0.90,10.42,M,-5.60,M,,*4A
 
5.59280         MSG_UDP              iDivisorNMEA    $GPGLL,2254.75051,S,04309.53926,W,131759.000,A,A*5C
 
5.60295         MSG_UDP              iDivisorNMEA    $GPRMC,131759.000,A,2254.75051,S,04309.53926,W,0.19,0.00,070323,23.30,W,A*1D
 
5.61316         MSG_UDP              iDivisorNMEA    $GPVTG,0.00,T,,M,0.19,N,0.35,K,A*33
 
5.62333         MSG_UDP              iDivisorNMEA    $HCHDG,283.0,0.0,E,23.3,W*6B
 
5.63345         MSG_UDP              iDivisorNMEA    $GPHDT,259.70,T*0C
 
5.64365         MSG_UDP              iDivisorNMEA    $TIROT,0.59,A*07
 
5.65383         MSG_UDP              iDivisorNMEA    $MXPGN,00FF16,7808,FF0000002B0A9F41*1B
 
5.66403         MSG_UDP              iDivisorNMEA    $GPGGA,,2254.75209,S,04309.53429,W,1,,,,M,,M,,*5C
 
5.67424         MSG_UDP              iDivisorNMEA    $GPGLL,2254.75209,S,04309.53429,W,,A,A*47
 
5.68442         MSG_UDP              iDivisorNMEA    $GPVTG,281.40,T,,M,0.10,N,0.18,K,A*3A
 
5.69461         MSG_UDP              iDivisorNMEA    $AGRSA,-0.84,A,,V*6E
 
5.69465         ANGULO_LEME          iDivisorNMEA    -0.84000     
5.70480         MSG_UDP              iDivisorNMEA    $GPGSA,A,3,08,10,16,18,26,27,28,31,32,66,65,86,1.60,1.40,1.40*07
 
5.95438         MSG_UDP              iDivisorNMEA    $HCHDG,283.0,0.0,E,23.3,W*6B
 
5.95475         MSG_UDP              iDivisorNMEA    $GPHDT,259.71,T*0D
 
5.96498         MSG_UDP              iDivisorNMEA    $TIROT,0.49,A*06
 
5.97751         MSG_UDP              iDivisorNMEA    $MXPGN,01FF2C,7808,FFFFFFFF9F411780*63
 
5.98565         MSG_UDP              iDivisorNMEA    $MXPGN,01FF2C,7808,FFFF7FFFFFFF7F81*1E
 
5.99581         MSG_UDP              iDivisorNMEA    $MXPGN,01FF2C,7808,FF7FFFFFFFFFFF82*6C
 
6.00593         MSG_UDP              iDivisorNMEA    $MXPGN,01FF0D,780B,FF03000098900560*60
 
6.01611         MSG_UDP              iDivisorNMEA    $MXPGN,01FF2C,7808,FFFFFFFF7FFFFF83*6D
 
6.02627         MSG_UDP              iDivisorNMEA    $MXPGN,00FF3D,6808,7FFFFF0DFFFF9F41*6E
 
6.03645         MSG_UDP              iDivisorNMEA    $MXPGN,00FF00,280B,0002000005049913*19
 
6.04662         MSG_UDP              iDivisorNMEA    $AGRSA,-0.84,A,,V*6E
 
6.04667         ANGULO_LEME          iDivisorNMEA    -0.84000     
6.05682         MSG_UDP              iDivisorNMEA    $MXPGN,01F803,281C,000000000000C88E*62
 
6.06699         MSG_UDP              iDivisorNMEA    $MXPGN,01F804,281C,000000B91BC1C88E*1F
 
6.07742         MSG_UDP              iDivisorNMEA    $HCHDG,283.0,0.0,E,23.3,W*6B
 
6.08762         MSG_UDP              iDivisorNMEA    $GPHDT,259.71,T*0D
 
6.09775         MSG_UDP              iDivisorNMEA    $TIROT,0.49,A*06
 
6.10790         MSG_UDP              iDivisorNMEA    !AIVDM,1,1,,A,1539a0000wtrLpqjrVR@103n2`01,0*26
 
6.11806         MSG_UDP              iDivisorNMEA    $GPGSA,A,3,08,10,16,18,21,23,24,26,27,,,,1.88,1.60,1.60*01
 
6.12826         MSG_UDP              iDivisorNMEA    $GPGSV,3,1,09,08,34,229,45,10,44,162,41,16,14,307,42,18,22,079,44*73
 
6.13842         MSG_UDP              iDivisorNMEA    $GPGSV,3,2,09,21,04,227,00,23,20,133,00,24,01,124,00,26,05,342,41*72
 
6.14862         MSG_UDP              iDivisorNMEA    $GPGSV,3,3,09,27,63,262,49*4B
 
6.15877         MSG_UDP              iDivisorNMEA    $MXPGN,01FA06,681C,8300A900C88F0F80*14
 
6.16892         MSG_UDP              iDivisorNMEA    $MXPGN,01FA06,681C,008400A8EEFD0081*62
 
6.17904         MSG_UDP              iDivisorNMEA    $MXPGN,01FA06,681C,FFFFFFFFFF014382*10
 
6.18919         MSG_UDP              iDivisorNMEA    $GPGGA,131800.000,2254.75309,S,04309.53829,W,1,09,1.60,0.78,M,-5.00,M,,*73
 
6.19936         MSG_UDP              iDivisorNMEA    $GPGLL,2254.75309,S,04309.53829,W,131800.000,A,A*5F
 
6.20947         MSG_UDP              iDivisorNMEA    $GPRMC,131800.000,A,2254.75309,S,04309.53829,W,0.00,271.50,070323,23.39,W,A*1E
 
6.21960         MSG_UDP              iDivisorNMEA    $GPVTG,271.50,T,,M,0.00,N,0.00,K,A*3C
 
6.22975         MSG_UDP              iDivisorNMEA    $AGRSA,-0.84,A,,V*6E
 
6.22979         ANGULO_LEME          iDivisorNMEA    -0.84000     
6.23993         MSG_UDP              iDivisorNMEA    $MXPGN,01F803,281C,000000000000008F*1A
 
6.25008         MSG_UDP              iDivisorNMEA    $MXPGN,01F804,281C,0000005ACAC1008F*19
 
6.26025         MSG_UDP              iDivisorNMEA    $MXPGN,01FF1A,680B,FF022B849F4105C0*1F
 
6.27044         MSG_UDP              iDivisorNMEA    $MXPGN,01FF1A,782B,FF010B049F4105E0*13
 
6.28062         MSG_UDP              iDivisorNMEA    $HCHDG,283.0,0.0,E,23.3,W*6B
 
6.29076         MSG_UDP              iDivisorNMEA    $GPHDT,259.71,T*0D
 
6.30095         MSG_UDP              iDivisorNMEA    $TIROT,0.49,A*06
 
6.31112         MSG_UDP              iDivisorNMEA    $MXPGN,00FF19,7808,0000000202009F41*15
 
6.32127         MSG_UDP              iDivisorNMEA    $AGRSA,-0.84,A,,V*6E
 
6.32130         ANGULO_LEME          iDivisorNMEA    -0.84000     
6.33141         MSG_UDP              iDivisorNMEA    $MXPGN,01F803,281C,0000000000001490*68
 
6.34155         MSG_UDP              iDivisorNMEA    $MXPGN,01F804,281C,0000005ACAC11490*6B
 
6.35173         MSG_UDP              iDivisorNMEA    $MXPGN,00FF19,7808,0080000A0A009F41*1D
 
6.36186         MSG_UDP              iDivisorNMEA    $MXPGN,00FF00,280B,0002000005049913*19
 
6.37202         MSG_UDP              iDivisorNMEA    $HCHDG,283.0,0.0,E,23.3,W*6B
 
6.38221         MSG_UDP              iDivisorNMEA    $GPHDT,259.70,T*0C
 
6.39235         MSG_UDP              iDivisorNMEA    $TIROT,0.39,A*01
 
6.40257         MSG_UDP              iDivisorNMEA    $MXPGN,00FF8C,6808,FFF10695C9409F41*64
 
6.41278         MSG_UDP              iDivisorNMEA    $MXPGN,00FF28,3808,FF08FFFDFC059F41*19
 
6.42297         MSG_UDP              iDivisorNMEA    $AGRSA,-0.84,A,,V*6E
 
6.42304         ANGULO_LEME          iDivisorNMEA    -0.84000     
6.43318         MSG_UDP              iDivisorNMEA    $MXPGN,01F803,281C,0000000000003C92*1F
 
6.44334         MSG_UDP              iDivisorNMEA    $MXPGN,01F804,281C,0000008208C13C92*68
 
6.45358         MSG_UDP              iDivisorNMEA    $HCHDG,283.0,0.0,E,23.3,W*6B
 
6.46378         MSG_UDP              iDivisorNMEA    $GPHDT,259.70,T*0C
 
6.47396         MSG_UDP              iDivisorNMEA    $TIROT,0.39,A*01
 
6.48415         MSG_UDP              iDivisorNMEA    $AGRSA,-0.84,A,,V*6E
 
6.48418         ANGULO_LEME          iDivisorNMEA    -0.84000     
6.49433         MSG_UDP              iDivisorNMEA    $MXPGN,01F803,281C,0000000000005093*6B
 
6.50454         MSG_UDP              iDivisorNMEA    $MXPGN,01F804,281C,0000008208C15093*1C
 
6.51471         MSG_UDP              iDivisorNMEA    $HCHDG,283.0,0.0,E,23.3,W*6B
 
6.52488         MSG_UDP              iDivisorNMEA    $GPHDT,259.70,T*0C
 
6.53508         MSG_UDP              iDivisorNMEA    $TIROT,0.59,A*07
 
6.54526         MSG_UDP              iDivisorNMEA    $MXPGN,00FF3C,3808,8000F8FE00009F41*1C
 
6.55545         MSG_UDP              iDivisorNMEA    $MXPGN,00FF00,280B,0002000005049913*19
 
6.56563         MSG_UDP              iDivisorNMEA    $AGRSA,-0.84,A,,V*6E
 
6.56565         ANGULO_LEME          iDivisorNMEA    -0.84000     
6.57584         MSG_UDP              iDivisorNMEA    $MXPGN,01F803,281C,0000000000006494*6B
 
6.58618         MSG_UDP              iDivisorNMEA    $MXPGN,01F804,281C,0000008208C16494*1C
 
6.85361         MSG_UDP              iDivisorNMEA    $HCHDG,283.0,0.0,E,23.3,W*6B
 
6.85375         MSG_UDP              iDivisorNMEA    $GPHDT,259.68,T*05
 
6.86386         MSG_UDP              iDivisorNMEA    $TIROT,0.59,A*07
 
6.90278         MSG_UDP              iDivisorNMEA    $AGRSA,-0.84,A,,V*6E
 
6.90288         ANGULO_LEME          iDivisorNMEA    -0.84000     
6.90348         MSG_UDP              iDivisorNMEA    $SDDPT,1.76,0.00,*7B
 
6.91376         MSG_UDP              iDivisorNMEA    $MXPGN,01F803,281C,0000000000008C96*10
 
6.92399         MSG_UDP              iDivisorNMEA    $MXPGN,01F804,281C,0000000519C18C96*68
 
6.93860         MSG_UDP              iDivisorNMEA    !AIVDM,1,1,,A,1:UPuT001JLrQwAjr3?pbFip2W3h,0*4C
 
6.95060         MSG_UDP              iDivisorNMEA    $MXPGN,01FF1A,782B,FFFAFF859F410500*1B
 
6.95591         MSG_UDP              iDivisorNMEA    $HCHDG,283.0,0.0,E,23.3,W*6B
 
6.96623         MSG_UDP              iDivisorNMEA    $GPHDT,259.68,T*05
 
6.97659         MSG_UDP              iDivisorNMEA    $TIROT,0.79,A*05
 
6.98690         MSG_UDP              iDivisorNMEA    $MXPGN,01FF2C,7808,FFFFFFFF9F4117A0*1A
 
6.99721         MSG_UDP              iDivisorNMEA    $MXPGN,01FF2C,7808,FFFF7FFFFFFF7FA1*67
 
7.00753         MSG_UDP              iDivisorNMEA    $MXPGN,01FF2C,7808,FF7FFFFFFFFFFFA2*15
 
7.01780         MSG_UDP              iDivisorNMEA    $MXPGN,01FF2C,7808,FFFFFFFF7FFFFFA3*14
 
7.02814         MSG_UDP              iDivisorNMEA    $MXPGN,00FF3D,6808,7FFFFF0DFFFF9F41*6E
 
7.03843         MSG_UDP              iDivisorNMEA    $MXPGN,00FF00,280B,0002000005049913*19
 
7.04871         MSG_UDP              iDivisorNMEA    $AGRSA,-0.84,A,,V*6E
 
7.04881         ANGULO_LEME          iDivisorNMEA    -0.84000     
7.05901         MSG_UDP              iDivisorNMEA    $MXPGN,01F803,281C,000000000000B498*13
 
7.06930         MSG_UDP              iDivisorNMEA    $MXPGN,01F804,281C,0000000519C1B498*6B
 
7.07957         MSG_UDP              iDivisorNMEA    $HCHDG,283.0,0.0,E,23.3,W*6B
 
7.09026         MSG_UDP              iDivisorNMEA    $GPHDT,259.67,T*0A
 
7.10051         MSG_UDP              iDivisorNMEA    $TIROT,0.69,A*04
 
7.11078         MSG_UDP              iDivisorNMEA    $MXPGN,01FF0D,780B,FF03000098900580*6E
 
7.12105         MSG_UDP              iDivisorNMEA    $GPGSA,A,3,08,10,16,18,21,23,24,26,27,,,,1.88,1.60,1.60*01
 
7.13130         MSG_UDP              iDivisorNMEA    $GPGSV,3,1,09,08,34,229,45,10,44,162,41,16,14,307,42,18,22,079,44*73
 
7.14162         MSG_UDP              iDivisorNMEA    $GPGSV,3,2,09,21,04,227,00,23,20,133,00,24,01,124,00,26,05,342,41*72
 
7.15190         MSG_UDP              iDivisorNMEA    $GPGSV,3,3,09,27,63,262,49*4B
 
7.16219         MSG_UDP              iDivisorNMEA    $MXPGN,01FA06,681C,8300A900C8990FA0*13
 
7.17248         MSG_UDP              iDivisorNMEA    $MXPGN,01FA06,681C,008400A8EEFD00A1*1B
 
7.18273         MSG_UDP              iDivisorNMEA    $MXPGN,01FA06,681C,FFFFFFFFFF0143A2*69
 
7.19299         MSG_UDP              iDivisorNMEA    $GPGGA,131801.000,2254.75309,S,04309.53829,W,1,09,1.60,0.78,M,-5.00,M,,*72
 
7.20324         MSG_UDP              iDivisorNMEA    $GPGLL,2254.75309,S,04309.53829,W,131801.000,A,A*5E
 
7.21347         MSG_UDP              iDivisorNMEA    $GPRMC,131801.000,A,2254.75309,S,04309.53829,W,0.01,7.47,070323,23.39,W,A*1B
 
7.22377         MSG_UDP              iDivisorNMEA    $GPVTG,7.47,T,,M,0.01,N,0.01,K,A*39
 
7.23404         MSG_UDP              iDivisorNMEA    $AGRSA,-0.84,A,,V*6E
 
7.23412         ANGULO_LEME          iDivisorNMEA    -0.84000     
7.24428         MSG_UDP              iDivisorNMEA    $MXPGN,01FF1A,680B,FF022B849F4105E0*19
 
7.25452         MSG_UDP              iDivisorNMEA    $MXPGN,01F803,281C,0000000000000099*64
 
7.26479         MSG_UDP              iDivisorNMEA    $MXPGN,01F804,281C,000000BF5BC10099*62
 
7.27507         MSG_UDP              iDivisorNMEA    $MXPGN,01FF1A,782B,FF010B049F410500*66
 
7.28531         MSG_UDP              iDivisorNMEA    $HCHDG,283.0,0.0,E,23.3,W*6B
 
7.29554         MSG_UDP              iDivisorNMEA    $GPHDT,259.67,T*0A
 
7.30573         MSG_UDP              iDivisorNMEA    $TIROT,0.69,A*04
 
7.31598         MSG_UDP              iDivisorNMEA    $MXPGN,00FF19,7808,0000000202009F41*15
 
7.32624         MSG_UDP              iDivisorNMEA    $AGRSA,-0.84,A,,V*6E
 
7.32632         ANGULO_LEME          iDivisorNMEA    -0.84000     
7.33664         MSG_UDP              iDivisorNMEA    $MXPGN,01F803,281C,000000000000149A*19
 
7.34691         MSG_UDP              iDivisorNMEA    $MXPGN,01F804,281C,000000BF5BC1149A*1F
 
7.35718         MSG_UDP              iDivisorNMEA    $MXPGN,00FF19,7808,0080000A0A009F41*1D
 
7.36744         MSG_UDP              iDivisorNMEA    $MXPGN,00FF00,280B,0002000005049913*19
 
7.37770         MSG_UDP              iDivisorNMEA    $HCHDG,283.0,0.0,E,23.3,W*6B
 
7.38795         MSG_UDP              iDivisorNMEA    $GPHDT,259.66,T*0B
 
7.39825         MSG_UDP              iDivisorNMEA    $TIROT,0.89,A*0A
 
7.40850         MSG_UDP              iDivisorNMEA    $MXPGN,00FF8C,6808,FFF10695C9409F41*64
 
7.41876         MSG_UDP              iDivisorNMEA    $MXPGN,00FF28,3808,FF08FFFDFC059F41*19
 
7.42901         MSG_UDP              iDivisorNMEA    !AIVDO,1,1,,,B:UOH3P017>VtbLf>dJgswPUoP06,0*01
 
7.43924         MSG_UDP              iDivisorNMEA    $AGRSA,-0.84,A,,V*6E
 
7.43930         ANGULO_LEME          iDivisorNMEA    -0.84000     
7.44953         MSG_UDP              iDivisorNMEA    $MXPGN,01F803,281C,0000000000003C9C*6E
 
7.45981         MSG_UDP              iDivisorNMEA    $MXPGN,01F804,281C,00000009C5C13C9C*64
 
7.47009         MSG_UDP              iDivisorNMEA    $HCHDG,283.0,0.0,E,23.3,W*6B
 
7.48038         MSG_UDP              iDivisorNMEA    $GPHDT,259.65,T*08
 
7.49066         MSG_UDP              iDivisorNMEA    $TIROT,0.89,A*0A
 
7.50096         MSG_UDP              iDivisorNMEA    $AGRSA,-0.84,A,,V*6E
 
7.50105         ANGULO_LEME          iDivisorNMEA    -0.84000     
7.51128         MSG_UDP              iDivisorNMEA    $MXPGN,01F803,281C,000000000000509D*1C
 
7.75198         MSG_UDP              iDivisorNMEA    $MXPGN,00FF00,280B,0002000005049913*19
 
7.75295         MSG_UDP              iDivisorNMEA    $HCHDG,282.9,0.0,E,23.3,W*63
 
7.76246         MSG_UDP              iDivisorNMEA    $GPHDT,259.62,T*0F
 
7.77276         MSG_UDP              iDivisorNMEA    $TIROT,0.69,A*04
 
7.80176         MSG_UDP              iDivisorNMEA    $AGRSA,-0.84,A,,V*6E
 
7.80184         ANGULO_LEME          iDivisorNMEA    -0.84000     
7.80898         MSG_UDP              iDivisorNMEA    $MXPGN,01F803,281C,000000000000A0A1*65
 
7.81229         MSG_UDP              iDivisorNMEA    $MXPGN,01F804,281C,000000E041C1A0A1*60
 
7.85284         MSG_UDP              iDivisorNMEA    $HCHDG,282.9,0.0,E,23.3,W*63
 
7.85296         MSG_UDP              iDivisorNMEA    $GPHDT,259.60,T*0D
 
7.86321         MSG_UDP              iDivisorNMEA    $TIROT,0.49,A*06
 
7.90189         MSG_UDP              iDivisorNMEA    $AGRSA,-0.84,A,,V*6E
 
7.90201         ANGULO_LEME          iDivisorNMEA    -0.84000     
7.90273         MSG_UDP              iDivisorNMEA    $SDDPT,1.76,0.00,*7B
 
7.91296         MSG_UDP              iDivisorNMEA    $MXPGN,01F803,281C,000000000000B4A2*61
 
7.92316         MSG_UDP              iDivisorNMEA    $MXPGN,01F804,281C,000000E041C1B4A2*64
 
7.95308         MSG_UDP              iDivisorNMEA    $HCHDG,282.9,0.0,E,23.3,W*63
 
7.95325         MSG_UDP              iDivisorNMEA    $GPHDT,259.59,T*07
 
7.96353         MSG_UDP              iDivisorNMEA    $TIROT,0.49,A*06
 
7.97585         MSG_UDP              iDivisorNMEA    $MXPGN,01FF22,2808,FF01FFFF9F410CE0*1E
 
7.98413         MSG_UDP              iDivisorNMEA    $MXPGN,01FF22,2808,FFFF00000A0039E1*6C
 
8.00188         MSG_UDP              iDivisorNMEA    $MXPGN,00FF00,280B,0002000005049913*19
 
8.00508         MSG_UDP              iDivisorNMEA    $AGRSA,-0.84,A,,V*6E
 
8.00517         ANGULO_LEME          iDivisorNMEA    -0.84000     
8.01545         MSG_UDP              iDivisorNMEA    $MXPGN,01F803,281C,000000000000B4A2*61
 
8.02569         MSG_UDP              iDivisorNMEA    $MXPGN,01F804,281C,000000E041C1B4A2*64
 
8.05298         MSG_UDP              iDivisorNMEA    $HCHDG,282.9,0.0,E,23.3,W*63
 
8.05313         MSG_UDP              iDivisorNMEA    $GPHDT,259.59,T*07
 
8.06342         MSG_UDP              iDivisorNMEA    $TIROT,0.49,A*06
 
8.07371         MSG_UDP              iDivisorNMEA    $MXPGN,01FF0D,780B,FF030000989005A0*17
 
8.09783         MSG_UDP              iDivisorNMEA    $GPGSA,A,3,08,10,16,18,21,23,24,26,27,,,,1.88,1.60,1.60*01
 
8.09964         MSG_UDP              iDivisorNMEA    $GPGSV,3,1,09,08,34,229,45,10,44,162,41,16,14,307,42,18,22,079,44*73
 
8.10891         MSG_UDP              iDivisorNMEA    $GPGSV,3,2,09,21,04,227,00,23,20,133,00,24,01,124,00,26,05,342,41*72
 
8.11919         MSG_UDP              iDivisorNMEA    $GPGSV,3,3,09,27,63,262,49*4B
 
8.12943         MSG_UDP              iDivisorNMEA    $MXPGN,01FA06,681C,8300A900C8A30FC0*63
 
8.13969         MSG_UDP              iDivisorNMEA    $MXPGN,01FA06,681C,008400A8EF0300C1*1B
 
8.14990         MSG_UDP              iDivisorNMEA    $MXPGN,01FA06,681C,FFFFFFFFFF0143C2*6B
 
8.16014         MSG_UDP              iDivisorNMEA    $GPGGA,131802.000,2254.75309,S,04309.53829,W,1,09,1.60,0.78,M,-5.00,M,,*71
 
8.17037         MSG_UDP              iDivisorNMEA    $GPGLL,2254.75309,S,04309.53829,W,131802.000,A,A*5D
 
8.18056         MSG_UDP              iDivisorNMEA    $GPRMC,131802.000,A,2254.75309,S,04309.53829,W,0.00,328.92,070323,23.39,W,A*1F
 
8.19078         MSG_UDP              iDivisorNMEA    $GPVTG,328.92,T,,M,0.00,N,0.00,K,A*3F
 
8.20100         MSG_UDP              iDivisorNMEA    $AGRSA,-0.84,A,,V*6E
 
8.20106         ANGULO_LEME          iDivisorNMEA    -0.84000     
8.21123         MSG_UDP              iDivisorNMEA    $MXPGN,01FF1A,680B,FF022B849F410500*6C
 
8.22149         MSG_UDP              iDivisorNMEA    $MXPGN,01F803,281C,00000000000000A3*16
 
8.23181         MSG_UDP              iDivisorNMEA    $MXPGN,01F804,281C,000000778CC100A3*18
 
8.24204         MSG_UDP              iDivisorNMEA    $MXPGN,01FF1A,782B,FF010B049F410520*64
 
8.25238         MSG_UDP              iDivisorNMEA    $HCHDG,282.9,0.0,E,23.3,W*63
 
8.26317         MSG_UDP              iDivisorNMEA    $GPHDT,259.59,T*07
 
8.27343         MSG_UDP              iDivisorNMEA    $TIROT,0.49,A*06
 
8.28371         MSG_UDP              iDivisorNMEA    $AGRSA,-0.84,A,,V*6E
 
8.28379         ANGULO_LEME          iDivisorNMEA    -0.84000     
8.29395         MSG_UDP              iDivisorNMEA    $MXPGN,01F803,281C,00000000000014A4*14
 
8.30416         MSG_UDP              iDivisorNMEA    $MXPGN,01F804,281C,000000778CC114A4*1A
 
8.31440         MSG_UDP              iDivisorNMEA    $HCHDG,282.9,0.0,E,23.3,W*63
 
8.32468         MSG_UDP              iDivisorNMEA    $GPHDT,259.57,T*09
 
8.33498         MSG_UDP              iDivisorNMEA    $TIROT,0.49,A*06
 
8.34522         MSG_UDP              iDivisorNMEA    $MXPGN,00FF00,280B,0002000005049913*19
 
8.35547         MSG_UDP              iDivisorNMEA    $MXPGN,00FF28,3808,FF08FFFDFC059F41*19
 
8.36578         MSG_UDP              iDivisorNMEA    $AGRSA,-0.84,A,,V*6E
 
8.36584         ANGULO_LEME          iDivisorNMEA    -0.84000     
8.37606         MSG_UDP              iDivisorNMEA    $MXPGN,01F803,281C,0000000000003CA6*63
 
8.38632         MSG_UDP              iDivisorNMEA    $MXPGN,01F804,281C,00000072CAC13CA6*11
 
8.39659         MSG_UDP              iDivisorNMEA    $HCHDG,282.9,0.0,E,23.3,W*63
 
8.40690         MSG_UDP              iDivisorNMEA    $GPHDT,259.57,T*09
 
8.41723         MSG_UDP              iDivisorNMEA    $TIROT,0.29,A*00
 
8.42750         MSG_UDP              iDivisorNMEA    $MXPGN,01FF2C,7808,FFFFFFFF9F4117C0*18
 
8.43768         MSG_UDP              iDivisorNMEA    $MXPGN,01FF2C,7808,FFFF7FFFFFFF7FC1*65
 
8.44796         MSG_UDP              iDivisorNMEA    $MXPGN,01FF2C,7808,FF7FFFFFFFFFFFC2*17
 
8.45821         MSG_UDP              iDivisorNMEA    $MXPGN,01FF2C,7808,FFFFFFFF7FFFFFC3*16
 
8.65224         MSG_UDP              iDivisorNMEA    $HCHDG,282.9,0.0,E,23.3,W*63
 
8.65245         MSG_UDP              iDivisorNMEA    $GPHDT,259.56,T*08
 
8.66279         MSG_UDP              iDivisorNMEA    $TIROT,0.39,A*01
 
8.67304         MSG_UDP              iDivisorNMEA    !AIVDM,1,1,,A,1:U85d001;LrMd=jqa5=FJbH0U`h,0*08
 
8.68329         MSG_UDP              iDivisorNMEA    $MXPGN,00FF8C,6808,FFF10695C9409F41*64
 
8.70135         MSG_UDP              iDivisorNMEA    $AGRSA,-0.84,A,,V*6E
 
8.70144         ANGULO_LEME          iDivisorNMEA    -0.84000     
8.70469         MSG_UDP              iDivisorNMEA    $GPZDA,131801.680,07,03,2023,,*55
 
8.71499         MSG_UDP              iDivisorNMEA    $MXPGN,01F803,281C,0000000000008CAA*1F
 
8.72525         MSG_UDP              iDivisorNMEA    $MXPGN,01F804,281C,000000CDF2C18CAA*19
 
8.75139         MSG_UDP              iDivisorNMEA    $MXPGN,00FF00,280B,0002000005049913*19
 
8.75200         MSG_UDP              iDivisorNMEA    $HCHDG,282.9,0.0,E,23.3,W*63
 
8.76231         MSG_UDP              iDivisorNMEA    $GPHDT,259.56,T*08
 
8.77304         MSG_UDP              iDivisorNMEA    $TIROT,0.39,A*01
 
8.80207         MSG_UDP              iDivisorNMEA    $AGRSA,-0.84,A,,V*6E
 
8.80215         ANGULO_LEME          iDivisorNMEA    -0.84000     
8.80889         MSG_UDP              iDivisorNMEA    $MXPGN,01F803,281C,000000000000A0AB*16
 
8.81316         MSG_UDP              iDivisorNMEA    $MXPGN,01F804,281C,000000C1D1C1A0AB*64
 
8.85202         MSG_UDP              iDivisorNMEA    $HCHDG,282.9,0.0,E,23.3,W*63
 
8.85213         MSG_UDP              iDivisorNMEA    $GPHDT,259.56,T*08
 
8.86241         MSG_UDP              iDivisorNMEA    $TIROT,0.49,A*06
 
8.88718         MSG_UDP              iDivisorNMEA    !AIVDM,1,1,,B,1:U8RjPP2GtrMhUjqKCC3?v4281b,0*3F
 
8.90082         MSG_UDP              iDivisorNMEA    $AGRSA,-0.84,A,,V*6E
 
8.90089         ANGULO_LEME          iDivisorNMEA    -0.84000     
8.90181         MSG_UDP              iDivisorNMEA    $SDDPT,1.76,0.00,*7B
 
8.91112         MSG_UDP              iDivisorNMEA    $MXPGN,01F803,281C,000000000000B4AC*10
 
8.92143         MSG_UDP              iDivisorNMEA    $MXPGN,01F804,281C,000000C1D1C1B4AC*62
 
8.95193         MSG_UDP              iDivisorNMEA    $HCHDG,282.9,0.0,E,23.3,W*63
 
8.95213         MSG_UDP              iDivisorNMEA    $GPHDT,259.56,T*08
 
8.96243         MSG_UDP              iDivisorNMEA    $TIROT,0.49,A*06
 
9.00100         MSG_UDP              iDivisorNMEA    $MXPGN,00FF00,280B,0002000005049913*19
 
9.00164         MSG_UDP              iDivisorNMEA    $AGRSA,-0.84,A,,V*6E
 
9.00174         ANGULO_LEME          iDivisorNMEA    -0.84000     
9.01196         MSG_UDP              iDivisorNMEA    $MXPGN,01F803,281C,000000000000B4AC*10
 
9.02227         MSG_UDP              iDivisorNMEA    $MXPGN,01F804,281C,000000C1D1C1B4AC*62
 
9.05110         MSG_UDP              iDivisorNMEA    $MXPGN,01FF0D,780B,FF03000098900500*66
 
9.05175         MSG_UDP              iDivisorNMEA    $HCHDG,282.9,0.0,E,23.3,W*63
 
9.06209         MSG_UDP              iDivisorNMEA    $GPHDT,259.57,T*09
 
9.07234         MSG_UDP              iDivisorNMEA    $TIROT,0.69,A*04
 
9.09690         MSG_UDP              iDivisorNMEA    $GPGSA,A,3,08,10,16,18,21,23,24,26,27,,,,1.88,1.60,1.60*01
 
9.09882         MSG_UDP              iDivisorNMEA    $GPGSV,3,1,09,08,34,229,45,10,44,162,41,16,14,307,42,18,22,079,44*73
 
9.10807         MSG_UDP              iDivisorNMEA    $GPGSV,3,2,09,21,04,227,00,23,20,133,00,24,01,124,00,26,05,342,41*72
 
9.11829         MSG_UDP              iDivisorNMEA    $GPGSV,3,3,09,27,63,262,49*4B
 
9.12859         MSG_UDP              iDivisorNMEA    $MXPGN,01FA06,681C,8300A900C8AD0FE0*12
 
9.13889         MSG_UDP              iDivisorNMEA    $MXPGN,01FA06,681C,008400A8EF0300E1*1D
 
9.14938         MSG_UDP              iDivisorNMEA    $MXPGN,01FA06,681C,FFFFFFFFFF0143E2*6D
 
9.15964         MSG_UDP              iDivisorNMEA    $GPGGA,131803.000,2254.75309,S,04309.53829,W,1,09,1.60,0.78,M,-5.00,M,,*70
 
9.16993         MSG_UDP              iDivisorNMEA    $GPGLL,2254.75309,S,04309.53829,W,131803.000,A,A*5C
 
9.18021         MSG_UDP              iDivisorNMEA    $GPRMC,131803.000,A,2254.75309,S,04309.53829,W,0.00,284.28,070323,23.39,W,A*18
 
