%%%%%%%%%%%%%%%%%%%%%%%%%%%%%%%%%%%%%%%%%%%%%%%%%%%%%%%%%%%
%% LOG FILE:       /home/moos-ivp-douglas/log/teste_7_3_2023_____10_13_37/teste_7_3_2023_____10_13_37.alog
%% FILE OPENED ON  Wed Dec 31 21:00:00 1969
%% LOGSTART           1678194816.472522
%%%%%%%%%%%%%%%%%%%%%%%%%%%%%%%%%%%%%%%%%%%%%%%%%%%%%%%%%%%
-0.03495        MOOS_DEBUG           pHelmIvP        pHelmIvP AllStop: ManualOverride 
-0.03494        DESIRED_SPEED        pHelmIvP        0.00000      
-0.03494        DESIRED_HEADING      pHelmIvP        0.00000      
0.16576         DESIRED_RUDDER       pMarinePIDV22   0.00000      
0.16576         DESIRED_THRUST       pMarinePIDV22   0.00000      
0.64689         ANGULO_LEME          iDivisorNMEA    -0.84000     
0.74879         MSG_UDP              iDivisorNMEA    $MXPGN,01F804,281C,0000006E64C10017*66
 
0.75896         MSG_UDP              iDivisorNMEA    $MXPGN,01FF06,380B,060001FF99130FA0*1C
 
0.76914         MSG_UDP              iDivisorNMEA    $MXPGN,01FF06,380B,0001B502002D01A1*6D
 
0.77927         MSG_UDP              iDivisorNMEA    $MXPGN,01FF06,380B,FFFFFFFFFFF53CA2*6E
 
0.78947         MSG_UDP              iDivisorNMEA    $HCHDG,284.2,0.0,E,23.3,W*6E
 
0.79962         MSG_UDP              iDivisorNMEA    $GPHDT,260.88,T*01
 
0.80979         MSG_UDP              iDivisorNMEA    $TIROT,-0.19,A*2E
 
0.81994         MSG_UDP              iDivisorNMEA    $MXPGN,00FF00,280B,0002000005049913*19
 
0.83007         MSG_UDP              iDivisorNMEA    $AGRSA,-0.84,A,,V*6E
 
0.83008         ANGULO_LEME          iDivisorNMEA    -0.84000     
0.84026         MSG_UDP              iDivisorNMEA    $MXPGN,01F803,281C,0000000000001418*68
 
0.85038         MSG_UDP              iDivisorNMEA    $MXPGN,01F804,281C,0000006E64C11418*6C
 
0.86054         MSG_UDP              iDivisorNMEA    $MXPGN,00FF19,7808,0000000202009F41*15
 
0.87068         MSG_UDP              iDivisorNMEA    $MXPGN,00FF19,7808,0080000A0A009F41*1D
 
0.88081         MSG_UDP              iDivisorNMEA    $HCHDG,284.2,0.0,E,23.3,W*6E
 
0.89098         MSG_UDP              iDivisorNMEA    $GPHDT,260.90,T*08
 
0.90114         MSG_UDP              iDivisorNMEA    $TIROT,-0.19,A*2E
 
0.91128         MSG_UDP              iDivisorNMEA    $MXPGN,00FF8C,6808,FFF10695C9409F41*64
 
0.92147         MSG_UDP              iDivisorNMEA    $MXPGN,00FF28,3808,FF08FFFDFC059F41*19
 
0.93166         MSG_UDP              iDivisorNMEA    !AIVDM,1,1,,B,1:U8JFPP00LrH:AjqAhK7ww<08El,0*11
 
0.94182         MSG_UDP              iDivisorNMEA    $AGRSA,-0.84,A,,V*6E
 
0.94186         ANGULO_LEME          iDivisorNMEA    -0.84000     
0.95200         MSG_UDP              iDivisorNMEA    $MXPGN,01F803,281C,0000000000002819*66
 
0.96218         MSG_UDP              iDivisorNMEA    $MXPGN,01F804,281C,0000005AA7C12819*11
 
0.97238         MSG_UDP              iDivisorNMEA    $HCHDG,284.2,0.0,E,23.3,W*6E
 
1.26962         MSG_UDP              iDivisorNMEA    $AGRSA,-0.84,A,,V*6E
 
1.26966         ANGULO_LEME          iDivisorNMEA    -0.84000     
1.28274         MSG_UDP              iDivisorNMEA    $MXPGN,01F803,281C,0000000000008C1E*6B
 
1.28376         MSG_UDP              iDivisorNMEA    $MXPGN,01F804,281C,000000E18EC18C1E*17
 
1.30474         MSG_UDP              iDivisorNMEA    !AIVDO,1,1,,,B:UOH3P01G>VtQLf>UFgswjUoP06,0*45
 
1.32090         MSG_UDP              iDivisorNMEA    $HCHDG,284.3,0.0,E,23.3,W*6F
 
1.32095         MSG_UDP              iDivisorNMEA    $GPHDT,260.96,T*0E
 
1.33106         MSG_UDP              iDivisorNMEA    $TIROT,0.19,A*03
 
1.36963         MSG_UDP              iDivisorNMEA    $AGRSA,-0.84,A,,V*6E
 
1.36966         ANGULO_LEME          iDivisorNMEA    -0.84000     
1.37053         MSG_UDP              iDivisorNMEA    $SDDPT,1.76,0.00,*7B
 
1.38152         MSG_UDP              iDivisorNMEA    $MXPGN,01F803,281C,000000000000A01F*62
 
1.39170         MSG_UDP              iDivisorNMEA    $MXPGN,01F804,281C,000000E18EC1A01F*1E
 
1.42053         MSG_UDP              iDivisorNMEA    $HCHDG,284.3,0.0,E,23.3,W*6F
 
1.42094         MSG_UDP              iDivisorNMEA    $GPHDT,260.95,T*0D
 
1.43105         MSG_UDP              iDivisorNMEA    $TIROT,0.19,A*03
 
1.45963         MSG_UDP              iDivisorNMEA    $MXPGN,01FF2C,7808,FFFFFFFF9F4117C0*18
 
1.46061         MSG_UDP              iDivisorNMEA    $MXPGN,01FF2C,7808,FFFF7FFFFFFF7FC1*65
 
1.47078         MSG_UDP              iDivisorNMEA    $MXPGN,01FF2C,7808,FF7FFFFFFFFFFFC2*17
 
1.48097         MSG_UDP              iDivisorNMEA    $MXPGN,00FF00,280B,0002000005049913*19
 
1.49117         MSG_UDP              iDivisorNMEA    $MXPGN,01FF2C,7808,FFFFFFFF7FFFFFC3*16
 
1.50130         MSG_UDP              iDivisorNMEA    $AGRSA,-0.84,A,,V*6E
 
1.50135         ANGULO_LEME          iDivisorNMEA    -0.84000     
1.51145         MSG_UDP              iDivisorNMEA    $MXPGN,01F803,281C,000000000000B420*10
 
1.52163         MSG_UDP              iDivisorNMEA    $MXPGN,01F804,281C,000000E18EC1B420*6C
 
1.53177         MSG_UDP              iDivisorNMEA    $MXPGN,00FF3D,6808,7FFFFF0DFFFF9F41*6E
 
1.54194         MSG_UDP              iDivisorNMEA    $MXPGN,00FF3D,6808,0000FF0BFFFF9F41*19
 
1.55208         MSG_UDP              iDivisorNMEA    $MXPGN,01FF1A,680B,FF022B849F410540*68
 
1.56221         MSG_UDP              iDivisorNMEA    $HCHDG,284.3,0.0,E,23.3,W*6F
 
1.57235         MSG_UDP              iDivisorNMEA    $GPHDT,260.95,T*0D
 
1.58256         MSG_UDP              iDivisorNMEA    $TIROT,0.19,A*03
 
1.59275         MSG_UDP              iDivisorNMEA    $MXPGN,01FF1A,782B,FF010B049F4105E0*13
 
1.60293         MSG_UDP              iDivisorNMEA    $MXPGN,00FF3D,6808,FFFFFF0CFFFF9F41*18
 
1.61314         MSG_UDP              iDivisorNMEA    $MXPGN,01FF0D,780B,FF030000989005E0*13
 
1.62334         MSG_UDP              iDivisorNMEA    $MXPGN,00FF3D,6808,FFFFFF03FFFF9F41*68
 
1.63352         MSG_UDP              iDivisorNMEA    $GPGGA,131337.000,2254.75220,S,04309.53676,W,1,12,0.90,10.81,M,-5.60,M,,*47
 
1.64368         MSG_UDP              iDivisorNMEA    $GPGLL,2254.75220,S,04309.53676,W,131337.000,A,A*5E
 
1.65388         MSG_UDP              iDivisorNMEA    $GPRMC,131337.000,A,2254.75220,S,04309.53676,W,0.29,222.59,070323,23.30,W,A*12
 
1.66407         MSG_UDP              iDivisorNMEA    $GPVTG,222.59,T,,M,0.29,N,0.53,K,A*3E
 
1.67423         MSG_UDP              iDivisorNMEA    $GPGGA,131338.000,2254.75309,S,04309.53829,W,1,09,1.60,0.65,M,-5.00,M,,*7F
 
1.68440         MSG_UDP              iDivisorNMEA    $GPGLL,2254.75309,S,04309.53829,W,131338.000,A,A*5F
 
1.69452         MSG_UDP              iDivisorNMEA    $GPRMC,131338.000,A,2254.75309,S,04309.53829,W,0.00,330.83,070323,23.39,W,A*14
 
1.70472         MSG_UDP              iDivisorNMEA    $GPVTG,330.83,T,,M,0.00,N,0.00,K,A*36
 
1.71493         MSG_UDP              iDivisorNMEA    $AGRSA,-0.84,A,,V*6E
 
1.71497         ANGULO_LEME          iDivisorNMEA    -0.84000     
1.72513         MSG_UDP              iDivisorNMEA    $GPGSA,A,3,08,10,16,18,21,23,24,26,27,,,,1.88,1.60,1.60*01
 
1.73530         MSG_UDP              iDivisorNMEA    $GPGSV,3,1,09,08,32,227,44,10,45,164,42,16,15,305,41,18,23,081,44*78
 
1.74550         MSG_UDP              iDivisorNMEA    $GPGSV,3,2,09,21,02,228,00,23,21,134,00,24,01,122,00,26,05,341,42*7B
 
1.75570         MSG_UDP              iDivisorNMEA    $GPGSV,3,3,09,27,62,257,50*44
 
1.76591         MSG_UDP              iDivisorNMEA    $MXPGN,01FA06,681C,8300A700C8210FC0*1C
 
1.77612         MSG_UDP              iDivisorNMEA    $MXPGN,01FA06,681C,008500A6ECED00C1*13
 
1.78645         MSG_UDP              iDivisorNMEA    $MXPGN,01FA06,681C,FFFFFFFFFF0141C2*69
 
1.79663         MSG_UDP              iDivisorNMEA    $MXPGN,01F803,281C,0000000000000021*67
 
1.80681         MSG_UDP              iDivisorNMEA    $MXPGN,01F804,281C,000000410AC10021*66
 
1.81700         MSG_UDP              iDivisorNMEA    $MXPGN,00FF3D,6808,FFFFFF02FFFF9F41*69
 
1.82716         MSG_UDP              iDivisorNMEA    $HCHDG,284.3,0.0,E,23.3,W*6F
 
1.83731         MSG_UDP              iDivisorNMEA    $GPHDT,260.96,T*0E
 
1.84752         MSG_UDP              iDivisorNMEA    $TIROT,0.19,A*03
 
1.85768         MSG_UDP              iDivisorNMEA    $AGRSA,-0.84,A,,V*6E
 
1.85771         ANGULO_LEME          iDivisorNMEA    -0.84000     
1.86790         MSG_UDP              iDivisorNMEA    $MXPGN,01F803,281C,0000000000001422*61
 
1.87805         MSG_UDP              iDivisorNMEA    $MXPGN,01F804,281C,000000410AC11422*60
 
1.88822         MSG_UDP              iDivisorNMEA    $MXPGN,00FF19,7808,0000000202009F41*15
 
1.89841         MSG_UDP              iDivisorNMEA    $MXPGN,00FF19,7808,0080000A0A009F41*1D
 
1.90857         MSG_UDP              iDivisorNMEA    $MXPGN,00FF00,280B,0002000005049913*19
 
1.91870         MSG_UDP              iDivisorNMEA    $HCHDG,284.3,0.0,E,23.3,W*6F
 
1.92886         MSG_UDP              iDivisorNMEA    $GPHDT,260.97,T*0F
 
1.93917         MSG_UDP              iDivisorNMEA    $TIROT,0.19,A*03
 
1.94969         MSG_UDP              iDivisorNMEA    $MXPGN,00FF8C,6808,FFF10695C9409F41*64
 
2.16928         MSG_UDP              iDivisorNMEA    $AGRSA,-0.84,A,,V*6E
 
2.16937         ANGULO_LEME          iDivisorNMEA    -0.84000     
2.17021         MSG_UDP              iDivisorNMEA    $GPZDA,131338.260,07,03,2023,,*5E
 
2.18118         MSG_UDP              iDivisorNMEA    $MXPGN,01F803,281C,0000000000007827*6E
 
2.19147         MSG_UDP              iDivisorNMEA    $MXPGN,01F804,281C,00000090AFC17827*15
 
2.21145         MSG_UDP              iDivisorNMEA    $MXPGN,00FF00,280B,0002000005049913*19
 
2.22021         MSG_UDP              iDivisorNMEA    $HCHDG,284.3,0.0,E,23.3,W*6F
 
2.22341         MSG_UDP              iDivisorNMEA    $GPHDT,260.98,T*00
 
2.23378         MSG_UDP              iDivisorNMEA    $TIROT,0.59,A*07
 
2.27000         MSG_UDP              iDivisorNMEA    $AGRSA,-0.84,A,,V*6E
 
2.27009         ANGULO_LEME          iDivisorNMEA    -0.84000     
2.28514         MSG_UDP              iDivisorNMEA    $MXPGN,01F803,281C,0000000000008C28*15
 
2.28605         MSG_UDP              iDivisorNMEA    $MXPGN,01F804,281C,0000009586C18C28*62
 
2.32004         MSG_UDP              iDivisorNMEA    $HCHDG,284.3,0.0,E,23.3,W*6F
 
2.32020         MSG_UDP              iDivisorNMEA    $GPHDT,260.98,T*00
 
2.33047         MSG_UDP              iDivisorNMEA    $TIROT,0.49,A*06
 
2.36901         MSG_UDP              iDivisorNMEA    $AGRSA,-0.84,A,,V*6E
 
2.36913         ANGULO_LEME          iDivisorNMEA    -0.84000     
2.37003         MSG_UDP              iDivisorNMEA    $SDDPT,1.79,0.00,*74
 
2.38107         MSG_UDP              iDivisorNMEA    $MXPGN,01F803,281C,000000000000A029*1E
 
2.39128         MSG_UDP              iDivisorNMEA    $MXPGN,01F804,281C,0000009586C1A029*69
 
2.42003         MSG_UDP              iDivisorNMEA    $HCHDG,284.3,0.0,E,23.3,W*6F
 
2.42014         MSG_UDP              iDivisorNMEA    $GPHDT,260.98,T*00
 
2.43043         MSG_UDP              iDivisorNMEA    $TIROT,0.49,A*06
 
2.45897         MSG_UDP              iDivisorNMEA    $MXPGN,01FF2C,7808,FFFFFFFF9F4117E0*1E
 
2.45988         MSG_UDP              iDivisorNMEA    $MXPGN,01FF2C,7808,FFFF7FFFFFFF7FE1*63
 
2.47017         MSG_UDP              iDivisorNMEA    $MXPGN,01FF2C,7808,FF7FFFFFFFFFFFE2*11
 
2.48045         MSG_UDP              iDivisorNMEA    $MXPGN,00FF00,280B,0002000005049913*19
 
2.49070         MSG_UDP              iDivisorNMEA    $MXPGN,01FF2C,7808,FFFFFFFF7FFFFFE3*10
 
2.50091         MSG_UDP              iDivisorNMEA    $AGRSA,-0.84,A,,V*6E
 
2.50097         ANGULO_LEME          iDivisorNMEA    -0.84000     
2.51120         MSG_UDP              iDivisorNMEA    $MXPGN,00FF3D,6808,7FFFFF0DFFFF9F41*6E
 
2.52143         MSG_UDP              iDivisorNMEA    $MXPGN,01F803,281C,000000000000B42A*61
 
2.53170         MSG_UDP              iDivisorNMEA    $MXPGN,01F804,281C,0000009586C1B42A*16
 
2.54197         MSG_UDP              iDivisorNMEA    $MXPGN,01FF1A,680B,FF022B849F410560*6A
 
2.55223         MSG_UDP              iDivisorNMEA    $HCHDG,284.3,0.0,E,23.3,W*6F
 
2.56251         MSG_UDP              iDivisorNMEA    $GPHDT,260.98,T*00
 
2.57281         MSG_UDP              iDivisorNMEA    $TIROT,0.39,A*01
 
2.58313         MSG_UDP              iDivisorNMEA    $MXPGN,01FF1A,782B,FF010B049F410500*66
 
2.59344         MSG_UDP              iDivisorNMEA    $MXPGN,01FF0D,780B,FF03000098900500*66
 
2.60368         MSG_UDP              iDivisorNMEA    $GPGGA,131338.000,2254.75195,S,04309.53689,W,1,12,0.90,10.81,M,-5.60,M,,*45
 
2.61400         MSG_UDP              iDivisorNMEA    $GPGLL,2254.75195,S,04309.53689,W,131338.000,A,A*5C
 
2.62424         MSG_UDP              iDivisorNMEA    $GPRMC,131338.000,A,2254.75195,S,04309.53689,W,0.09,0.00,070323,23.30,W,A*1C
 
2.63473         MSG_UDP              iDivisorNMEA    $GPVTG,0.00,T,,M,0.09,N,0.16,K,A*33
 
2.64496         MSG_UDP              iDivisorNMEA    $GPGGA,131339.000,2254.75309,S,04309.53829,W,1,09,1.60,0.65,M,-5.00,M,,*7E
 
2.65526         MSG_UDP              iDivisorNMEA    $GPGLL,2254.75309,S,04309.53829,W,131339.000,A,A*5E
 
2.66553         MSG_UDP              iDivisorNMEA    $GPRMC,131339.000,A,2254.75309,S,04309.53829,W,0.01,219.31,070323,23.39,W,A*17
 
2.67572         MSG_UDP              iDivisorNMEA    $GPVTG,219.31,T,,M,0.01,N,0.01,K,A*35
 
2.68597         MSG_UDP              iDivisorNMEA    $AGRSA,-0.84,A,,V*6E
 
2.68600         ANGULO_LEME          iDivisorNMEA    -0.84000     
2.69612         MSG_UDP              iDivisorNMEA    $GPGSA,A,3,08,10,16,18,21,23,24,26,27,,,,1.88,1.60,1.60*01
 
2.70627         MSG_UDP              iDivisorNMEA    $GPGSV,3,1,09,08,32,227,44,10,45,164,42,16,15,305,41,18,23,081,44*78
 
2.71646         MSG_UDP              iDivisorNMEA    $GPGSV,3,2,09,21,02,228,00,23,21,134,00,24,01,122,00,26,05,341,42*7B
 
2.72664         MSG_UDP              iDivisorNMEA    $GPGSV,3,3,09,27,62,257,50*44
 
2.73682         MSG_UDP              iDivisorNMEA    $MXPGN,01FA06,681C,8300A700C82B0FE0*69
 
2.74696         MSG_UDP              iDivisorNMEA    $MXPGN,01FA06,681C,008500A6ECED00E1*15
 
2.75721         MSG_UDP              iDivisorNMEA    $MXPGN,01FA06,681C,FFFFFFFFFF0141E2*6F
 
2.76732         MSG_UDP              iDivisorNMEA    $MXPGN,01F803,281C,000000000000002B*14
 
2.77756         MSG_UDP              iDivisorNMEA    $MXPGN,01F804,281C,0000001D7CC1002B*60
 
2.78778         MSG_UDP              iDivisorNMEA    $HCHDG,284.3,0.0,E,23.3,W*6F
 
2.79800         MSG_UDP              iDivisorNMEA    $GPHDT,260.99,T*01
 
2.80830         MSG_UDP              iDivisorNMEA    $TIROT,0.39,A*01
 
2.81878         MSG_UDP              iDivisorNMEA    $AGRSA,-0.84,A,,V*6E
 
2.81884         ANGULO_LEME          iDivisorNMEA    -0.84000     
2.82904         MSG_UDP              iDivisorNMEA    $MXPGN,00FF19,7808,0000000202009F41*15
 
2.83929         MSG_UDP              iDivisorNMEA    $MXPGN,01F803,281C,000000000000142C*10
 
2.84955         MSG_UDP              iDivisorNMEA    $MXPGN,01F804,281C,0000001D7CC1142C*64
 
2.85984         MSG_UDP              iDivisorNMEA    $MXPGN,00FF19,7808,0080000A0A009F41*1D
 
2.87009         MSG_UDP              iDivisorNMEA    $MXPGN,00FF00,280B,0002000005049913*19
 
2.88037         MSG_UDP              iDivisorNMEA    $HCHDG,284.3,0.0,E,23.3,W*6F
 
3.05840         MSG_UDP              iDivisorNMEA    $MXPGN,00FF16,7808,FF0000002B0A9F41*1B
 
3.06961         MSG_UDP              iDivisorNMEA    $GPGGA,,2254.76269,S,04309.53579,W,1,,,,M,,M,,*5D
 
3.07046         MSG_UDP              iDivisorNMEA    $GPGLL,2254.76269,S,04309.53579,W,,A,A*46
 
3.08077         MSG_UDP              iDivisorNMEA    $GPVTG,281.40,T,,M,0.50,N,0.92,K,A*3C
 
3.09102         MSG_UDP              iDivisorNMEA    $AGRSA,-0.84,A,,V*6E
 
3.09111         ANGULO_LEME          iDivisorNMEA    -0.84000     
3.10130         MSG_UDP              iDivisorNMEA    $MXPGN,01F803,281C,0000000000006430*65
 
3.11160         MSG_UDP              iDivisorNMEA    $MXPGN,01F804,281C,00000003A0C16430*62
 
3.12183         MSG_UDP              iDivisorNMEA    $GPGSA,A,3,08,10,16,18,26,27,28,31,32,66,65,86,1.60,1.40,1.40*07
 
3.13208         MSG_UDP              iDivisorNMEA    $GPGSV,3,1,12,08,33,228,38,10,45,164,32,16,16,306,40,18,24,081,39*7C
 
3.14232         MSG_UDP              iDivisorNMEA    $GPGSV,3,2,12,26,06,342,40,27,63,258,43,28,12,020,43,31,07,011,38*72
 
3.15260         MSG_UDP              iDivisorNMEA    $GPGSV,3,3,12,32,75,044,47,66,07,321,46,65,57,294,39,86,38,063,44*7B
 
3.16290         MSG_UDP              iDivisorNMEA    $HCHDG,284.3,0.0,E,23.3,W*6F
 
3.17318         MSG_UDP              iDivisorNMEA    $GPHDT,261.03,T*03
 
3.18337         MSG_UDP              iDivisorNMEA    $TIROT,0.39,A*01
 
3.19360         MSG_UDP              iDivisorNMEA    $AGRSA,-0.84,A,,V*6E
 
3.19366         ANGULO_LEME          iDivisorNMEA    -0.84000     
3.20385         MSG_UDP              iDivisorNMEA    $GPZDA,131339.260,07,03,2023,,*5F
 
3.21416         MSG_UDP              iDivisorNMEA    $MXPGN,01F803,281C,0000000000007831*69
 
3.22442         MSG_UDP              iDivisorNMEA    $MXPGN,01F804,281C,00000003A0C17831*6E
 
3.23466         MSG_UDP              iDivisorNMEA    $MXPGN,00FF00,280B,0002000005049913*19
 
3.24494         MSG_UDP              iDivisorNMEA    $HCHDG,284.4,0.0,E,23.3,W*68
 
3.25522         MSG_UDP              iDivisorNMEA    $GPHDT,261.05,T*05
 
3.26553         MSG_UDP              iDivisorNMEA    $TIROT,0.39,A*01
 
3.27583         MSG_UDP              iDivisorNMEA    $AGRSA,-0.84,A,,V*6E
 
3.27594         ANGULO_LEME          iDivisorNMEA    -0.84000     
3.28947         MSG_UDP              iDivisorNMEA    $MXPGN,01F803,281C,0000000000008C32*1E
 
3.29676         MSG_UDP              iDivisorNMEA    $MXPGN,01F804,281C,0000005F93C18C32*12
 
3.31947         MSG_UDP              iDivisorNMEA    $HCHDG,284.4,0.0,E,23.3,W*68
 
3.31962         MSG_UDP              iDivisorNMEA    $GPHDT,261.05,T*05
 
3.32985         MSG_UDP              iDivisorNMEA    $TIROT,0.39,A*01
 
3.34009         MSG_UDP              iDivisorNMEA    !AIVDO,1,1,,,B:UOH3P017>VtRLf>UVgswkUoP06,0*27
 
3.36920         MSG_UDP              iDivisorNMEA    $AGRSA,-0.84,A,,V*6E
 
3.36930         ANGULO_LEME          iDivisorNMEA    -0.84000     
3.36941         MSG_UDP              iDivisorNMEA    $SDDPT,1.76,0.00,*7B
 
3.38022         MSG_UDP              iDivisorNMEA    $MXPGN,01F803,281C,0000000000008C32*1E
 
3.39052         MSG_UDP              iDivisorNMEA    $MXPGN,01F804,281C,0000005F93C18C32*12
 
3.41925         MSG_UDP              iDivisorNMEA    $HCHDG,284.4,0.0,E,23.3,W*68
 
3.41943         MSG_UDP              iDivisorNMEA    $GPHDT,261.05,T*05
 
3.42973         MSG_UDP              iDivisorNMEA    $TIROT,0.39,A*01
 
3.44002         MSG_UDP              iDivisorNMEA    $MXPGN,01FF1A,782B,FFFAFF859F410520*19
 
3.45819         MSG_UDP              iDivisorNMEA    $MXPGN,01FF2C,7808,FFFFFFFF9F411700*6B
 
3.46044         MSG_UDP              iDivisorNMEA    $MXPGN,01FF2C,7808,FFFF7FFFFFFF7F01*16
 
3.47068         MSG_UDP              iDivisorNMEA    $MXPGN,01FF2C,7808,FF7FFFFFFFFFFF02*64
 
3.48096         MSG_UDP              iDivisorNMEA    $MXPGN,00FF00,280B,0002000005049913*19
 
3.49121         MSG_UDP              iDivisorNMEA    $MXPGN,01FF2C,7808,FFFFFFFF7FFFFF03*65
 
3.50144         MSG_UDP              iDivisorNMEA    $AGRSA,-0.84,A,,V*6E
 
3.50150         ANGULO_LEME          iDivisorNMEA    -0.84000     
3.51173         MSG_UDP              iDivisorNMEA    $MXPGN,00FF3D,6808,7FFFFF0DFFFF9F41*6E
 
3.52200         MSG_UDP              iDivisorNMEA    $MXPGN,01F803,281C,000000000000B434*15
 
3.53227         MSG_UDP              iDivisorNMEA    $MXPGN,01F804,281C,0000005F93C1B434*19
 
3.54276         MSG_UDP              iDivisorNMEA    $MXPGN,01FF1A,680B,FF022B849F410580*64
 
3.55302         MSG_UDP              iDivisorNMEA    $HCHDG,284.4,0.0,E,23.3,W*68
 
3.56327         MSG_UDP              iDivisorNMEA    $GPHDT,261.06,T*06
 
3.57418         MSG_UDP              iDivisorNMEA    $TIROT,0.39,A*01
 
3.58443         MSG_UDP              iDivisorNMEA    $MXPGN,01FF1A,782B,FF010B049F410520*64
 
3.59472         MSG_UDP              iDivisorNMEA    $MXPGN,01FF0D,780B,FF03000098900520*64
 
3.60504         MSG_UDP              iDivisorNMEA    $GPGGA,131339.000,2254.75168,S,04309.53697,W,1,12,0.90,10.87,M,-5.60,M,,*4F
 
3.61531         MSG_UDP              iDivisorNMEA    $GPGLL,2254.75168,S,04309.53697,W,131339.000,A,A*50
 
3.62556         MSG_UDP              iDivisorNMEA    $GPRMC,131339.000,A,2254.75168,S,04309.53697,W,0.09,0.00,070323,23.30,W,A*10
 
3.63585         MSG_UDP              iDivisorNMEA    $GPVTG,0.00,T,,M,0.09,N,0.16,K,A*33
 
3.64607         MSG_UDP              iDivisorNMEA    $GPGGA,131340.000,2254.75309,S,04309.53829,W,1,09,1.60,0.65,M,-5.00,M,,*70
 
3.65633         MSG_UDP              iDivisorNMEA    $GPGLL,2254.75309,S,04309.53829,W,131340.000,A,A*50
 
3.66661         MSG_UDP              iDivisorNMEA    $GPRMC,131340.000,A,2254.75309,S,04309.53829,W,0.01,140.18,070323,23.39,W,A*1D
 
3.67687         MSG_UDP              iDivisorNMEA    $GPVTG,140.18,T,,M,0.01,N,0.01,K,A*31
 
3.68715         MSG_UDP              iDivisorNMEA    $AGRSA,-0.84,A,,V*6E
 
3.68723         ANGULO_LEME          iDivisorNMEA    -0.84000     
3.69742         MSG_UDP              iDivisorNMEA    $GPGSA,A,3,08,10,16,18,21,23,24,26,27,,,,1.88,1.60,1.60*01
 
3.70770         MSG_UDP              iDivisorNMEA    $GPGSV,3,1,09,08,32,227,44,10,45,164,42,16,15,305,42,18,23,081,44*7B
 
3.71802         MSG_UDP              iDivisorNMEA    $GPGSV,3,2,09,21,02,228,00,23,21,134,00,24,01,123,00,26,05,341,41*79
 
3.95774         MSG_UDP              iDivisorNMEA    $MXPGN,00FF3C,3808,8000F8FE00009F41*1C
 
3.95990         MSG_UDP              iDivisorNMEA    $MXPGN,00FF00,280B,0002000005049913*19
 
3.96811         MSG_UDP              iDivisorNMEA    !AIVDM,1,1,,B,1:U=<5PP1TtrHgmjqDf3G?w>20Ru,0*70
 
3.97832         MSG_UDP              iDivisorNMEA    $AGRSA,-0.84,A,,V*6E
 
3.97837         ANGULO_LEME          iDivisorNMEA    -0.84000     
3.98860         MSG_UDP              iDivisorNMEA    $MXPGN,01F803,281C,0000000000005039*6B
 
3.99887         MSG_UDP              iDivisorNMEA    $MXPGN,01F804,281C,0000004E76C15039*6E
 
4.01887         MSG_UDP              iDivisorNMEA    $HCHDG,284.4,0.0,E,23.3,W*68
 
4.02006         MSG_UDP              iDivisorNMEA    $GPHDT,261.08,T*08
 
4.03024         MSG_UDP              iDivisorNMEA    $TIROT,0.19,A*03
 
4.05778         MSG_UDP              iDivisorNMEA    $MXPGN,00FF16,7808,FF0000002B0A9F41*1B
 
4.06896         MSG_UDP              iDivisorNMEA    $GPGGA,,2254.76229,S,04309.53569,W,1,,,,M,,M,,*58
 
4.06974         MSG_UDP              iDivisorNMEA    $GPGLL,2254.76229,S,04309.53569,W,,A,A*43
 
4.08003         MSG_UDP              iDivisorNMEA    $GPVTG,281.40,T,,M,0.40,N,0.74,K,A*35
 
4.09020         MSG_UDP              iDivisorNMEA    $AGRSA,-0.84,A,,V*6E
 
4.09024         ANGULO_LEME          iDivisorNMEA    -0.84000     
4.10034         MSG_UDP              iDivisorNMEA    $MXPGN,01F803,281C,000000000000643A*14
 
4.11047         MSG_UDP              iDivisorNMEA    $MXPGN,01F804,281C,0000006B3FC1643A*60
 
4.12068         MSG_UDP              iDivisorNMEA    $GPGSA,A,3,08,10,16,18,26,27,28,31,32,66,65,86,1.60,1.40,1.40*07
 
4.13088         MSG_UDP              iDivisorNMEA    $GPGSV,3,1,12,08,33,228,38,10,45,164,32,16,16,306,40,18,24,081,39*7C
 
4.14106         MSG_UDP              iDivisorNMEA    $GPGSV,3,2,12,26,06,342,40,27,63,258,43,28,12,020,43,31,07,011,38*72
 
4.15121         MSG_UDP              iDivisorNMEA    $GPGSV,3,3,12,32,75,044,47,66,07,321,46,65,57,293,39,86,38,063,44*7C
 
4.16134         MSG_UDP              iDivisorNMEA    $HCHDG,284.4,0.0,E,23.3,W*68
 
4.17154         MSG_UDP              iDivisorNMEA    $GPHDT,261.09,T*09
 
4.18174         MSG_UDP              iDivisorNMEA    $TIROT,0.39,A*01
 
4.19190         MSG_UDP              iDivisorNMEA    $AGRSA,-0.84,A,,V*6E
 
4.19194         ANGULO_LEME          iDivisorNMEA    -0.84000     
4.20210         MSG_UDP              iDivisorNMEA    $GPZDA,131340.260,07,03,2023,,*51
 
4.21227         MSG_UDP              iDivisorNMEA    $MXPGN,01F803,281C,000000000000783B*1A
 
4.22244         MSG_UDP              iDivisorNMEA    $MXPGN,01F804,281C,0000006B3FC1783B*6E
 
4.23259         MSG_UDP              iDivisorNMEA    $MXPGN,00FF00,280B,0002000005049913*19
 
4.24276         MSG_UDP              iDivisorNMEA    $HCHDG,284.4,0.0,E,23.3,W*68
 
4.25297         MSG_UDP              iDivisorNMEA    $GPHDT,261.08,T*08
 
4.26316         MSG_UDP              iDivisorNMEA    $TIROT,0.39,A*01
 
4.27337         MSG_UDP              iDivisorNMEA    $AGRSA,-0.84,A,,V*6E
 
4.27340         ANGULO_LEME          iDivisorNMEA    -0.84000     
4.28354         MSG_UDP              iDivisorNMEA    $MXPGN,01F803,281C,0000000000008C3C*6F
 
4.29372         MSG_UDP              iDivisorNMEA    $MXPGN,01F804,281C,00000027ADC18C3C*1A
 
4.30389         MSG_UDP              iDivisorNMEA    !AIVDM,1,1,,A,1:U8RjPP0ntrHWEjqC:1<?w@2<2T,0*75
 
4.31866         MSG_UDP              iDivisorNMEA    $HCHDG,284.4,0.0,E,23.3,W*68
 
4.32484         MSG_UDP              iDivisorNMEA    $GPHDT,261.08,T*08
 
4.33503         MSG_UDP              iDivisorNMEA    $TIROT,0.39,A*01
 
4.36868         MSG_UDP              iDivisorNMEA    $AGRSA,-0.84,A,,V*6E
 
4.36872         ANGULO_LEME          iDivisorNMEA    -0.84000     
4.36874         MSG_UDP              iDivisorNMEA    $SDDPT,1.76,0.00,*7B
 
4.37949         MSG_UDP              iDivisorNMEA    $MXPGN,01F803,281C,000000000000A03D*62
 
4.38960         MSG_UDP              iDivisorNMEA    $MXPGN,01F804,281C,00000027ADC1A03D*17
 
4.41847         MSG_UDP              iDivisorNMEA    $HCHDG,284.4,0.0,E,23.3,W*68
 
4.41865         MSG_UDP              iDivisorNMEA    $GPHDT,261.07,T*07
 
4.42882         MSG_UDP              iDivisorNMEA    $TIROT,0.29,A*00
 
4.45752         MSG_UDP              iDivisorNMEA    $MXPGN,01FF2C,7808,FFFFFFFF9F411720*69
 
4.45848         MSG_UDP              iDivisorNMEA    $MXPGN,01FF2C,7808,FFFF7FFFFFFF7F21*14
 
4.46867         MSG_UDP              iDivisorNMEA    $MXPGN,00FF00,280B,0002000005049913*19
 
4.47884         MSG_UDP              iDivisorNMEA    $MXPGN,01FF2C,7808,FF7FFFFFFFFFFF22*66
 
4.48901         MSG_UDP              iDivisorNMEA    $MXPGN,01FF2C,7808,FFFFFFFF7FFFFF23*67
 
4.49911         MSG_UDP              iDivisorNMEA    $AGRSA,-0.84,A,,V*6E
 
4.49914         ANGULO_LEME          iDivisorNMEA    -0.84000     
4.50929         MSG_UDP              iDivisorNMEA    $MXPGN,01F803,281C,000000000000A03D*62
 
4.51969         MSG_UDP              iDivisorNMEA    $MXPGN,01F804,281C,00000027ADC1A03D*17
 
4.52986         MSG_UDP              iDivisorNMEA    $MXPGN,00FF3D,6808,7FFFFF0DFFFF9F41*6E
 
4.54004         MSG_UDP              iDivisorNMEA    $MXPGN,01FF1A,680B,FF022B849F4105A0*1D
 
4.55023         MSG_UDP              iDivisorNMEA    $HCHDG,284.4,0.0,E,23.3,W*68
 
4.56041         MSG_UDP              iDivisorNMEA    $GPHDT,261.07,T*07
 
4.57078         MSG_UDP              iDivisorNMEA    $TIROT,0.29,A*00
 
4.58108         MSG_UDP              iDivisorNMEA    $MXPGN,01FF1A,782B,FF010B049F410540*62
 
4.59119         MSG_UDP              iDivisorNMEA    $MXPGN,01FF0D,780B,FF03000098900540*62
 
4.60134         MSG_UDP              iDivisorNMEA    $GPGGA,131340.000,2254.75154,S,04309.53694,W,1,12,0.90,11.01,M,-5.60,M,,*42
 
4.61156         MSG_UDP              iDivisorNMEA    $GPGLL,2254.75154,S,04309.53694,W,131340.000,A,A*52
 
4.62179         MSG_UDP              iDivisorNMEA    $GPRMC,131340.000,A,2254.75154,S,04309.53694,W,0.00,0.00,070323,23.30,W,A*1B
 
4.63197         MSG_UDP              iDivisorNMEA    $GPVTG,0.00,T,,M,0.00,N,0.00,K,A*3D
 
4.86820         MSG_UDP              iDivisorNMEA    $AGRSA,-0.90,A,,V*6B
 
4.86827         ANGULO_LEME          iDivisorNMEA    -0.90000     
4.87941         MSG_UDP              iDivisorNMEA    $MXPGN,01F803,281C,0000000000003C41*11
 
4.88021         MSG_UDP              iDivisorNMEA    $MXPGN,01F804,281C,0000007C24C13C41*16
 
4.91826         MSG_UDP              iDivisorNMEA    $HCHDG,284.4,0.0,E,23.3,W*68
 
4.91833         MSG_UDP              iDivisorNMEA    $GPHDT,261.06,T*06
 
4.92849         MSG_UDP              iDivisorNMEA    $TIROT,0.49,A*06
 
4.95729         MSG_UDP              iDivisorNMEA    $MXPGN,00FF3C,3808,8000F8FE00009F41*1C
 
4.96010         MSG_UDP              iDivisorNMEA    $MXPGN,00FF00,280B,0002000005049913*19
 
4.96830         MSG_UDP              iDivisorNMEA    $AGRSA,-0.84,A,,V*6E
 
4.96834         ANGULO_LEME          iDivisorNMEA    -0.84000     
4.97930         MSG_UDP              iDivisorNMEA    $MXPGN,01F803,281C,0000000000006443*61
 
4.98947         MSG_UDP              iDivisorNMEA    $MXPGN,01F804,281C,0000007C24C16443*66
 
5.01817         MSG_UDP              iDivisorNMEA    $HCHDG,284.3,0.0,E,23.3,W*6F
 
5.01822         MSG_UDP              iDivisorNMEA    $GPHDT,261.04,T*04
 
5.02836         MSG_UDP              iDivisorNMEA    $TIROT,0.09,A*02
 
5.05699         MSG_UDP              iDivisorNMEA    $MXPGN,00FF16,7808,FF0000002B0A9F41*1B
 
5.06913         MSG_UDP              iDivisorNMEA    $GPGGA,,2254.76229,S,04309.53569,W,1,,,,M,,M,,*58
 
5.06956         MSG_UDP              iDivisorNMEA    $GPGLL,2254.76229,S,04309.53569,W,,A,A*43
 
5.07973         MSG_UDP              iDivisorNMEA    $GPVTG,281.40,T,,M,0.40,N,0.74,K,A*35
 
5.09016         MSG_UDP              iDivisorNMEA    $AGRSA,-0.84,A,,V*6E
 
5.09020         ANGULO_LEME          iDivisorNMEA    -0.84000     
5.10035         MSG_UDP              iDivisorNMEA    $MXPGN,01F803,281C,0000000000007844*6B
 
5.11048         MSG_UDP              iDivisorNMEA    $MXPGN,01F804,281C,0000002741C17844*1E
 
5.12063         MSG_UDP              iDivisorNMEA    $GPGSA,A,3,08,10,16,18,26,27,28,31,32,66,65,86,1.60,1.40,1.40*07
 
5.13081         MSG_UDP              iDivisorNMEA    $GPGSV,3,1,12,08,33,228,38,10,45,164,32,16,16,306,40,18,24,081,39*7C
 
5.14097         MSG_UDP              iDivisorNMEA    $GPGSV,3,2,12,26,06,342,40,27,63,258,43,28,12,020,42,31,07,011,38*73
 
5.15116         MSG_UDP              iDivisorNMEA    $GPGSV,3,3,12,32,75,044,47,66,07,321,46,65,57,293,39,86,38,063,44*7C
 
5.16133         MSG_UDP              iDivisorNMEA    $HCHDG,284.4,0.0,E,23.3,W*68
 
5.17150         MSG_UDP              iDivisorNMEA    $GPHDT,261.05,T*05
 
5.18164         MSG_UDP              iDivisorNMEA    $TIROT,0.00,A*0B
 
5.19182         MSG_UDP              iDivisorNMEA    $AGRSA,-0.84,A,,V*6E
 
5.19186         ANGULO_LEME          iDivisorNMEA    -0.84000     
5.20194         MSG_UDP              iDivisorNMEA    $GPZDA,131341.260,07,03,2023,,*50
 
5.21209         MSG_UDP              iDivisorNMEA    $MXPGN,01F803,281C,0000000000008D45*19
 
5.22227         MSG_UDP              iDivisorNMEA    $MXPGN,01F804,281C,0000002741C18D45*6C
 
5.23244         MSG_UDP              iDivisorNMEA    $MXPGN,00FF00,280B,0002000005049913*19
 
5.24262         MSG_UDP              iDivisorNMEA    $HCHDG,284.4,0.0,E,23.3,W*68
 
5.25281         MSG_UDP              iDivisorNMEA    $GPHDT,261.05,T*05
 
5.26300         MSG_UDP              iDivisorNMEA    $TIROT,0.00,A*0B
 
5.27317         MSG_UDP              iDivisorNMEA    $AGRSA,-0.84,A,,V*6E
 
5.27322         ANGULO_LEME          iDivisorNMEA    -0.84000     
5.28336         MSG_UDP              iDivisorNMEA    $MXPGN,01F803,281C,000000000000A046*17
 
5.29354         MSG_UDP              iDivisorNMEA    $MXPGN,01F804,281C,0000001A56C1A046*11
 
5.31809         MSG_UDP              iDivisorNMEA    $HCHDG,284.4,0.0,E,23.3,W*68
 
5.31818         MSG_UDP              iDivisorNMEA    $GPHDT,261.05,T*05
 
5.32835         MSG_UDP              iDivisorNMEA    $TIROT,0.00,A*0B
 
5.36195         MSG_UDP              iDivisorNMEA    !AIVDO,1,1,,,B:UOH3P02o>VtTLf>U>gswlUoP06,0*15
 
5.36787         MSG_UDP              iDivisorNMEA    $AGRSA,-0.84,A,,V*6E
 
5.36793         ANGULO_LEME          iDivisorNMEA    -0.84000     
5.37307         MSG_UDP              iDivisorNMEA    $SDDPT,1.77,0.00,*7A
 
5.38335         MSG_UDP              iDivisorNMEA    $MXPGN,01F803,281C,000000000000B447*11
 
5.39352         MSG_UDP              iDivisorNMEA    $MXPGN,01F804,281C,0000001A56C1B447*17
 
5.41793         MSG_UDP              iDivisorNMEA    $HCHDG,284.4,0.0,E,23.3,W*68
 
5.41801         MSG_UDP              iDivisorNMEA    $GPHDT,261.05,T*05
 
5.42820         MSG_UDP              iDivisorNMEA    $TIROT,0.00,A*0B
 
5.45690         MSG_UDP              iDivisorNMEA    $MXPGN,01FF2C,7808,FFFFFFFF9F411740*6F
 
5.45784         MSG_UDP              iDivisorNMEA    $MXPGN,01FF2C,7808,FFFF7FFFFFFF7F41*12
 
5.46802         MSG_UDP              iDivisorNMEA    $MXPGN,01FF2C,7808,FF7FFFFFFFFFFF42*60
 
5.47822         MSG_UDP              iDivisorNMEA    $MXPGN,00FF00,280B,0002000005049913*19
 
5.48840         MSG_UDP              iDivisorNMEA    $MXPGN,01FF2C,7808,FFFFFFFF7FFFFF43*61
 
5.49856         MSG_UDP              iDivisorNMEA    $AGRSA,-0.84,A,,V*6E
 
5.49862         ANGULO_LEME          iDivisorNMEA    -0.84000     
5.50885         MSG_UDP              iDivisorNMEA    $MXPGN,01F803,281C,000000000257C848*13
 
5.51903         MSG_UDP              iDivisorNMEA    $MXPGN,01F804,281C,0000001A56C1C848*15
 
5.52922         MSG_UDP              iDivisorNMEA    $MXPGN,00FF3D,6808,7FFFFF0DFFFF9F41*6E
 
5.53939         MSG_UDP              iDivisorNMEA    $MXPGN,01FF1A,680B,FF022B849F4105C0*1F
 
5.54958         MSG_UDP              iDivisorNMEA    $HCHDG,284.4,0.0,E,23.3,W*68
 
5.55977         MSG_UDP              iDivisorNMEA    $GPHDT,261.05,T*05
 
5.56996         MSG_UDP              iDivisorNMEA    $TIROT,0.19,A*03
 
5.58017         MSG_UDP              iDivisorNMEA    $MXPGN,01FF1A,782B,FF010B049F410560*60
 
5.75681         MSG_UDP              iDivisorNMEA    $MXPGN,00FF8C,6808,FFF10695C9409F41*64
 
5.75763         MSG_UDP              iDivisorNMEA    $MXPGN,00FF28,3808,FF08FFFDFC059F41*19
 
5.76783         MSG_UDP              iDivisorNMEA    $AGRSA,-0.84,A,,V*6E
 
5.76787         ANGULO_LEME          iDivisorNMEA    -0.84000     
5.77885         MSG_UDP              iDivisorNMEA    $MXPGN,01F803,281C,000000000000284B*18
 
5.78904         MSG_UDP              iDivisorNMEA    $MXPGN,01F804,281C,0000001607C1284B*6D
 
5.81792         MSG_UDP              iDivisorNMEA    $HCHDG,284.4,0.0,E,23.3,W*68
 
5.81802         MSG_UDP              iDivisorNMEA    $GPHDT,261.05,T*05
 
5.82823         MSG_UDP              iDivisorNMEA    $TIROT,0.39,A*01
 
5.86769         MSG_UDP              iDivisorNMEA    $AGRSA,-0.84,A,,V*6E
 
5.86775         ANGULO_LEME          iDivisorNMEA    -0.84000     
5.87889         MSG_UDP              iDivisorNMEA    $MXPGN,01F803,281C,0000000000003C4C*63
 
5.87968         MSG_UDP              iDivisorNMEA    $MXPGN,01F804,281C,0000001607C13C4C*16
 
5.91795         MSG_UDP              iDivisorNMEA    $HCHDG,284.4,0.0,E,23.3,W*68
 
5.91802         MSG_UDP              iDivisorNMEA    $GPHDT,261.05,T*05
 
5.92819         MSG_UDP              iDivisorNMEA    $TIROT,0.49,A*06
 
5.95711         MSG_UDP              iDivisorNMEA    $MXPGN,00FF3C,3808,8000F8FE00009F41*1C
 
5.95880         MSG_UDP              iDivisorNMEA    $MXPGN,00FF00,280B,0002000005049913*19
 
5.96792         MSG_UDP              iDivisorNMEA    $AGRSA,-0.84,A,,V*6E
 
5.96797         ANGULO_LEME          iDivisorNMEA    -0.84000     
5.97895         MSG_UDP              iDivisorNMEA    $MXPGN,01F803,281C,000000000000504D*11
 
5.98914         MSG_UDP              iDivisorNMEA    $MXPGN,01F804,281C,0000001607C1504D*64
 
6.01858         MSG_UDP              iDivisorNMEA    $HCHDG,284.4,0.0,E,23.3,W*68
 
6.01864         MSG_UDP              iDivisorNMEA    $GPHDT,261.06,T*06
 
6.02879         MSG_UDP              iDivisorNMEA    $TIROT,0.49,A*06
 
6.04193         MSG_UDP              iDivisorNMEA    !AIVDM,1,1,,A,1:U85d001:LrNWUjqDTuEre`0d2a,0*23
 
6.05689         MSG_UDP              iDivisorNMEA    $MXPGN,00FF16,7808,FF0000002B0A9F41*1B
 
6.06895         MSG_UDP              iDivisorNMEA    $GPGGA,,2254.76289,S,04309.53529,W,1,,,,M,,M,,*56
 
6.07112         MSG_UDP              iDivisorNMEA    $GPGLL,2254.76289,S,04309.53529,W,,A,A*4D
 
6.08129         MSG_UDP              iDivisorNMEA    $GPVTG,281.40,T,,M,1.10,N,2.03,K,A*33
 
6.09171         MSG_UDP              iDivisorNMEA    $AGRSA,-0.84,A,,V*6E
 
6.09175         ANGULO_LEME          iDivisorNMEA    -0.84000     
6.10185         MSG_UDP              iDivisorNMEA    $MXPGN,01F803,281C,000000000000644E*17
 
6.11200         MSG_UDP              iDivisorNMEA    $MXPGN,01F804,281C,000000D473C1644E*16
 
6.12214         MSG_UDP              iDivisorNMEA    $GPGSA,A,3,08,10,16,18,26,27,28,31,32,66,65,86,1.60,1.40,1.40*07
 
6.13226         MSG_UDP              iDivisorNMEA    $GPGSV,3,1,12,08,33,228,38,10,45,164,32,16,16,306,40,18,24,081,39*7C
 
6.14241         MSG_UDP              iDivisorNMEA    $GPGSV,3,2,12,26,06,342,40,27,63,258,43,28,12,020,42,31,07,011,38*73
 
6.15258         MSG_UDP              iDivisorNMEA    $GPGSV,3,3,12,32,75,044,47,66,07,321,46,65,57,293,39,86,38,063,44*7C
 
6.16275         MSG_UDP              iDivisorNMEA    $HCHDG,284.4,0.0,E,23.3,W*68
 
6.17295         MSG_UDP              iDivisorNMEA    $GPHDT,261.05,T*05
 
6.18318         MSG_UDP              iDivisorNMEA    $TIROT,0.59,A*07
 
6.19336         MSG_UDP              iDivisorNMEA    $AGRSA,-0.84,A,,V*6E
 
6.19340         ANGULO_LEME          iDivisorNMEA    -0.84000     
6.20351         MSG_UDP              iDivisorNMEA    $GPZDA,131342.210,07,03,2023,,*54
 
6.21367         MSG_UDP              iDivisorNMEA    $MXPGN,01F803,281C,000000000000784F*19
 
6.22387         MSG_UDP              iDivisorNMEA    $MXPGN,01F804,281C,000000D473C1784F*18
 
6.23405         MSG_UDP              iDivisorNMEA    $MXPGN,00FF00,280B,0002000005049913*19
 
6.24421         MSG_UDP              iDivisorNMEA    $HCHDG,284.3,0.0,E,23.3,W*6F
 
6.25437         MSG_UDP              iDivisorNMEA    $GPHDT,261.04,T*04
 
6.26459         MSG_UDP              iDivisorNMEA    $TIROT,0.59,A*07
 
6.27478         MSG_UDP              iDivisorNMEA    !AIVDM,1,1,,B,1:U8l=P00oLrFCijqi438jU@0W3h,0*71
 
6.28493         MSG_UDP              iDivisorNMEA    $AGRSA,-0.84,A,,V*6E
 
6.28497         ANGULO_LEME          iDivisorNMEA    -0.84000     
6.29514         MSG_UDP              iDivisorNMEA    $MXPGN,01F803,281C,0000000000008C50*1A
 
6.30533         MSG_UDP              iDivisorNMEA    $MXPGN,01F804,281C,0000006C16C18C50*1D
 
6.31811         MSG_UDP              iDivisorNMEA    $HCHDG,284.3,0.0,E,23.3,W*6F
 
6.32632         MSG_UDP              iDivisorNMEA    $GPHDT,261.04,T*04
 
6.33653         MSG_UDP              iDivisorNMEA    $TIROT,0.59,A*07
 
6.36816         MSG_UDP              iDivisorNMEA    $AGRSA,-0.84,A,,V*6E
 
6.36826         ANGULO_LEME          iDivisorNMEA    -0.84000     
6.36827         MSG_UDP              iDivisorNMEA    $SDDPT,1.76,0.00,*7B
 
6.37932         MSG_UDP              iDivisorNMEA    $MXPGN,01F803,281C,0000000000008C50*1A
 
6.38951         MSG_UDP              iDivisorNMEA    $MXPGN,01F804,281C,0000006C16C18C50*1D
 
6.41818         MSG_UDP              iDivisorNMEA    $HCHDG,284.4,0.0,E,23.3,W*68
 
6.41824         MSG_UDP              iDivisorNMEA    $GPHDT,261.05,T*05
 
6.42840         MSG_UDP              iDivisorNMEA    $TIROT,0.59,A*07
 
6.43858         MSG_UDP              iDivisorNMEA    $MXPGN,01FF1A,782B,FFFAFF859F410580*13
 
6.45702         MSG_UDP              iDivisorNMEA    $MXPGN,01FF2C,7808,FFFFFFFF9F411760*6D
 
6.45915         MSG_UDP              iDivisorNMEA    $MXPGN,01FF2C,7808,FFFF7FFFFFFF7F61*10
 
6.46926         MSG_UDP              iDivisorNMEA    $MXPGN,01FF2C,7808,FF7FFFFFFFFFFF62*62
 
6.47937         MSG_UDP              iDivisorNMEA    $MXPGN,00FF00,280B,0002000005049913*19
 
6.67003         MSG_UDP              iDivisorNMEA    $AGRSA,-0.90,A,,V*6B
 
6.67013         ANGULO_LEME          iDivisorNMEA    -0.90000     
6.68138         MSG_UDP              iDivisorNMEA    $MXPGN,01F803,281C,0000000000001454*60
 
6.68224         MSG_UDP              iDivisorNMEA    $MXPGN,01F804,281C,0000001A2AC11454*16
 
6.69252         MSG_UDP              iDivisorNMEA    $MXPGN,00FF19,7808,0000000202009F41*15
 
6.70961         MSG_UDP              iDivisorNMEA    $MXPGN,00FF19,7808,0080000A0A009F41*1D
 
6.71397         MSG_UDP              iDivisorNMEA    $MXPGN,00FF00,280B,0002000005049913*19
 
6.72430         MSG_UDP              iDivisorNMEA    $HCHDG,284.4,0.0,E,23.3,W*68
 
6.73462         MSG_UDP              iDivisorNMEA    $GPHDT,261.06,T*06
 
6.74497         MSG_UDP              iDivisorNMEA    $TIROT,0.89,A*0A
 
6.76038         MSG_UDP              iDivisorNMEA    $MXPGN,00FF8C,6808,FFF10695C9409F41*64
 
6.76570         MSG_UDP              iDivisorNMEA    $MXPGN,00FF28,3808,FF08FFFDFC059F41*19
 
6.77606         MSG_UDP              iDivisorNMEA    $AGRSA,-0.90,A,,V*6B
 
6.77617         ANGULO_LEME          iDivisorNMEA    -0.90000     
6.78639         MSG_UDP              iDivisorNMEA    $MXPGN,01F803,281C,0000000000002855*6E
 
6.79675         MSG_UDP              iDivisorNMEA    $MXPGN,01F804,281C,00000062F7C12855*6E
 
6.82222         MSG_UDP              iDivisorNMEA    $HCHDG,284.4,0.0,E,23.3,W*68
 
6.82240         MSG_UDP              iDivisorNMEA    $GPHDT,261.06,T*06
 
6.83264         MSG_UDP              iDivisorNMEA    $TIROT,0.89,A*0A
 
6.87289         MSG_UDP              iDivisorNMEA    $AGRSA,-0.90,A,,V*6B
 
6.87297         ANGULO_LEME          iDivisorNMEA    -0.90000     
6.88425         MSG_UDP              iDivisorNMEA    $MXPGN,01F803,281C,0000000000003C56*17
 
6.88491         MSG_UDP              iDivisorNMEA    $MXPGN,01F804,281C,00000062F7C13C56*17
 
6.92369         MSG_UDP              iDivisorNMEA    $HCHDG,284.4,0.0,E,23.3,W*68
 
6.92384         MSG_UDP              iDivisorNMEA    $GPHDT,261.06,T*06
 
6.93429         MSG_UDP              iDivisorNMEA    $TIROT,0.59,A*07
 
6.94809         MSG_UDP              iDivisorNMEA    !AIVDM,1,1,,A,1:U8hK0P00LrC2AjqojGOOwp0`IL,0*06
 
6.96328         MSG_UDP              iDivisorNMEA    $MXPGN,00FF3C,3808,8000F8FE00009F41*1C
 
6.96557         MSG_UDP              iDivisorNMEA    $MXPGN,00FF00,280B,0002000005049913*19
 
6.97584         MSG_UDP              iDivisorNMEA    $AGRSA,-0.84,A,,V*6E
 
6.97590         ANGULO_LEME          iDivisorNMEA    -0.84000     
6.98615         MSG_UDP              iDivisorNMEA    $MXPGN,01F803,281C,0000000000005057*63
 
6.99647         MSG_UDP              iDivisorNMEA    $MXPGN,01F804,281C,00000062F7C15057*63
 
7.02515         MSG_UDP              iDivisorNMEA    $HCHDG,284.4,0.0,E,23.3,W*68
 
7.02530         MSG_UDP              iDivisorNMEA    $GPHDT,261.05,T*05
 
7.03557         MSG_UDP              iDivisorNMEA    $TIROT,0.59,A*07
 
7.06473         MSG_UDP              iDivisorNMEA    $MXPGN,00FF16,7808,FF0000002B0A9F41*1B
 
7.07688         MSG_UDP              iDivisorNMEA    $GPGGA,,2254.76289,S,04309.53529,W,1,,,,M,,M,,*56
 
7.07792         MSG_UDP              iDivisorNMEA    $GPGLL,2254.76289,S,04309.53529,W,,A,A*4D
 
7.08714         MSG_UDP              iDivisorNMEA    $GPVTG,281.40,T,,M,1.10,N,2.03,K,A*33
 
7.09743         MSG_UDP              iDivisorNMEA    $AGRSA,-0.84,A,,V*6E
 
7.09752         ANGULO_LEME          iDivisorNMEA    -0.84000     
7.10768         MSG_UDP              iDivisorNMEA    $MXPGN,01F803,281C,0000000000006458*6B
 
7.11794         MSG_UDP              iDivisorNMEA    $MXPGN,01F804,281C,0000002C7CC16458*1B
 
7.12825         MSG_UDP              iDivisorNMEA    $HCHDG,284.4,0.0,E,23.3,W*68
 
7.13858         MSG_UDP              iDivisorNMEA    $GPHDT,261.06,T*06
 
7.14888         MSG_UDP              iDivisorNMEA    $TIROT,0.59,A*07
 
7.15924         MSG_UDP              iDivisorNMEA    $GPGSA,A,3,08,10,16,18,26,27,28,31,32,66,65,86,1.60,1.40,1.40*07
 
7.16957         MSG_UDP              iDivisorNMEA    $GPGSV,3,1,12,08,33,228,38,10,45,164,32,16,16,306,39,18,24,081,39*72
 
7.18004         MSG_UDP              iDivisorNMEA    $GPGSV,3,2,12,26,06,342,40,27,63,258,43,28,12,020,42,31,07,011,39*72
 
7.19100         MSG_UDP              iDivisorNMEA    $GPGSV,3,3,12,32,75,044,47,66,07,321,46,65,57,293,39,86,38,063,44*7C
 
7.20135         MSG_UDP              iDivisorNMEA    $AGRSA,-0.84,A,,V*6E
 
7.20141         ANGULO_LEME          iDivisorNMEA    -0.84000     
7.21164         MSG_UDP              iDivisorNMEA    $GPZDA,131343.210,07,03,2023,,*55
 
7.22202         MSG_UDP              iDivisorNMEA    $MXPGN,01F803,281C,0000000000007859*67
 
7.23236         MSG_UDP              iDivisorNMEA    $MXPGN,01F804,281C,0000002C7CC17859*17
 
7.24272         MSG_UDP              iDivisorNMEA    $MXPGN,00FF00,280B,0002000005049913*19
 
7.25301         MSG_UDP              iDivisorNMEA    $HCHDG,284.4,0.0,E,23.3,W*68
 
7.26330         MSG_UDP              iDivisorNMEA    $GPHDT,261.07,T*07
 
7.27363         MSG_UDP              iDivisorNMEA    $TIROT,0.59,A*07
 
7.28394         MSG_UDP              iDivisorNMEA    $AGRSA,-0.84,A,,V*6E
 
7.28405         ANGULO_LEME          iDivisorNMEA    -0.84000     
7.29430         MSG_UDP              iDivisorNMEA    $MXPGN,01F803,281C,0000000000008C5A*6B
 
7.30465         MSG_UDP              iDivisorNMEA    $MXPGN,01F804,281C,0000000DF9C18C5A*15
 
7.32963         MSG_UDP              iDivisorNMEA    $HCHDG,284.4,0.0,E,23.3,W*68
 
7.32979         MSG_UDP              iDivisorNMEA    $GPHDT,261.08,T*08
 
7.34012         MSG_UDP              iDivisorNMEA    $TIROT,0.59,A*07
 
7.36897         MSG_UDP              iDivisorNMEA    $MXPGN,01FF22,2808,FF01FFFF9F410CA0*1A
 
7.36989         MSG_UDP              iDivisorNMEA    $MXPGN,01FF22,2808,FFFFFF000A003AA1*10
 
7.38023         MSG_UDP              iDivisorNMEA    $AGRSA,-0.90,A,,V*6B
 
7.38033         ANGULO_LEME          iDivisorNMEA    -0.90000     
7.39056         MSG_UDP              iDivisorNMEA    $SDDPT,1.84,0.00,*76
 
7.53224         MSG_UDP              iDivisorNMEA    $HCHDG,284.4,0.0,E,23.3,W*68
 
7.53241         MSG_UDP              iDivisorNMEA    $GPHDT,261.10,T*01
 
7.54270         MSG_UDP              iDivisorNMEA    $TIROT,0.49,A*06
 
7.55299         MSG_UDP              iDivisorNMEA    $MXPGN,01FF1A,782B,FF010B049F4105A0*17
 
7.56342         MSG_UDP              iDivisorNMEA    $MXPGN,01FF0D,780B,FF030000989005A0*17
 
7.58481         MSG_UDP              iDivisorNMEA    $GPGGA,131343.000,2254.75111,S,04309.53676,W,1,12,0.90,11.14,M,-5.60,M,,*48
 
7.58595         MSG_UDP              iDivisorNMEA    $GPGLL,2254.75111,S,04309.53676,W,131343.000,A,A*5C
 
7.59519         MSG_UDP              iDivisorNMEA    $GPRMC,131343.000,A,2254.75111,S,04309.53676,W,0.00,0.00,070323,23.30,W,A*15
 
7.60545         MSG_UDP              iDivisorNMEA    $GPVTG,0.00,T,,M,0.00,N,0.00,K,A*3D
 
7.61580         MSG_UDP              iDivisorNMEA    $GPGGA,131344.000,2254.75300,S,04309.53829,W,1,09,1.60,0.65,M,-5.00,M,,*7D
 
7.62615         MSG_UDP              iDivisorNMEA    $GPGLL,2254.75300,S,04309.53829,W,131344.000,A,A*5D
 
7.63657         MSG_UDP              iDivisorNMEA    $GPRMC,131344.000,A,2254.75300,S,04309.53829,W,0.00,20.49,070323,23.39,W,A*22
 
7.64694         MSG_UDP              iDivisorNMEA    $GPVTG,20.49,T,,M,0.00,N,0.00,K,A*02
 
7.65737         MSG_UDP              iDivisorNMEA    $AGRSA,-0.84,A,,V*6E
 
7.65752         ANGULO_LEME          iDivisorNMEA    -0.84000     
7.66769         MSG_UDP              iDivisorNMEA    $GPGSA,A,3,08,10,16,18,21,23,24,26,27,,,,1.88,1.60,1.60*01
 
7.67792         MSG_UDP              iDivisorNMEA    $GPGSV,3,1,09,08,32,227,43,10,45,164,41,16,15,305,41,18,23,081,44*7C
 
7.68820         MSG_UDP              iDivisorNMEA    $GPGSV,3,2,09,21,02,228,00,23,21,134,00,24,01,123,00,26,05,341,41*79
 
7.69860         MSG_UDP              iDivisorNMEA    $GPGSV,3,3,09,27,62,257,50*44
 
7.70893         MSG_UDP              iDivisorNMEA    $MXPGN,01FA06,681C,8300A700C85D0F80*15
 
7.71925         MSG_UDP              iDivisorNMEA    $MXPGN,01FA06,681C,008500A6ECFA0081*6E
 
7.72953         MSG_UDP              iDivisorNMEA    $MXPGN,01FA06,681C,FFFFFFFFFF014182*12
 
7.73981         MSG_UDP              iDivisorNMEA    $MXPGN,01F803,281C,000000000000005D*15
 
7.75020         MSG_UDP              iDivisorNMEA    $MXPGN,01F804,281C,0000000EF5C1005D*66
 
7.76049         MSG_UDP              iDivisorNMEA    $HCHDG,284.4,0.0,E,23.3,W*68
 
7.77082         MSG_UDP              iDivisorNMEA    $GPHDT,261.10,T*01
 
7.78120         MSG_UDP              iDivisorNMEA    $TIROT,0.49,A*06
 
7.79139         MSG_UDP              iDivisorNMEA    $AGRSA,-0.84,A,,V*6E
 
7.79145         ANGULO_LEME          iDivisorNMEA    -0.84000     
7.80185         MSG_UDP              iDivisorNMEA    $MXPGN,01F803,281C,000000000000145E*11
 
7.81213         MSG_UDP              iDivisorNMEA    $MXPGN,01F804,281C,0000000EF5C1145E*62
 
7.82266         MSG_UDP              iDivisorNMEA    $MXPGN,00FF19,7808,0000000202009F41*15
 
7.83296         MSG_UDP              iDivisorNMEA    $MXPGN,00FF19,7808,0080000A0A009F41*1D
 
7.84347         MSG_UDP              iDivisorNMEA    $MXPGN,00FF00,280B,0002000005049913*19
 
7.85396         MSG_UDP              iDivisorNMEA    $HCHDG,284.4,0.0,E,23.3,W*68
 
7.86428         MSG_UDP              iDivisorNMEA    $GPHDT,261.11,T*00
 
7.87459         MSG_UDP              iDivisorNMEA    $TIROT,0.19,A*03
 
7.88494         MSG_UDP              iDivisorNMEA    $MXPGN,00FF8C,6808,FFF10695C9409F41*64
 
7.89530         MSG_UDP              iDivisorNMEA    $MXPGN,00FF28,3808,FF08FFFDFC059F41*19
 
7.90562         MSG_UDP              iDivisorNMEA    $AGRSA,-0.90,A,,V*6B
 
7.90571         ANGULO_LEME          iDivisorNMEA    -0.90000     
7.91595         MSG_UDP              iDivisorNMEA    !AIVDM,1,1,,A,1:U6vLPP00trHeujpduJLwwH200<,0*61
 
7.92628         MSG_UDP              iDivisorNMEA    $MXPGN,01F803,281C,0000000000003C60*12
 
7.93660         MSG_UDP              iDivisorNMEA    $MXPGN,01F804,281C,0000008A3EC13C60*68
 
7.94697         MSG_UDP              iDivisorNMEA    $HCHDG,284.4,0.0,E,23.3,W*68
 
7.95744         MSG_UDP              iDivisorNMEA    $GPHDT,261.11,T*00
 
7.96777         MSG_UDP              iDivisorNMEA    $TIROT,0.19,A*03
 
7.97810         MSG_UDP              iDivisorNMEA    $AGRSA,-0.90,A,,V*6B
 
7.97820         ANGULO_LEME          iDivisorNMEA    -0.90000     
7.98841         MSG_UDP              iDivisorNMEA    $MXPGN,01F803,281C,0000000000003C60*12
 
7.99875         MSG_UDP              iDivisorNMEA    $MXPGN,01F804,281C,0000008A3EC13C60*68
 
8.00905         MSG_UDP              iDivisorNMEA    $HCHDG,284.4,0.0,E,23.3,W*68
 
8.01928         MSG_UDP              iDivisorNMEA    $GPHDT,261.11,T*00
 
8.02961         MSG_UDP              iDivisorNMEA    $TIROT,0.00,A*0B
 
8.03992         MSG_UDP              iDivisorNMEA    $MXPGN,00FF3C,3808,8000F8FE00009F41*1C
 
8.05016         MSG_UDP              iDivisorNMEA    $MXPGN,00FF00,280B,0002000005049913*19
 
8.06040         MSG_UDP              iDivisorNMEA    $AGRSA,-0.90,A,,V*6B
 
8.06049         ANGULO_LEME          iDivisorNMEA    -0.90000     
8.07077         MSG_UDP              iDivisorNMEA    $MXPGN,01F803,281C,0000000000005061*66
 
8.08112         MSG_UDP              iDivisorNMEA    $MXPGN,01F804,281C,0000008A3EC15061*1C
 
8.09133         MSG_UDP              iDivisorNMEA    $HCHDG,284.4,0.0,E,23.3,W*68
 
8.10158         MSG_UDP              iDivisorNMEA    $GPHDT,261.12,T*03
 
8.11182         MSG_UDP              iDivisorNMEA    $TIROT,0.00,A*0B
 
8.12215         MSG_UDP              iDivisorNMEA    $MXPGN,00FF16,7808,FF0000002B0A9F41*1B
 
8.13246         MSG_UDP              iDivisorNMEA    $GPGGA,,2254.76299,S,04309.53519,W,1,,,,M,,M,,*54
 
8.14283         MSG_UDP              iDivisorNMEA    $GPGLL,2254.76299,S,04309.53519,W,,A,A*4F
 
8.15312         MSG_UDP              iDivisorNMEA    $GPVTG,281.40,T,,M,0.90,N,1.66,K,A*3A
 
8.16333         MSG_UDP              iDivisorNMEA    $AGRSA,-0.90,A,,V*6B
 
8.16341         ANGULO_LEME          iDivisorNMEA    -0.90000     
8.17365         MSG_UDP              iDivisorNMEA    $MXPGN,01F803,281C,0000000000006462*62
 
8.44359         MSG_UDP              iDivisorNMEA    $HCHDG,284.5,0.0,E,23.3,W*69
 
8.44434         MSG_UDP              iDivisorNMEA    $GPHDT,261.15,T*04
 
8.45395         MSG_UDP              iDivisorNMEA    $TIROT,-0.09,A*2F
 
8.48287         MSG_UDP              iDivisorNMEA    $MXPGN,01FF2C,7808,FFFFFFFF9F4117A0*1A
 
8.48397         MSG_UDP              iDivisorNMEA    $MXPGN,01FF2C,7808,FFFF7FFFFFFF7FA1*67
 
8.49327         MSG_UDP              iDivisorNMEA    $MXPGN,01FF2C,7808,FF7FFFFFFFFFFFA2*15
 
8.50357         MSG_UDP              iDivisorNMEA    $MXPGN,00FF00,280B,0002000005049913*19
 
8.51393         MSG_UDP              iDivisorNMEA    $MXPGN,01FF2C,7808,FFFFFFFF7FFFFFA3*14
 
8.52426         MSG_UDP              iDivisorNMEA    $AGRSA,-0.90,A,,V*6B
 
8.52437         ANGULO_LEME          iDivisorNMEA    -0.90000     
8.53466         MSG_UDP              iDivisorNMEA    $MXPGN,01F803,281C,000000000000B466*12
 
8.54502         MSG_UDP              iDivisorNMEA    $MXPGN,01F804,281C,0000001FB3C1B466*61
 
8.55528         MSG_UDP              iDivisorNMEA    $MXPGN,00FF3D,6808,7FFFFF0DFFFF9F41*6E
 
8.56561         MSG_UDP              iDivisorNMEA    $MXPGN,01FF1A,680B,FF022B849F410520*6E
 
8.57590         MSG_UDP              iDivisorNMEA    $HCHDG,284.5,0.0,E,23.3,W*69
 
8.58621         MSG_UDP              iDivisorNMEA    $GPHDT,261.15,T*04
 
8.59649         MSG_UDP              iDivisorNMEA    $TIROT,-0.09,A*2F
 
8.60684         MSG_UDP              iDivisorNMEA    $MXPGN,01FF1A,782B,FF010B049F4105C0*15
 
8.61716         MSG_UDP              iDivisorNMEA    $MXPGN,01FF0D,780B,FF030000989005C0*15
 
8.62746         MSG_UDP              iDivisorNMEA    $GPGSA,A,3,08,10,16,18,21,23,24,26,27,,,,1.88,1.60,1.60*01
 
8.63779         MSG_UDP              iDivisorNMEA    $GPGSV,3,1,09,08,33,227,43,10,45,164,41,16,15,305,41,18,23,081,44*7D
 
8.64810         MSG_UDP              iDivisorNMEA    $GPGSV,3,2,09,21,02,228,00,23,21,134,00,24,01,123,00,26,05,341,41*79
 
8.65871         MSG_UDP              iDivisorNMEA    $GPGSV,3,3,09,27,62,257,50*44
 
8.66903         MSG_UDP              iDivisorNMEA    $GPGGA,131344.000,2254.75107,S,04309.53675,W,1,12,0.90,11.27,M,-5.60,M,,*4B
 
8.67932         MSG_UDP              iDivisorNMEA    $GPGLL,2254.75107,S,04309.53675,W,131344.000,A,A*5F
 
8.68961         MSG_UDP              iDivisorNMEA    $GPRMC,131344.000,A,2254.75107,S,04309.53675,W,0.09,0.00,070323,23.30,W,A*1F
 
8.69992         MSG_UDP              iDivisorNMEA    $GPVTG,0.00,T,,M,0.09,N,0.16,K,A*33
 
8.71020         MSG_UDP              iDivisorNMEA    $GPGGA,131345.000,2254.75300,S,04309.53829,W,1,09,1.60,0.65,M,-5.00,M,,*7C
 
8.72052         MSG_UDP              iDivisorNMEA    $GPGLL,2254.75300,S,04309.53829,W,131345.000,A,A*5C
 
8.73081         MSG_UDP              iDivisorNMEA    $GPRMC,131345.000,A,2254.75300,S,04309.53829,W,0.01,46.49,070323,23.39,W,A*22
 
8.74110         MSG_UDP              iDivisorNMEA    $GPVTG,46.49,T,,M,0.01,N,0.01,K,A*02
 
8.75130         MSG_UDP              iDivisorNMEA    $AGRSA,-0.90,A,,V*6B
 
8.75136         ANGULO_LEME          iDivisorNMEA    -0.90000     
8.76179         MSG_UDP              iDivisorNMEA    $MXPGN,01FA06,681C,8300A700C8670FA0*1C
 
8.77205         MSG_UDP              iDivisorNMEA    $MXPGN,01FA06,681C,008500A6ECFA00A1*17
 
8.78238         MSG_UDP              iDivisorNMEA    $MXPGN,01FA06,681C,FFFFFFFFFF0141A2*6B
 
8.79268         MSG_UDP              iDivisorNMEA    $MXPGN,01F803,281C,0000000000000067*65
 
8.80319         MSG_UDP              iDivisorNMEA    $MXPGN,01F804,281C,0000002BDFC10067*62
 
8.81344         MSG_UDP              iDivisorNMEA    $HCHDG,284.5,0.0,E,23.3,W*69
 
8.82367         MSG_UDP              iDivisorNMEA    $GPHDT,261.15,T*04
 
8.83399         MSG_UDP              iDivisorNMEA    $TIROT,-0.09,A*2F
 
8.84427         MSG_UDP              iDivisorNMEA    $AGRSA,-0.90,A,,V*6B
 
8.84434         ANGULO_LEME          iDivisorNMEA    -0.90000     
8.85482         MSG_UDP              iDivisorNMEA    $MXPGN,01F803,281C,0000000000001468*6F
 
8.86528         MSG_UDP              iDivisorNMEA    $MXPGN,01F804,281C,0000002BDFC11468*68
 
8.87557         MSG_UDP              iDivisorNMEA    $MXPGN,00FF19,7808,0000000202009F41*15
 
8.88587         MSG_UDP              iDivisorNMEA    $MXPGN,00FF19,7808,0080000A0A009F41*1D
 
8.89615         MSG_UDP              iDivisorNMEA    $MXPGN,00FF00,280B,0002000005049913*19
 
8.90659         MSG_UDP              iDivisorNMEA    $HCHDG,284.5,0.0,E,23.3,W*69
 
8.91687         MSG_UDP              iDivisorNMEA    $GPHDT,261.16,T*07
 
8.92719         MSG_UDP              iDivisorNMEA    $TIROT,-0.19,A*2E
 
8.93747         MSG_UDP              iDivisorNMEA    $MXPGN,00FF8C,6808,FFF10695C9409F41*64
 
8.94770         MSG_UDP              iDivisorNMEA    $MXPGN,00FF28,3808,FF08FFFDFC059F41*19
 
8.95882         MSG_UDP              iDivisorNMEA    $AGRSA,-0.84,A,,V*6E
 
8.95888         ANGULO_LEME          iDivisorNMEA    -0.84000     
8.96913         MSG_UDP              iDivisorNMEA    $MXPGN,01F803,281C,0000000000002869*61
 
8.97940         MSG_UDP              iDivisorNMEA    $MXPGN,01F804,281C,00000029FFC12869*1F
 
8.98969         MSG_UDP              iDivisorNMEA    $HCHDG,284.5,0.0,E,23.3,W*69
 
9.00003         MSG_UDP              iDivisorNMEA    $GPHDT,261.17,T*06
 
9.01041         MSG_UDP              iDivisorNMEA    $TIROT,-0.19,A*2E
 
9.02072         MSG_UDP              iDivisorNMEA    !AIVDM,1,1,,B,16:>J;?P00LrE8ejr;35bwwL0HJS,0*74
 
9.03119         MSG_UDP              iDivisorNMEA    $AGRSA,-0.84,A,,V*6E
 
9.03127         ANGULO_LEME          iDivisorNMEA    -0.84000     
9.04168         MSG_UDP              iDivisorNMEA    $MXPGN,01F803,281C,0000000000003C6A*63
 
9.05202         MSG_UDP              iDivisorNMEA    $MXPGN,01F804,281C,00000029FFC13C6A*1D
 
9.06240         MSG_UDP              iDivisorNMEA    $HCHDG,284.5,0.0,E,23.3,W*69
 
9.07273         MSG_UDP              iDivisorNMEA    $GPHDT,261.17,T*06
 
9.08304         MSG_UDP              iDivisorNMEA    $TIROT,-0.09,A*2F
 
9.09338         MSG_UDP              iDivisorNMEA    $MXPGN,00FF3C,3808,8000F8FE00009F41*1C
 
9.35378         MSG_UDP              iDivisorNMEA    $HCHDG,284.4,0.0,E,23.3,W*68
 
9.35444         MSG_UDP              iDivisorNMEA    $GPHDT,261.14,T*05
 
9.36478         MSG_UDP              iDivisorNMEA    $TIROT,-0.19,A*2E
 
9.40406         MSG_UDP              iDivisorNMEA    $AGRSA,-0.90,A,,V*6B
 
9.40414         ANGULO_LEME          iDivisorNMEA    -0.90000     
9.40418         MSG_UDP              iDivisorNMEA    $SDDPT,1.77,0.00,*7A
 
