%%%%%%%%%%%%%%%%%%%%%%%%%%%%%%%%%%%%%%%%%%%%%%%%%%%%%%%%%%%
%% LOG FILE:       /home/moos-ivp-douglas/log/teste_6_3_2023_____08_01_22/teste_6_3_2023_____08_01_22.alog
%% FILE OPENED ON  Wed Dec 31 21:00:00 1969
%% LOGSTART           1678100481.383581
%%%%%%%%%%%%%%%%%%%%%%%%%%%%%%%%%%%%%%%%%%%%%%%%%%%%%%%%%%%
-0.03861        MOOS_DEBUG           pHelmIvP        pHelmIvP AllStop: ManualOverride 
-0.03860        DESIRED_SPEED        pHelmIvP        0.00000      
-0.03860        DESIRED_HEADING      pHelmIvP        0.00000      
0.15941         DESIRED_RUDDER       pMarinePIDV22   0.00000      
0.15941         DESIRED_THRUST       pMarinePIDV22   0.00000      
0.69955         MSG_UDP              iDivisorNMEA    $AGRSA,4.32,A,,V*4A
 
0.69959         ANGULO_LEME          iDivisorNMEA    4.32000      
0.71692         MSG_UDP              iDivisorNMEA    $HCHDG,285.2,0.0,E,23.3,W*6F
 
0.72010         MSG_UDP              iDivisorNMEA    $GPHDT,261.90,T*09
 
0.73025         MSG_UDP              iDivisorNMEA    $TIROT,1.09,A*03
 
0.74038         MSG_UDP              iDivisorNMEA    $MXPGN,00FF00,280B,0002000005049913*19
 
0.75054         MSG_UDP              iDivisorNMEA    $MXPGN,01F803,281C,0000000000008C3B*6E
 
0.76072         MSG_UDP              iDivisorNMEA    $MXPGN,01F804,281C,00006300EBC18C3B*19
 
0.77090         MSG_UDP              iDivisorNMEA    $AGRSA,4.32,A,,V*4A
 
0.77095         ANGULO_LEME          iDivisorNMEA    4.32000      
0.78107         MSG_UDP              iDivisorNMEA    $MXPGN,00FF19,7808,0000000202009F41*15
 
0.79280         MSG_UDP              iDivisorNMEA    $MXPGN,00FF19,7808,0080000A0A009F41*1D
 
1.06598         MSG_UDP              iDivisorNMEA    $AGRSA,4.32,A,,V*4A
 
1.06607         ANGULO_LEME          iDivisorNMEA    4.32000      
1.11703         MSG_UDP              iDivisorNMEA    $HCHDG,285.2,0.0,E,23.3,W*6F
 
1.11723         MSG_UDP              iDivisorNMEA    $GPHDT,261.89,T*01
 
1.12743         MSG_UDP              iDivisorNMEA    $TIROT,1.09,A*03
 
1.14292         MSG_UDP              iDivisorNMEA    $MXPGN,00FF16,7808,FF0000002B0A9F41*1B
 
1.14811         MSG_UDP              iDivisorNMEA    $MXPGN,01F803,281C,0000000000003B3F*60
 
1.15828         MSG_UDP              iDivisorNMEA    $MXPGN,01F804,281C,0000003E0CC13B3F*10
 
1.16846         MSG_UDP              iDivisorNMEA    $AGRSA,4.32,A,,V*4A
 
1.16850         ANGULO_LEME          iDivisorNMEA    4.32000      
1.21694         MSG_UDP              iDivisorNMEA    $HCHDG,285.2,0.0,E,23.3,W*6F
 
1.21701         MSG_UDP              iDivisorNMEA    $GPHDT,261.88,T*00
 
1.22717         MSG_UDP              iDivisorNMEA    $TIROT,1.09,A*03
 
1.23995         MSG_UDP              iDivisorNMEA    $MXPGN,00FF00,280B,0002000005049913*19
 
1.24811         MSG_UDP              iDivisorNMEA    $MXPGN,01F803,281C,0000000000005040*65
 
1.25829         MSG_UDP              iDivisorNMEA    $MXPGN,01F804,281C,0000003172C15040*17
 
1.26846         MSG_UDP              iDivisorNMEA    $GPGGA,,2254.74759,S,04309.53759,W,1,,,,M,,M,,*59
 
1.27864         MSG_UDP              iDivisorNMEA    $GPGLL,2254.74759,S,04309.53759,W,,A,A*42
 
1.28881         MSG_UDP              iDivisorNMEA    $GPVTG,7.40,T,,M,0.30,N,0.55,K,A*3D
 
1.29894         MSG_UDP              iDivisorNMEA    $AGRSA,4.32,A,,V*4A
 
1.29897         ANGULO_LEME          iDivisorNMEA    4.32000      
1.31701         MSG_UDP              iDivisorNMEA    $GPGSA,A,3,08,10,16,18,27,28,31,32,65,85,86,72,1.70,1.40,1.40*0A
 
1.31924         MSG_UDP              iDivisorNMEA    $GPGSV,3,1,12,08,44,250,47,10,34,144,27,16,06,323,38,18,13,063,34*77
 
1.32937         MSG_UDP              iDivisorNMEA    $GPGSV,3,2,12,27,58,306,44,28,25,035,41,31,19,025,45,32,70,133,43*74
 
1.33954         MSG_UDP              iDivisorNMEA    $GPGSV,3,3,12,65,24,301,39,85,30,039,42,86,72,088,39,72,62,240,37*77
 
1.34973         MSG_UDP              iDivisorNMEA    $HCHDG,285.2,0.0,E,23.3,W*6F
 
1.35989         MSG_UDP              iDivisorNMEA    $GPHDT,261.88,T*00
 
1.37003         MSG_UDP              iDivisorNMEA    $TIROT,1.09,A*03
 
1.38016         MSG_UDP              iDivisorNMEA    $MXPGN,01FF0D,780B,FF03000098900560*60
 
1.39031         MSG_UDP              iDivisorNMEA    $MXPGN,01FF1A,680B,FF022B849F4105E0*19
 
1.40051         MSG_UDP              iDivisorNMEA    $MXPGN,01F803,281C,0000000000006441*63
 
1.41065         MSG_UDP              iDivisorNMEA    $MXPGN,01F804,281C,0000003172C16441*11
 
1.42082         MSG_UDP              iDivisorNMEA    $MXPGN,01FF1A,782B,FF010B049F4105A0*17
 
1.43102         MSG_UDP              iDivisorNMEA    $AGRSA,4.32,A,,V*4A
 
1.43105         ANGULO_LEME          iDivisorNMEA    4.32000      
1.44117         MSG_UDP              iDivisorNMEA    $GPZDA,140121.780,06,03,2023,,*58
 
1.45134         MSG_UDP              iDivisorNMEA    $HCHDG,285.2,0.0,E,23.3,W*6F
 
1.46152         MSG_UDP              iDivisorNMEA    $GPHDT,261.88,T*00
 
1.47168         MSG_UDP              iDivisorNMEA    $TIROT,1.09,A*03
 
1.48183         MSG_UDP              iDivisorNMEA    $MXPGN,01F803,281C,0000000000007842*6D
 
1.49201         MSG_UDP              iDivisorNMEA    $MXPGN,01F804,281C,0000001E47C17842*6F
 
1.50218         MSG_UDP              iDivisorNMEA    $AGRSA,4.32,A,,V*4A
 
1.50220         ANGULO_LEME          iDivisorNMEA    4.32000      
1.51229         MSG_UDP              iDivisorNMEA    $MXPGN,00FF00,280B,0002000005049913*19
 
1.52244         MSG_UDP              iDivisorNMEA    $HCHDG,285.2,0.0,E,23.3,W*6F
 
1.53263         MSG_UDP              iDivisorNMEA    $GPHDT,261.88,T*00
 
1.54280         MSG_UDP              iDivisorNMEA    $TIROT,0.99,A*0B
 
1.55296         MSG_UDP              iDivisorNMEA    $MXPGN,01FF2C,7808,FFFFFFFF9F411740*6F
 
1.56315         MSG_UDP              iDivisorNMEA    $MXPGN,01FF2C,7808,FFFF7FFFFFFF7F41*12
 
1.57332         MSG_UDP              iDivisorNMEA    $MXPGN,01FF2C,7808,FF7FFFFFFFFFFF42*60
 
1.58367         MSG_UDP              iDivisorNMEA    $MXPGN,01F803,281C,0000000000008C43*18
 
1.59388         MSG_UDP              iDivisorNMEA    $MXPGN,01F804,281C,0000001E47C18C43*1A
 
1.60406         MSG_UDP              iDivisorNMEA    $MXPGN,01FF2C,7808,FFFFFFFF7FFFFF43*61
 
1.61425         MSG_UDP              iDivisorNMEA    $AGRSA,4.32,A,,V*4A
 
1.61429         ANGULO_LEME          iDivisorNMEA    4.32000      
1.62443         MSG_UDP              iDivisorNMEA    $SDDPT,1.76,0.00,*7B
 
1.63461         MSG_UDP              iDivisorNMEA    $MXPGN,00FF3D,6808,7FFFFF0DFFFF9F41*6E
 
1.64483         MSG_UDP              iDivisorNMEA    $HCHDG,285.2,0.0,E,23.3,W*6F
 
1.65497         MSG_UDP              iDivisorNMEA    $GPHDT,261.88,T*00
 
1.66509         MSG_UDP              iDivisorNMEA    $TIROT,0.99,A*0B
 
1.67519         MSG_UDP              iDivisorNMEA    $MXPGN,01F803,281C,0000000000009F44*1B
 
1.68531         MSG_UDP              iDivisorNMEA    $MXPGN,01F804,281C,0000001E47C19F44*19
 
1.69554         MSG_UDP              iDivisorNMEA    $GPGGA,140122.000,2254.75399,S,04309.53994,W,1,12,1.00,4.19,M,-5.60,M,,*7B
 
1.70569         MSG_UDP              iDivisorNMEA    $GPGLL,2254.75399,S,04309.53994,W,140122.000,A,A*5E
 
1.71587         MSG_UDP              iDivisorNMEA    $GPRMC,140122.000,A,2254.75399,S,04309.53994,W,0.19,0.00,060323,23.30,W,A*1E
 
1.72604         MSG_UDP              iDivisorNMEA    $GPVTG,0.00,T,,M,0.19,N,0.35,K,A*33
 
1.73620         MSG_UDP              iDivisorNMEA    $AGRSA,4.32,A,,V*4A
 
1.73623         ANGULO_LEME          iDivisorNMEA    4.32000      
1.74638         MSG_UDP              iDivisorNMEA    $HCHDG,285.2,0.0,E,23.3,W*6F
 
1.75654         MSG_UDP              iDivisorNMEA    $GPHDT,261.88,T*00
 
1.76668         MSG_UDP              iDivisorNMEA    $TIROT,0.99,A*0B
 
1.96582         MSG_UDP              iDivisorNMEA    $AGRSA,4.32,A,,V*4A
 
1.96588         ANGULO_LEME          iDivisorNMEA    4.32000      
1.99004         MSG_UDP              iDivisorNMEA    $MXPGN,00FF00,280B,0002000005049913*19
 
2.01905         MSG_UDP              iDivisorNMEA    $GPGGA,140123.300,2254.75300,S,04309.53850,W,1,07,2.00,-1.17,M,-5.00,M,,*57
 
2.01996         MSG_UDP              iDivisorNMEA    $GPGLL,2254.75300,S,04309.53850,W,140123.300,A,A*55
 
2.03016         MSG_UDP              iDivisorNMEA    $GPRMC,140123.300,A,2254.75300,S,04309.53850,W,0.01,354.01,060323,23.39,W,A*16
 
2.04043         MSG_UDP              iDivisorNMEA    $GPVTG,354.01,T,,M,0.01,N,0.01,K,A*3E
 
2.05082         MSG_UDP              iDivisorNMEA    $HCHDG,285.2,0.0,E,23.3,W*6F
 
2.06122         MSG_UDP              iDivisorNMEA    $GPHDT,261.87,T*0F
 
2.07157         MSG_UDP              iDivisorNMEA    $TIROT,1.09,A*03
 
2.08189         MSG_UDP              iDivisorNMEA    $GPGSA,A,3,08,10,16,18,21,23,27,,,,,,2.56,2.00,2.00*03
 
2.09223         MSG_UDP              iDivisorNMEA    $GPGSV,2,1,07,08,44,249,48,10,34,144,00,16,06,322,41,18,13,063,46*7A
 
2.10258         MSG_UDP              iDivisorNMEA    $GPGSV,2,2,07,21,17,218,00,23,10,119,00,27,57,305,50*4D
 
2.11286         MSG_UDP              iDivisorNMEA    $MXPGN,01FA06,681C,8A012500C8480F80*6A
 
2.12316         MSG_UDP              iDivisorNMEA    $MXPGN,01FA06,681C,008C0124F25C0081*6B
 
2.13347         MSG_UDP              iDivisorNMEA    $MXPGN,01FA06,681C,FFFFFFFFFF01A382*65
 
2.14376         MSG_UDP              iDivisorNMEA    $MXPGN,00FF3C,3808,8000F8FE00009F41*1C
 
2.15404         MSG_UDP              iDivisorNMEA    $MXPGN,01F803,281C,0000000000000048*68
 
2.16434         MSG_UDP              iDivisorNMEA    $MXPGN,01F804,281C,000000F15CC10048*1C
 
2.17464         MSG_UDP              iDivisorNMEA    $AGRSA,4.32,A,,V*4A
 
2.17473         ANGULO_LEME          iDivisorNMEA    4.32000      
2.18491         MSG_UDP              iDivisorNMEA    $HCHDG,285.2,0.0,E,23.3,W*6F
 
2.19519         MSG_UDP              iDivisorNMEA    $GPHDT,261.87,T*0F
 
2.20548         MSG_UDP              iDivisorNMEA    $TIROT,0.79,A*05
 
2.21574         MSG_UDP              iDivisorNMEA    $MXPGN,00FF16,7808,FF0000002B0A9F41*1B
 
2.22604         MSG_UDP              iDivisorNMEA    $MXPGN,01F803,281C,0000000000001449*6C
 
2.23640         MSG_UDP              iDivisorNMEA    $MXPGN,01F804,281C,000000F15CC11449*18
 
2.24688         MSG_UDP              iDivisorNMEA    $AGRSA,4.32,A,,V*4A
 
2.24696         ANGULO_LEME          iDivisorNMEA    4.32000      
2.25714         MSG_UDP              iDivisorNMEA    !AIVDM,1,1,,A,3:U7oI07Q4trJ?Ajqk7aC7Hf20sA,0*77
 
2.26739         MSG_UDP              iDivisorNMEA    $HCHDG,285.2,0.0,E,23.3,W*6F
 
2.27769         MSG_UDP              iDivisorNMEA    $GPHDT,261.87,T*0F
 
2.28799         MSG_UDP              iDivisorNMEA    $TIROT,0.79,A*05
 
2.29822         MSG_UDP              iDivisorNMEA    $MXPGN,00FF00,280B,0002000005049913*19
 
2.30848         MSG_UDP              iDivisorNMEA    $MXPGN,01F803,281C,000000000000284A*1B
 
2.31873         MSG_UDP              iDivisorNMEA    $MXPGN,01F804,281C,000000216DC1284A*1F
 
2.32892         MSG_UDP              iDivisorNMEA    $GPGGA,,2254.74759,S,04309.53759,W,1,,,,M,,M,,*59
 
2.33919         MSG_UDP              iDivisorNMEA    $GPGLL,2254.74759,S,04309.53759,W,,A,A*42
 
2.34957         MSG_UDP              iDivisorNMEA    $GPVTG,7.40,T,,M,0.30,N,0.55,K,A*3D
 
2.36011         MSG_UDP              iDivisorNMEA    $AGRSA,4.32,A,,V*4A
 
2.36019         ANGULO_LEME          iDivisorNMEA    4.32000      
2.37041         MSG_UDP              iDivisorNMEA    $GPGSA,A,3,08,10,16,18,27,28,31,32,65,85,86,72,1.70,1.40,1.40*0A
 
2.38077         MSG_UDP              iDivisorNMEA    $GPGSV,3,1,12,08,44,250,47,10,34,144,27,16,06,323,38,18,13,063,34*77
 
2.39103         MSG_UDP              iDivisorNMEA    $GPGSV,3,2,12,27,58,306,44,28,25,035,41,31,19,025,45,32,70,133,43*74
 
2.40127         MSG_UDP              iDivisorNMEA    $GPGSV,3,3,12,65,24,301,39,85,30,039,43,86,72,088,39,72,62,240,37*76
 
2.41158         MSG_UDP              iDivisorNMEA    $HCHDG,285.2,0.0,E,23.3,W*6F
 
2.42183         MSG_UDP              iDivisorNMEA    $GPHDT,261.87,T*0F
 
2.43213         MSG_UDP              iDivisorNMEA    $TIROT,0.79,A*05
 
2.44249         MSG_UDP              iDivisorNMEA    $MXPGN,01FF0D,780B,FF03000098900580*6E
 
2.45279         MSG_UDP              iDivisorNMEA    $MXPGN,01FF1A,680B,FF022B849F410500*6C
 
2.46299         MSG_UDP              iDivisorNMEA    $MXPGN,01FF1A,782B,FF010B049F4105C0*15
 
2.47324         MSG_UDP              iDivisorNMEA    $MXPGN,01F803,281C,0000000000003C4B*62
 
2.48420         MSG_UDP              iDivisorNMEA    $MXPGN,01F804,281C,000000216DC13C4B*66
 
2.49458         MSG_UDP              iDivisorNMEA    $AGRSA,4.32,A,,V*4A
 
2.49467         ANGULO_LEME          iDivisorNMEA    4.32000      
2.50482         MSG_UDP              iDivisorNMEA    $GPZDA,140122.780,06,03,2023,,*5B
 
2.51504         MSG_UDP              iDivisorNMEA    $HCHDG,285.2,0.0,E,23.3,W*6F
 
2.52526         MSG_UDP              iDivisorNMEA    $GPHDT,261.86,T*0E
 
2.53549         MSG_UDP              iDivisorNMEA    $TIROT,0.79,A*05
 
2.54571         MSG_UDP              iDivisorNMEA    $MXPGN,01F803,281C,000000000000504C*16
 
2.55603         MSG_UDP              iDivisorNMEA    $MXPGN,01F804,281C,000000834BC1504C*1E
 
2.56633         MSG_UDP              iDivisorNMEA    $AGRSA,4.32,A,,V*4A
 
2.56638         ANGULO_LEME          iDivisorNMEA    4.32000      
2.57662         MSG_UDP              iDivisorNMEA    $MXPGN,00FF00,280B,0002000005049913*19
 
2.58689         MSG_UDP              iDivisorNMEA    $HCHDG,285.2,0.0,E,23.3,W*6F
 
2.59719         MSG_UDP              iDivisorNMEA    $GPHDT,261.86,T*0E
 
2.60743         MSG_UDP              iDivisorNMEA    $TIROT,0.79,A*05
 
2.61769         MSG_UDP              iDivisorNMEA    $MXPGN,01FF2C,7808,FFFFFFFF9F411760*6D
 
2.62800         MSG_UDP              iDivisorNMEA    $MXPGN,01FF2C,7808,FFFF7FFFFFFF7F61*10
 
2.63829         MSG_UDP              iDivisorNMEA    $MXPGN,01FF2C,7808,FF7FFFFFFFFFFF62*62
 
2.86594         MSG_UDP              iDivisorNMEA    $AGRSA,4.32,A,,V*4A
 
2.86597         ANGULO_LEME          iDivisorNMEA    4.32000      
2.91714         MSG_UDP              iDivisorNMEA    $HCHDG,285.2,0.0,E,23.3,W*6F
 
2.91730         MSG_UDP              iDivisorNMEA    $GPHDT,261.86,T*0E
 
2.92761         MSG_UDP              iDivisorNMEA    $TIROT,0.59,A*07
 
2.94507         MSG_UDP              iDivisorNMEA    $MXPGN,01F803,281C,000000000000B451*16
 
2.94837         MSG_UDP              iDivisorNMEA    $MXPGN,01F804,281C,0000005B52C1B451*13
 
2.96600         MSG_UDP              iDivisorNMEA    $AGRSA,4.32,A,,V*4A
 
2.96607         ANGULO_LEME          iDivisorNMEA    4.32000      
2.98992         MSG_UDP              iDivisorNMEA    $MXPGN,00FF00,280B,0002000005049913*19
 
3.01300         MSG_UDP              iDivisorNMEA    !AIVDO,1,1,,,B:UOH3P00W>VtHLf>fh4cwd5oP06,0*7D
 
3.01825         MSG_UDP              iDivisorNMEA    $GPGGA,140124.300,2254.75300,S,04309.53850,W,1,07,1.60,-1.17,M,-5.00,M,,*55
 
3.02457         MSG_UDP              iDivisorNMEA    $GPGLL,2254.75300,S,04309.53850,W,140124.300,A,A*52
 
3.03493         MSG_UDP              iDivisorNMEA    $GPRMC,140124.300,A,2254.75300,S,04309.53850,W,0.01,133.94,060323,23.39,W,A*1E
 
3.04526         MSG_UDP              iDivisorNMEA    $GPVTG,133.94,T,,M,0.01,N,0.01,K,A*31
 
3.05557         MSG_UDP              iDivisorNMEA    $HCHDG,285.2,0.0,E,23.3,W*6F
 
3.06585         MSG_UDP              iDivisorNMEA    $GPHDT,261.87,T*0F
 
3.07616         MSG_UDP              iDivisorNMEA    $TIROT,0.59,A*07
 
3.08645         MSG_UDP              iDivisorNMEA    $GPGSA,A,3,08,10,16,18,21,23,27,,,,,,2.56,2.00,2.00*03
 
3.09679         MSG_UDP              iDivisorNMEA    $GPGSV,2,1,07,08,44,249,48,10,34,144,00,16,06,322,42,18,13,063,46*79
 
3.10715         MSG_UDP              iDivisorNMEA    $GPGSV,2,2,07,21,17,218,00,23,10,119,00,27,57,305,50*4D
 
3.11751         MSG_UDP              iDivisorNMEA    $MXPGN,01FA06,681C,8A012500C8520FA0*18
 
3.12795         MSG_UDP              iDivisorNMEA    $MXPGN,01FA06,681C,008C0124F25C00A1*12
 
3.13823         MSG_UDP              iDivisorNMEA    $MXPGN,01FA06,681C,FFFFFFFFFF01A3A2*1C
 
3.14851         MSG_UDP              iDivisorNMEA    $MXPGN,00FF3C,3808,8000F8FE00009F41*1C
 
3.15882         MSG_UDP              iDivisorNMEA    $MXPGN,01F803,281C,0000000000000052*63
 
3.16909         MSG_UDP              iDivisorNMEA    $MXPGN,01F804,281C,0000005B52C10052*66
 
3.17938         MSG_UDP              iDivisorNMEA    $AGRSA,4.37,A,,V*4F
 
3.17946         ANGULO_LEME          iDivisorNMEA    4.37000      
3.18966         MSG_UDP              iDivisorNMEA    $HCHDG,285.2,0.0,E,23.3,W*6F
 
3.19992         MSG_UDP              iDivisorNMEA    $GPHDT,261.87,T*0F
 
3.21019         MSG_UDP              iDivisorNMEA    $TIROT,0.39,A*01
 
3.22046         MSG_UDP              iDivisorNMEA    $MXPGN,00FF16,7808,FF0000002B0A9F41*1B
 
3.23074         MSG_UDP              iDivisorNMEA    $MXPGN,01F803,281C,0000000000001453*67
 
3.24096         MSG_UDP              iDivisorNMEA    $MXPGN,01F804,281C,0000005B52C11453*62
 
3.25125         MSG_UDP              iDivisorNMEA    $AGRSA,4.37,A,,V*4F
 
3.25134         ANGULO_LEME          iDivisorNMEA    4.37000      
3.26156         MSG_UDP              iDivisorNMEA    $HCHDG,285.2,0.0,E,23.3,W*6F
 
3.27183         MSG_UDP              iDivisorNMEA    $GPHDT,261.86,T*0E
 
3.28215         MSG_UDP              iDivisorNMEA    $TIROT,0.39,A*01
 
3.29241         MSG_UDP              iDivisorNMEA    $MXPGN,00FF00,280B,0002000005049913*19
 
3.30270         MSG_UDP              iDivisorNMEA    $MXPGN,01F803,281C,0000000000002854*6F
 
3.31296         MSG_UDP              iDivisorNMEA    $MXPGN,01F804,281C,0000005559C12854*16
 
3.32326         MSG_UDP              iDivisorNMEA    $GPGGA,,2254.74769,S,04309.53759,W,1,,,,M,,M,,*5A
 
3.33361         MSG_UDP              iDivisorNMEA    $GPGLL,2254.74769,S,04309.53759,W,,A,A*41
 
3.34388         MSG_UDP              iDivisorNMEA    $GPVTG,7.40,T,,M,0.20,N,0.37,K,A*38
 
3.35415         MSG_UDP              iDivisorNMEA    $AGRSA,4.32,A,,V*4A
 
3.35425         ANGULO_LEME          iDivisorNMEA    4.32000      
3.36467         MSG_UDP              iDivisorNMEA    $GPGSA,A,3,08,10,16,18,27,28,31,32,65,85,86,72,1.70,1.40,1.40*0A
 
3.37504         MSG_UDP              iDivisorNMEA    $GPGSV,3,1,12,08,44,250,47,10,34,144,27,16,06,323,38,18,13,063,34*77
 
3.38538         MSG_UDP              iDivisorNMEA    $GPGSV,3,2,12,27,58,306,44,28,25,035,41,31,19,025,45,32,70,133,43*74
 
3.39573         MSG_UDP              iDivisorNMEA    $GPGSV,3,3,12,65,24,301,39,85,30,039,43,86,72,088,39,72,62,240,37*76
 
3.40608         MSG_UDP              iDivisorNMEA    $HCHDG,285.2,0.0,E,23.3,W*6F
 
3.41641         MSG_UDP              iDivisorNMEA    $GPHDT,261.86,T*0E
 
3.42677         MSG_UDP              iDivisorNMEA    $TIROT,0.39,A*01
 
3.43719         MSG_UDP              iDivisorNMEA    $MXPGN,01FF0D,780B,FF030000989005A0*17
 
3.44751         MSG_UDP              iDivisorNMEA    $MXPGN,01FF1A,680B,FF022B849F410520*6E
 
3.45783         MSG_UDP              iDivisorNMEA    $MXPGN,01FF1A,782B,FF010B049F4105E0*13
 
3.46815         MSG_UDP              iDivisorNMEA    $MXPGN,01F803,281C,0000000000003C55*14
 
3.47864         MSG_UDP              iDivisorNMEA    $MXPGN,01F804,281C,0000005559C13C55*6D
 
3.48892         MSG_UDP              iDivisorNMEA    $AGRSA,4.32,A,,V*4A
 
3.48903         ANGULO_LEME          iDivisorNMEA    4.32000      
3.49929         MSG_UDP              iDivisorNMEA    $GPZDA,140123.780,06,03,2023,,*5A
 
3.51015         MSG_UDP              iDivisorNMEA    $HCHDG,285.2,0.0,E,23.3,W*6F
 
3.52049         MSG_UDP              iDivisorNMEA    $GPHDT,261.85,T*0D
 
3.53077         MSG_UDP              iDivisorNMEA    $TIROT,0.39,A*01
 
3.54103         MSG_UDP              iDivisorNMEA    $MXPGN,01F803,281C,0000000000005056*62
 
3.55131         MSG_UDP              iDivisorNMEA    $MXPGN,01F804,281C,0000001C65C15056*66
 
3.56161         MSG_UDP              iDivisorNMEA    $AGRSA,4.32,A,,V*4A
 
3.56168         ANGULO_LEME          iDivisorNMEA    4.32000      
3.57187         MSG_UDP              iDivisorNMEA    $MXPGN,00FF00,280B,0002000005049913*19
 
3.74697         MSG_UDP              iDivisorNMEA    $MXPGN,01F803,281C,0000000002578C59*13
 
3.74710         MSG_UDP              iDivisorNMEA    $MXPGN,01F804,281C,0000000713C18C59*63
 
3.76593         MSG_UDP              iDivisorNMEA    $AGRSA,4.32,A,,V*4A
 
3.76609         ANGULO_LEME          iDivisorNMEA    4.32000      
3.76830         MSG_UDP              iDivisorNMEA    $MXPGN,00FF19,7808,0000000202009F41*15
 
3.79281         MSG_UDP              iDivisorNMEA    $MXPGN,00FF19,7808,0080000A0A009F41*1D
 
3.81702         MSG_UDP              iDivisorNMEA    $HCHDG,285.1,0.0,E,23.3,W*6C
 
3.81721         MSG_UDP              iDivisorNMEA    $GPHDT,261.83,T*0B
 
3.82752         MSG_UDP              iDivisorNMEA    $TIROT,0.09,A*02
 
3.84205         MSG_UDP              iDivisorNMEA    $MXPGN,00FF8C,6808,FFF10695FA149F41*18
 
3.84829         MSG_UDP              iDivisorNMEA    $MXPGN,00FF28,3808,FF08FFFDFC059F41*19
 
3.85854         MSG_UDP              iDivisorNMEA    $MXPGN,01F803,281C,000000000257A05A*61
 
3.86877         MSG_UDP              iDivisorNMEA    $MXPGN,01F804,281C,0000000713C1A05A*11
 
3.87900         MSG_UDP              iDivisorNMEA    $AGRSA,4.32,A,,V*4A
 
3.87908         ANGULO_LEME          iDivisorNMEA    4.32000      
3.91710         MSG_UDP              iDivisorNMEA    $HCHDG,285.1,0.0,E,23.3,W*6C
 
3.91726         MSG_UDP              iDivisorNMEA    $GPHDT,261.82,T*0A
 
3.92747         MSG_UDP              iDivisorNMEA    $TIROT,0.09,A*02
 
3.93772         MSG_UDP              iDivisorNMEA    !AIVDM,1,1,,A,1:U6vLPP01trHeMjpdnG5Ovj25h4,0*79
 
3.94795         MSG_UDP              iDivisorNMEA    $MXPGN,01F803,281C,000000000257A05A*61
 
3.95818         MSG_UDP              iDivisorNMEA    $MXPGN,01F804,281C,0000000713C1A05A*11
 
3.96837         MSG_UDP              iDivisorNMEA    $AGRSA,4.32,A,,V*4A
 
3.96841         ANGULO_LEME          iDivisorNMEA    4.32000      
3.98977         MSG_UDP              iDivisorNMEA    $MXPGN,00FF00,280B,0002000005049913*19
 
4.00411         MSG_UDP              iDivisorNMEA    $MXPGN,01FF1A,782B,FFFAFF859F410500*1B
 
4.01898         MSG_UDP              iDivisorNMEA    $GPGGA,140125.100,2254.75289,S,04309.53850,W,1,07,2.00,-1.17,M,-5.00,M,,*53
 
4.01995         MSG_UDP              iDivisorNMEA    $GPGLL,2254.75289,S,04309.53850,W,140125.100,A,A*51
 
4.03013         MSG_UDP              iDivisorNMEA    $GPRMC,140125.100,A,2254.75289,S,04309.53850,W,0.01,10.37,060323,23.39,W,A*24
 
4.04027         MSG_UDP              iDivisorNMEA    $GPVTG,10.37,T,,M,0.01,N,0.01,K,A*08
 
4.05040         MSG_UDP              iDivisorNMEA    $HCHDG,285.1,0.0,E,23.3,W*6C
 
4.06057         MSG_UDP              iDivisorNMEA    $GPHDT,261.82,T*0A
 
4.07076         MSG_UDP              iDivisorNMEA    $TIROT,0.09,A*02
 
4.08092         MSG_UDP              iDivisorNMEA    $GPGSA,A,3,08,10,16,18,21,23,27,,,,,,2.56,2.00,2.00*03
 
4.09108         MSG_UDP              iDivisorNMEA    $GPGSV,2,1,07,08,44,249,47,10,34,144,00,16,06,322,42,18,13,063,46*76
 
4.10126         MSG_UDP              iDivisorNMEA    $GPGSV,2,2,07,21,17,218,00,23,10,119,00,27,57,305,50*4D
 
4.11147         MSG_UDP              iDivisorNMEA    $MXPGN,01FA06,681C,8A012500C85B0FC0*6A
 
4.12164         MSG_UDP              iDivisorNMEA    $MXPGN,01FA06,681C,008C0124F25E00C1*16
 
4.13183         MSG_UDP              iDivisorNMEA    $MXPGN,01FA06,681C,FFFFFFFFFF01A3C2*1E
 
4.14197         MSG_UDP              iDivisorNMEA    $MXPGN,00FF3C,3808,8000F8FE00009F41*1C
 
4.15213         MSG_UDP              iDivisorNMEA    $MXPGN,01F803,281C,000000000000145C*17
 
4.16229         MSG_UDP              iDivisorNMEA    $MXPGN,01F804,281C,00000041D3C1145C*10
 
4.17254         MSG_UDP              iDivisorNMEA    $AGRSA,4.32,A,,V*4A
 
4.17269         ANGULO_LEME          iDivisorNMEA    4.32000      
4.18293         MSG_UDP              iDivisorNMEA    $HCHDG,285.1,0.0,E,23.3,W*6C
 
4.19314         MSG_UDP              iDivisorNMEA    $GPHDT,261.82,T*0A
 
4.20345         MSG_UDP              iDivisorNMEA    $TIROT,-0.09,A*2F
 
4.21369         MSG_UDP              iDivisorNMEA    $MXPGN,00FF16,7808,FF0000002B0A9F41*1B
 
4.22389         MSG_UDP              iDivisorNMEA    $MXPGN,01F803,281C,000000000000285D*1F
 
4.23413         MSG_UDP              iDivisorNMEA    $MXPGN,01F804,281C,00000041D3C1285D*18
 
4.24440         MSG_UDP              iDivisorNMEA    $AGRSA,4.32,A,,V*4A
 
4.24447         ANGULO_LEME          iDivisorNMEA    4.32000      
4.25463         MSG_UDP              iDivisorNMEA    $HCHDG,285.1,0.0,E,23.3,W*6C
 
4.26486         MSG_UDP              iDivisorNMEA    $GPHDT,261.81,T*09
 
4.27516         MSG_UDP              iDivisorNMEA    $TIROT,-0.09,A*2F
 
4.28544         MSG_UDP              iDivisorNMEA    $MXPGN,00FF00,280B,0002000005049913*19
 
4.29569         MSG_UDP              iDivisorNMEA    $MXPGN,01F803,281C,0000000000003C5E*64
 
4.30596         MSG_UDP              iDivisorNMEA    $MXPGN,01F804,281C,000000438CC13C5E*6D
 
4.31623         MSG_UDP              iDivisorNMEA    !AIVDM,1,1,,B,1:U7;pPP00LrGuajpjeBtgvj2H>v,0*00
 
4.32645         MSG_UDP              iDivisorNMEA    $GPGGA,,2254.74769,S,04309.53759,W,1,,,,M,,M,,*5A
 
4.33674         MSG_UDP              iDivisorNMEA    $GPGLL,2254.74769,S,04309.53759,W,,A,A*41
 
4.34701         MSG_UDP              iDivisorNMEA    $GPVTG,7.40,T,,M,0.20,N,0.37,K,A*38
 
4.35726         MSG_UDP              iDivisorNMEA    $AGRSA,4.32,A,,V*4A
 
4.35737         ANGULO_LEME          iDivisorNMEA    4.32000      
4.36753         MSG_UDP              iDivisorNMEA    $GPGSA,A,3,08,10,16,18,27,28,31,32,65,85,86,72,1.70,1.40,1.40*0A
 
4.37781         MSG_UDP              iDivisorNMEA    $GPGSV,3,1,12,08,44,250,47,10,34,144,27,16,06,323,38,18,13,063,34*77
 
4.38807         MSG_UDP              iDivisorNMEA    $GPGSV,3,2,12,27,58,306,44,28,25,035,41,31,19,025,45,32,70,133,43*74
 
4.39830         MSG_UDP              iDivisorNMEA    $GPGSV,3,3,12,65,24,301,39,85,30,039,44,86,72,088,39,72,62,240,37*71
 
4.40856         MSG_UDP              iDivisorNMEA    $HCHDG,285.1,0.0,E,23.3,W*6C
 
4.41881         MSG_UDP              iDivisorNMEA    $GPHDT,261.81,T*09
 
4.42901         MSG_UDP              iDivisorNMEA    $TIROT,-0.09,A*2F
 
4.64507         MSG_UDP              iDivisorNMEA    $MXPGN,01F803,281C,0000000000008C62*1B
 
4.64607         MSG_UDP              iDivisorNMEA    $MXPGN,01F804,281C,0000002DF1C18C62*6F
 
4.66806         MSG_UDP              iDivisorNMEA    $GPGGA,140125.000,2254.75384,S,04309.54000,W,1,12,1.00,3.60,M,-5.60,M,,*7A
 
4.66900         MSG_UDP              iDivisorNMEA    $GPGLL,2254.75384,S,04309.54000,W,140125.000,A,A*56
 
4.67916         MSG_UDP              iDivisorNMEA    $GPRMC,140125.000,A,2254.75384,S,04309.54000,W,0.29,136.99,060323,23.30,W,A*11
 
4.68947         MSG_UDP              iDivisorNMEA    $GPVTG,136.99,T,,M,0.29,N,0.53,K,A*34
 
4.69968         MSG_UDP              iDivisorNMEA    $AGRSA,4.32,A,,V*4A
 
4.69975         ANGULO_LEME          iDivisorNMEA    4.32000      
4.71711         MSG_UDP              iDivisorNMEA    $HCHDG,285.1,0.0,E,23.3,W*6C
 
4.72037         MSG_UDP              iDivisorNMEA    $GPHDT,261.82,T*0A
 
4.73062         MSG_UDP              iDivisorNMEA    $TIROT,0.19,A*03
 
4.74084         MSG_UDP              iDivisorNMEA    !AIVDM,1,1,,B,3:U7oI07Q3trJ>9jqk2IEGLj2000,0*6B
 
4.75108         MSG_UDP              iDivisorNMEA    $MXPGN,00FF00,280B,0002000005049913*19
 
4.76133         MSG_UDP              iDivisorNMEA    $MXPGN,01F803,281C,000000000000A063*10
 
4.77165         MSG_UDP              iDivisorNMEA    $MXPGN,01F804,281C,000000BC54C1A063*65
 
4.78189         MSG_UDP              iDivisorNMEA    $AGRSA,4.32,A,,V*4A
 
4.78195         ANGULO_LEME          iDivisorNMEA    4.32000      
4.79211         MSG_UDP              iDivisorNMEA    $MXPGN,00FF19,7808,0000000202009F41*15
 
4.80233         MSG_UDP              iDivisorNMEA    $MXPGN,00FF19,7808,0080000A0A009F41*1D
 
4.81708         MSG_UDP              iDivisorNMEA    $HCHDG,285.1,0.0,E,23.3,W*6C
 
4.82333         MSG_UDP              iDivisorNMEA    $GPHDT,261.84,T*0C
 
4.83356         MSG_UDP              iDivisorNMEA    $TIROT,0.19,A*03
 
4.84377         MSG_UDP              iDivisorNMEA    $MXPGN,00FF8C,6808,FFF10695FA149F41*18
 
4.85418         MSG_UDP              iDivisorNMEA    $MXPGN,00FF28,3808,FF08FFFDFC059F41*19
 
4.86451         MSG_UDP              iDivisorNMEA    $MXPGN,01F803,281C,000000000000B464*10
 
4.87470         MSG_UDP              iDivisorNMEA    $MXPGN,01F804,281C,000000BC54C1B464*65
 
4.88489         MSG_UDP              iDivisorNMEA    $AGRSA,4.32,A,,V*4A
 
4.88494         ANGULO_LEME          iDivisorNMEA    4.32000      
4.89514         MSG_UDP              iDivisorNMEA    !AIVDM,1,1,,B,1:U8?kPP1mLrPhajqPLRrOwp0h?F,0*62
 
4.91702         MSG_UDP              iDivisorNMEA    $HCHDG,285.1,0.0,E,23.3,W*6C
 
4.91712         MSG_UDP              iDivisorNMEA    $GPHDT,261.84,T*0C
 
4.92735         MSG_UDP              iDivisorNMEA    $TIROT,0.19,A*03
 
4.94508         MSG_UDP              iDivisorNMEA    $MXPGN,01F803,281C,000000000000C865*1C
 
4.94835         MSG_UDP              iDivisorNMEA    $MXPGN,01F804,281C,000000BC54C1C865*69
 
4.96593         MSG_UDP              iDivisorNMEA    $AGRSA,4.32,A,,V*4A
 
4.96602         ANGULO_LEME          iDivisorNMEA    4.32000      
4.98993         MSG_UDP              iDivisorNMEA    $MXPGN,00FF00,280B,0002000005049913*19
 
5.01924         MSG_UDP              iDivisorNMEA    $GPGGA,140126.200,2254.75289,S,04309.53850,W,1,07,1.60,-1.17,M,-5.00,M,,*56
 
5.01998         MSG_UDP              iDivisorNMEA    $GPGLL,2254.75289,S,04309.53850,W,140126.200,A,A*51
 
5.03027         MSG_UDP              iDivisorNMEA    $GPRMC,140126.200,A,2254.75289,S,04309.53850,W,0.00,276.23,060323,23.39,W,A*12
 
5.04055         MSG_UDP              iDivisorNMEA    $GPVTG,276.23,T,,M,0.00,N,0.00,K,A*3F
 
5.05083         MSG_UDP              iDivisorNMEA    $HCHDG,285.1,0.0,E,23.3,W*6C
 
5.06105         MSG_UDP              iDivisorNMEA    $GPHDT,261.84,T*0C
 
5.07133         MSG_UDP              iDivisorNMEA    $TIROT,0.09,A*02
 
5.08165         MSG_UDP              iDivisorNMEA    $GPGSA,A,3,08,10,16,18,21,23,27,,,,,,2.56,2.00,2.00*03
 
5.09194         MSG_UDP              iDivisorNMEA    $GPGSV,2,1,07,08,44,249,47,10,34,144,00,16,06,322,43,18,13,063,46*77
 
5.10221         MSG_UDP              iDivisorNMEA    $GPGSV,2,2,07,21,17,218,00,23,10,119,00,27,57,305,50*4D
 
5.11251         MSG_UDP              iDivisorNMEA    $MXPGN,01FA06,681C,8A012500C8650FE0*18
 
5.12283         MSG_UDP              iDivisorNMEA    $MXPGN,01FA06,681C,008C0124F25E00E1*10
 
5.13303         MSG_UDP              iDivisorNMEA    $MXPGN,01FA06,681C,FFFFFFFFFF01A3E2*18
 
5.14323         MSG_UDP              iDivisorNMEA    !AIVDO,1,1,,,B:UOH3P007>VtHLf>fh4cwe5oP06,0*1C
 
5.15342         MSG_UDP              iDivisorNMEA    $MXPGN,00FF3C,3808,8000F8FE00009F41*1C
 
5.16415         MSG_UDP              iDivisorNMEA    $MXPGN,01F803,281C,0000000000000065*67
 
5.17438         MSG_UDP              iDivisorNMEA    $MXPGN,01F804,281C,0000001C71C10065*66
 
5.18465         MSG_UDP              iDivisorNMEA    $AGRSA,4.37,A,,V*4F
 
5.18471         ANGULO_LEME          iDivisorNMEA    4.37000      
5.19488         MSG_UDP              iDivisorNMEA    $HCHDG,285.1,0.0,E,23.3,W*6C
 
5.20507         MSG_UDP              iDivisorNMEA    $GPHDT,261.84,T*0C
 
5.21528         MSG_UDP              iDivisorNMEA    $TIROT,0.09,A*02
 
5.22548         MSG_UDP              iDivisorNMEA    $MXPGN,00FF16,7808,FF0000002B0A9F41*1B
 
5.23576         MSG_UDP              iDivisorNMEA    $MXPGN,01F803,281C,0000000000001466*61
 
5.24598         MSG_UDP              iDivisorNMEA    $MXPGN,01F804,281C,0000001C71C11466*60
 
5.25623         MSG_UDP              iDivisorNMEA    $AGRSA,4.37,A,,V*4F
 
5.25628         ANGULO_LEME          iDivisorNMEA    4.37000      
5.26646         MSG_UDP              iDivisorNMEA    $HCHDG,285.1,0.0,E,23.3,W*6C
 
5.27677         MSG_UDP              iDivisorNMEA    $GPHDT,261.84,T*0C
 
5.28700         MSG_UDP              iDivisorNMEA    $TIROT,0.09,A*02
 
5.29722         MSG_UDP              iDivisorNMEA    $MXPGN,00FF00,280B,0002000005049913*19
 
5.30753         MSG_UDP              iDivisorNMEA    $MXPGN,01F803,281C,0000000000002867*6F
 
5.31785         MSG_UDP              iDivisorNMEA    $MXPGN,01F804,281C,0000001C71C12867*6E
 
5.54206         MSG_UDP              iDivisorNMEA    $MXPGN,01FF2C,7808,FFFFFFFF9F4117C0*18
 
5.54300         MSG_UDP              iDivisorNMEA    $MXPGN,01FF2C,7808,FFFF7FFFFFFF7FC1*65
 
5.55331         MSG_UDP              iDivisorNMEA    $MXPGN,01FF2C,7808,FF7FFFFFFFFFFFC2*17
 
5.56362         MSG_UDP              iDivisorNMEA    $MXPGN,01F803,281C,000000000000786B*1F
 
5.57397         MSG_UDP              iDivisorNMEA    $MXPGN,01F804,281C,0000005B6BC1786B*69
 
5.58429         MSG_UDP              iDivisorNMEA    $MXPGN,01FF2C,7808,FFFFFFFF7FFFFFC3*16
 
5.59462         MSG_UDP              iDivisorNMEA    $MXPGN,01FF22,2808,FF01FFFF9F410CC0*18
 
5.60492         MSG_UDP              iDivisorNMEA    $MXPGN,01FF22,2808,FFFF00000A0039C1*6A
 
5.61522         MSG_UDP              iDivisorNMEA    $AGRSA,4.32,A,,V*4A
 
5.61531         ANGULO_LEME          iDivisorNMEA    4.32000      
5.62554         MSG_UDP              iDivisorNMEA    $SDDPT,1.76,0.00,*7B
 
5.63582         MSG_UDP              iDivisorNMEA    $MXPGN,00FF3D,6808,7FFFFF0DFFFF9F41*6E
 
5.64607         MSG_UDP              iDivisorNMEA    $HCHDG,285.1,0.0,E,23.3,W*6C
 
5.65639         MSG_UDP              iDivisorNMEA    $GPHDT,261.84,T*0C
 
5.66716         MSG_UDP              iDivisorNMEA    $TIROT,0.49,A*06
 
5.67740         MSG_UDP              iDivisorNMEA    $MXPGN,01F803,281C,0000000000008C6C*6A
 
5.68769         MSG_UDP              iDivisorNMEA    $MXPGN,01F804,281C,0000005B6BC18C6C*1C
 
5.69795         MSG_UDP              iDivisorNMEA    $GPGGA,140126.000,2254.75381,S,04309.53991,W,1,12,1.00,3.53,M,-5.60,M,,*7A
 
5.70825         MSG_UDP              iDivisorNMEA    $GPGLL,2254.75381,S,04309.53991,W,140126.000,A,A*56
 
5.71857         MSG_UDP              iDivisorNMEA    $GPRMC,140126.000,A,2254.75381,S,04309.53991,W,0.09,0.00,060323,23.30,W,A*17
 
5.72887         MSG_UDP              iDivisorNMEA    $GPVTG,0.00,T,,M,0.09,N,0.16,K,A*33
 
5.73919         MSG_UDP              iDivisorNMEA    $AGRSA,4.32,A,,V*4A
 
5.73929         ANGULO_LEME          iDivisorNMEA    4.32000      
5.74949         MSG_UDP              iDivisorNMEA    $HCHDG,285.1,0.0,E,23.3,W*6C
 
5.75981         MSG_UDP              iDivisorNMEA    $GPHDT,261.84,T*0C
 
5.77012         MSG_UDP              iDivisorNMEA    $TIROT,0.49,A*06
 
5.78045         MSG_UDP              iDivisorNMEA    $MXPGN,01F803,281C,000000000000A06D*67
 
5.79070         MSG_UDP              iDivisorNMEA    $MXPGN,01F804,281C,0000006749C1A06D*1E
 
5.80092         MSG_UDP              iDivisorNMEA    $AGRSA,4.32,A,,V*4A
 
5.80097         ANGULO_LEME          iDivisorNMEA    4.32000      
5.81118         MSG_UDP              iDivisorNMEA    $MXPGN,00FF19,7808,0000000202009F41*15
 
5.82143         MSG_UDP              iDivisorNMEA    $MXPGN,00FF00,280B,0002000005049913*19
 
5.83166         MSG_UDP              iDivisorNMEA    $MXPGN,00FF19,7808,0080000A0A009F41*1D
 
5.84199         MSG_UDP              iDivisorNMEA    $HCHDG,285.2,0.0,E,23.3,W*6F
 
5.85226         MSG_UDP              iDivisorNMEA    $GPHDT,261.85,T*0D
 
5.86251         MSG_UDP              iDivisorNMEA    $TIROT,0.49,A*06
 
5.87278         MSG_UDP              iDivisorNMEA    $MXPGN,00FF8C,6808,FFF10695FA149F41*18
 
5.88308         MSG_UDP              iDivisorNMEA    $MXPGN,00FF28,3808,FF08FFFDFC059F41*19
 
5.89338         MSG_UDP              iDivisorNMEA    $MXPGN,01F803,281C,000000000000B46E*61
 
5.90369         MSG_UDP              iDivisorNMEA    $MXPGN,01F804,281C,0000006749C1B46E*18
 
5.91399         MSG_UDP              iDivisorNMEA    $AGRSA,4.32,A,,V*4A
 
5.91410         ANGULO_LEME          iDivisorNMEA    4.32000      
5.92431         MSG_UDP              iDivisorNMEA    $HCHDG,285.1,0.0,E,23.3,W*6C
 
5.93461         MSG_UDP              iDivisorNMEA    $GPHDT,261.84,T*0C
 
5.94502         MSG_UDP              iDivisorNMEA    $TIROT,0.49,A*06
 
5.95531         MSG_UDP              iDivisorNMEA    $MXPGN,01F803,281C,000000000000C86F*6F
 
5.96558         MSG_UDP              iDivisorNMEA    $MXPGN,01F804,281C,0000004329C1C86F*16
 
5.97587         MSG_UDP              iDivisorNMEA    $AGRSA,4.32,A,,V*4A
 
5.97593         ANGULO_LEME          iDivisorNMEA    4.32000      
6.01908         MSG_UDP              iDivisorNMEA    $GPGGA,140127.300,2254.75289,S,04309.53850,W,1,07,1.60,-1.17,M,-5.00,M,,*56
 
6.01993         MSG_UDP              iDivisorNMEA    $GPGLL,2254.75289,S,04309.53850,W,140127.300,A,A*51
 
6.03014         MSG_UDP              iDivisorNMEA    $GPRMC,140127.300,A,2254.75289,S,04309.53850,W,0.01,98.50,060323,23.39,W,A*25
 
6.04040         MSG_UDP              iDivisorNMEA    $GPVTG,98.50,T,,M,0.01,N,0.01,K,A*09
 
6.05065         MSG_UDP              iDivisorNMEA    $HCHDG,285.1,0.0,E,23.3,W*6C
 
6.06088         MSG_UDP              iDivisorNMEA    $GPHDT,261.83,T*0B
 
6.07113         MSG_UDP              iDivisorNMEA    $TIROT,0.49,A*06
 
6.08135         MSG_UDP              iDivisorNMEA    $MXPGN,00FF00,280B,0002000005049913*19
 
6.09156         MSG_UDP              iDivisorNMEA    $GPGSA,A,3,08,10,16,18,21,23,27,,,,,,2.56,2.00,2.00*03
 
6.10178         MSG_UDP              iDivisorNMEA    $GPGSV,2,1,07,08,44,249,47,10,34,144,00,16,06,322,42,18,13,063,46*76
 
6.11206         MSG_UDP              iDivisorNMEA    $GPGSV,2,2,07,21,17,218,00,23,10,119,00,27,57,305,50*4D
 
6.12238         MSG_UDP              iDivisorNMEA    $MXPGN,01FA06,681C,8A012500C8700F00*69
 
6.13268         MSG_UDP              iDivisorNMEA    $MXPGN,01FA06,681C,008C0124F25E0001*65
 
6.14294         MSG_UDP              iDivisorNMEA    $MXPGN,01FA06,681C,FFFFFFFFFF01A302*6D
 
6.15323         MSG_UDP              iDivisorNMEA    $MXPGN,00FF3C,3808,8000F8FE00009F41*1C
 
6.16344         MSG_UDP              iDivisorNMEA    $MXPGN,01F803,281C,0000000000000070*63
 
6.17419         MSG_UDP              iDivisorNMEA    $MXPGN,01F804,281C,0000004329C10070*1A
 
6.18449         MSG_UDP              iDivisorNMEA    $AGRSA,4.32,A,,V*4A
 
6.18454         ANGULO_LEME          iDivisorNMEA    4.32000      
6.19467         MSG_UDP              iDivisorNMEA    $HCHDG,285.1,0.0,E,23.3,W*6C
 
6.20481         MSG_UDP              iDivisorNMEA    $GPHDT,261.83,T*0B
 
6.44491         MSG_UDP              iDivisorNMEA    $MXPGN,01F803,281C,0000000000005074*62
 
6.44581         MSG_UDP              iDivisorNMEA    $MXPGN,01F804,281C,0000003BFBC15074*62
 
6.46588         MSG_UDP              iDivisorNMEA    $AGRSA,4.32,A,,V*4A
 
6.46591         ANGULO_LEME          iDivisorNMEA    4.32000      
6.51707         MSG_UDP              iDivisorNMEA    $HCHDG,285.1,0.0,E,23.3,W*6C
 
6.51722         MSG_UDP              iDivisorNMEA    $GPHDT,261.77,T*00
 
6.52750         MSG_UDP              iDivisorNMEA    $TIROT,0.09,A*02
 
6.53777         MSG_UDP              iDivisorNMEA    $MXPGN,00FF00,280B,0002000005049913*19
 
6.54797         MSG_UDP              iDivisorNMEA    $MXPGN,01FF2C,7808,FFFFFFFF9F4117E0*1E
 
6.55818         MSG_UDP              iDivisorNMEA    $MXPGN,01FF2C,7808,FFFF7FFFFFFF7FE1*63
 
6.56843         MSG_UDP              iDivisorNMEA    $MXPGN,01FF2C,7808,FF7FFFFFFFFFFFE2*11
 
6.57869         MSG_UDP              iDivisorNMEA    $MXPGN,01F803,281C,0000000000006475*64
 
6.58888         MSG_UDP              iDivisorNMEA    $MXPGN,01F804,281C,0000003BFBC16475*64
 
6.59912         MSG_UDP              iDivisorNMEA    $MXPGN,01FF2C,7808,FFFFFFFF7FFFFFE3*10
 
6.60940         MSG_UDP              iDivisorNMEA    $AGRSA,4.32,A,,V*4A
 
6.60959         ANGULO_LEME          iDivisorNMEA    4.32000      
6.61978         MSG_UDP              iDivisorNMEA    $SDDPT,1.76,0.00,*7B
 
6.63003         MSG_UDP              iDivisorNMEA    $MXPGN,00FF3D,6808,7FFFFF0DFFFF9F41*6E
 
6.64025         MSG_UDP              iDivisorNMEA    $HCHDG,285.1,0.0,E,23.3,W*6C
 
6.65054         MSG_UDP              iDivisorNMEA    $GPHDT,261.77,T*00
 
6.66084         MSG_UDP              iDivisorNMEA    $TIROT,0.09,A*02
 
6.67107         MSG_UDP              iDivisorNMEA    $MXPGN,01F803,281C,0000000000007876*6A
 
6.68183         MSG_UDP              iDivisorNMEA    $MXPGN,01F804,281C,0000003BFBC17876*6A
 
6.69210         MSG_UDP              iDivisorNMEA    $GPGGA,140127.000,2254.75373,S,04309.53982,W,1,12,1.00,3.27,M,-5.60,M,,*77
 
6.70238         MSG_UDP              iDivisorNMEA    $GPGLL,2254.75373,S,04309.53982,W,140127.000,A,A*58
 
6.71264         MSG_UDP              iDivisorNMEA    $GPRMC,140127.000,A,2254.75373,S,04309.53982,W,0.00,0.00,060323,23.30,W,A*10
 
6.72294         MSG_UDP              iDivisorNMEA    $GPVTG,0.00,T,,M,0.00,N,0.00,K,A*3D
 
6.73317         MSG_UDP              iDivisorNMEA    $AGRSA,4.32,A,,V*4A
 
6.73322         ANGULO_LEME          iDivisorNMEA    4.32000      
6.74333         MSG_UDP              iDivisorNMEA    $HCHDG,285.1,0.0,E,23.3,W*6C
 
6.75351         MSG_UDP              iDivisorNMEA    $GPHDT,261.76,T*01
 
6.76364         MSG_UDP              iDivisorNMEA    $TIROT,0.09,A*02
 
6.77378         MSG_UDP              iDivisorNMEA    $MXPGN,01F803,281C,0000000000008C77*1F
 
6.78397         MSG_UDP              iDivisorNMEA    $MXPGN,01F804,281C,00000067FBC18C77*6F
 
6.79415         MSG_UDP              iDivisorNMEA    $AGRSA,4.32,A,,V*4A
 
6.79418         ANGULO_LEME          iDivisorNMEA    4.32000      
6.80434         MSG_UDP              iDivisorNMEA    $MXPGN,00FF19,7808,0000000202009F41*15
 
6.81452         MSG_UDP              iDivisorNMEA    $MXPGN,00FF00,280B,0002000005049913*19
 
6.82472         MSG_UDP              iDivisorNMEA    $MXPGN,00FF19,7808,0080000A0A009F41*1D
 
6.83491         MSG_UDP              iDivisorNMEA    $HCHDG,285.1,0.0,E,23.3,W*6C
 
6.84510         MSG_UDP              iDivisorNMEA    $GPHDT,261.77,T*00
 
6.85527         MSG_UDP              iDivisorNMEA    $TIROT,0.09,A*02
 
6.86545         MSG_UDP              iDivisorNMEA    $MXPGN,00FF8C,6808,FFF10695FA149F41*18
 
6.87563         MSG_UDP              iDivisorNMEA    $MXPGN,00FF28,3808,FF08FFFDFC059F41*19
 
6.88582         MSG_UDP              iDivisorNMEA    $MXPGN,01F803,281C,000000000000A078*1A
 
6.89600         MSG_UDP              iDivisorNMEA    $MXPGN,01F804,281C,00000067FBC1A078*6A
 
6.90619         MSG_UDP              iDivisorNMEA    $AGRSA,4.32,A,,V*4A
 
6.90625         ANGULO_LEME          iDivisorNMEA    4.32000      
6.91698         MSG_UDP              iDivisorNMEA    $HCHDG,285.1,0.0,E,23.3,W*6C
 
6.92712         MSG_UDP              iDivisorNMEA    $GPHDT,261.77,T*00
 
6.93727         MSG_UDP              iDivisorNMEA    $TIROT,0.09,A*02
 
6.94741         MSG_UDP              iDivisorNMEA    $MXPGN,01F803,281C,000000000000A078*1A
 
6.95755         MSG_UDP              iDivisorNMEA    $MXPGN,01F804,281C,00000067FBC1A078*6A
 
6.96770         MSG_UDP              iDivisorNMEA    $AGRSA,4.32,A,,V*4A
 
6.96774         ANGULO_LEME          iDivisorNMEA    4.32000      
7.00397         MSG_UDP              iDivisorNMEA    $MXPGN,01FF1A,782B,FFFAFF859F410560*1D
 
7.01894         MSG_UDP              iDivisorNMEA    $GPGGA,140128.100,2254.75289,S,04309.53850,W,1,07,2.00,-1.17,M,-5.00,M,,*5E
 
7.01997         MSG_UDP              iDivisorNMEA    $GPGLL,2254.75289,S,04309.53850,W,140128.100,A,A*5C
 
7.02919         MSG_UDP              iDivisorNMEA    $GPRMC,140128.100,A,2254.75289,S,04309.53850,W,0.00,152.51,060323,23.39,W,A*1F
 
7.03936         MSG_UDP              iDivisorNMEA    $GPVTG,152.51,T,,M,0.00,N,0.00,K,A*3F
 
7.04954         MSG_UDP              iDivisorNMEA    $HCHDG,285.1,0.0,E,23.3,W*6C
 
7.05973         MSG_UDP              iDivisorNMEA    $GPHDT,261.77,T*00
 
7.06993         MSG_UDP              iDivisorNMEA    $TIROT,0.09,A*02
 
7.08012         MSG_UDP              iDivisorNMEA    $MXPGN,00FF00,280B,0002000005049913*19
 
7.09032         MSG_UDP              iDivisorNMEA    $GPGSA,A,3,08,10,16,18,21,23,27,,,,,,2.56,2.00,2.00*03
 
7.10054         MSG_UDP              iDivisorNMEA    $GPGSV,2,1,07,08,44,249,47,10,34,144,00,16,06,322,43,18,13,063,47*76
 
7.11073         MSG_UDP              iDivisorNMEA    $GPGSV,2,2,07,21,17,218,00,23,10,119,00,27,57,305,50*4D
 
7.12092         MSG_UDP              iDivisorNMEA    $MXPGN,01FA06,681C,8A012500C8790F20*62
 
7.13111         MSG_UDP              iDivisorNMEA    $MXPGN,01FA06,681C,008C0124F2610021*10
 
7.14128         MSG_UDP              iDivisorNMEA    $MXPGN,01FA06,681C,FFFFFFFFFF01A322*6F
 
7.35006         MSG_UDP              iDivisorNMEA    $MXPGN,01F803,281C,000000000000507D*12
 
7.35088         MSG_UDP              iDivisorNMEA    $MXPGN,01F804,281C,000000531FC1507D*16
 
7.36038         MSG_UDP              iDivisorNMEA    !AIVDM,1,1,,A,13a0JR0000LrT4AjrVPE?qLr05h4,0*00
 
7.37054         MSG_UDP              iDivisorNMEA    $AGRSA,4.32,A,,V*4A
 
7.37058         ANGULO_LEME          iDivisorNMEA    4.32000      
7.38070         MSG_UDP              iDivisorNMEA    $GPZDA,140127.800,06,03,2023,,*59
 
7.39085         MSG_UDP              iDivisorNMEA    $MXPGN,01FF1A,782B,FF010B049F410560*60
 
7.40097         MSG_UDP              iDivisorNMEA    $GPGSA,A,3,08,10,16,18,27,28,31,32,65,85,86,72,1.70,1.40,1.40*0A
 
7.41111         MSG_UDP              iDivisorNMEA    $GPGSV,3,1,12,08,44,250,47,10,34,144,28,16,06,323,39,18,13,063,34*79
 
7.42129         MSG_UDP              iDivisorNMEA    $GPGSV,3,2,12,27,58,306,44,28,25,035,41,31,19,025,45,32,70,133,43*74
 
7.43146         MSG_UDP              iDivisorNMEA    $GPGSV,3,3,12,65,24,300,39,85,30,039,44,86,72,088,39,72,62,240,37*70
 
7.44161         MSG_UDP              iDivisorNMEA    $MXPGN,01FF0D,780B,FF03000098900520*64
 
7.45178         MSG_UDP              iDivisorNMEA    $HCHDG,285.1,0.0,E,23.3,W*6C
 
7.46197         MSG_UDP              iDivisorNMEA    $GPHDT,261.80,T*08
 
7.47213         MSG_UDP              iDivisorNMEA    $TIROT,0.49,A*06
 
7.48230         MSG_UDP              iDivisorNMEA    $MXPGN,01F803,281C,000000000000647E*14
 
7.49244         MSG_UDP              iDivisorNMEA    $MXPGN,01F804,281C,000000B9E0C1647E*6F
 
7.50262         MSG_UDP              iDivisorNMEA    $AGRSA,4.32,A,,V*4A
 
7.50267         ANGULO_LEME          iDivisorNMEA    4.32000      
7.51696         MSG_UDP              iDivisorNMEA    $HCHDG,285.1,0.0,E,23.3,W*6C
 
7.52316         MSG_UDP              iDivisorNMEA    $GPHDT,261.80,T*08
 
7.53336         MSG_UDP              iDivisorNMEA    $TIROT,0.69,A*04
 
7.54357         MSG_UDP              iDivisorNMEA    $MXPGN,00FF00,280B,0002000005049913*19
 
7.55376         MSG_UDP              iDivisorNMEA    $MXPGN,01FF2C,7808,FFFFFFFF9F411700*6B
 
7.56397         MSG_UDP              iDivisorNMEA    $MXPGN,01FF2C,7808,FFFF7FFFFFFF7F01*16
 
7.57414         MSG_UDP              iDivisorNMEA    $MXPGN,01FF2C,7808,FF7FFFFFFFFFFF02*64
 
7.58436         MSG_UDP              iDivisorNMEA    $MXPGN,01FF2C,7808,FFFFFFFF7FFFFF03*65
 
7.59454         MSG_UDP              iDivisorNMEA    $MXPGN,01F803,281C,000000000000787F*1A
 
7.60471         MSG_UDP              iDivisorNMEA    $MXPGN,01F804,281C,000000B9E0C1787F*61
 
7.61487         MSG_UDP              iDivisorNMEA    $AGRSA,4.32,A,,V*4A
 
7.61490         ANGULO_LEME          iDivisorNMEA    4.32000      
7.62504         MSG_UDP              iDivisorNMEA    $SDDPT,1.76,0.00,*7B
 
7.63522         MSG_UDP              iDivisorNMEA    $MXPGN,00FF3D,6808,7FFFFF0DFFFF9F41*6E
 
7.64541         MSG_UDP              iDivisorNMEA    $MXPGN,00FF3D,6808,0000FF0BFFFF9F41*19
 
7.65560         MSG_UDP              iDivisorNMEA    $HCHDG,285.1,0.0,E,23.3,W*6C
 
7.66578         MSG_UDP              iDivisorNMEA    $GPHDT,261.81,T*09
 
7.67597         MSG_UDP              iDivisorNMEA    $TIROT,0.69,A*04
 
7.68616         MSG_UDP              iDivisorNMEA    $MXPGN,00FF3D,6808,FFFFFF0CFFFF9F41*18
 
7.69633         MSG_UDP              iDivisorNMEA    $MXPGN,00FF3D,6808,FFFFFF03FFFF9F41*68
 
7.70653         MSG_UDP              iDivisorNMEA    $MXPGN,01F803,281C,0000000000008C80*17
 
7.71670         MSG_UDP              iDivisorNMEA    $MXPGN,01F804,281C,000000B9E0C18C80*6C
 
7.72688         MSG_UDP              iDivisorNMEA    $GPGGA,140128.000,2254.75368,S,04309.53974,W,1,12,1.00,3.27,M,-5.60,M,,*7B
 
7.73706         MSG_UDP              iDivisorNMEA    $GPGLL,2254.75368,S,04309.53974,W,140128.000,A,A*54
 
7.74720         MSG_UDP              iDivisorNMEA    $GPRMC,140128.000,A,2254.75368,S,04309.53974,W,0.09,0.00,060323,23.30,W,A*15
 
7.75732         MSG_UDP              iDivisorNMEA    $GPVTG,0.00,T,,M,0.09,N,0.16,K,A*33
 
7.76746         MSG_UDP              iDivisorNMEA    $AGRSA,4.32,A,,V*4A
 
7.76748         ANGULO_LEME          iDivisorNMEA    4.32000      
7.77773         MSG_UDP              iDivisorNMEA    $MXPGN,00FF3D,6808,FFFFFF02FFFF9F41*69
 
7.78798         MSG_UDP              iDivisorNMEA    $HCHDG,285.1,0.0,E,23.3,W*6C
 
7.79810         MSG_UDP              iDivisorNMEA    $GPHDT,261.81,T*09
 
7.80826         MSG_UDP              iDivisorNMEA    $TIROT,0.79,A*05
 
7.81840         MSG_UDP              iDivisorNMEA    $MXPGN,01F803,281C,000000000000A081*1C
 
7.82852         MSG_UDP              iDivisorNMEA    !AIVDM,1,1,,B,1:U8?H0P1NtrKo=jr6HFq?vp2<2I,0*29
 
7.83863         MSG_UDP              iDivisorNMEA    $MXPGN,01F804,281C,0000005411C1A081*68
 
7.84876         MSG_UDP              iDivisorNMEA    $AGRSA,4.32,A,,V*4A
 
7.84882         ANGULO_LEME          iDivisorNMEA    4.32000      
7.85893         MSG_UDP              iDivisorNMEA    $MXPGN,00FF19,7808,0000000202009F41*15
 
7.86921         MSG_UDP              iDivisorNMEA    $MXPGN,00FF00,280B,0002000005049913*19
 
7.87934         MSG_UDP              iDivisorNMEA    $MXPGN,00FF19,7808,0080000A0A009F41*1D
 
7.88954         MSG_UDP              iDivisorNMEA    $HCHDG,285.1,0.0,E,23.3,W*6C
 
7.89971         MSG_UDP              iDivisorNMEA    $GPHDT,261.80,T*08
 
7.90991         MSG_UDP              iDivisorNMEA    $TIROT,0.79,A*05
 
7.92003         MSG_UDP              iDivisorNMEA    $MXPGN,00FF8C,6808,FFF10695FA149F41*18
 
7.93022         MSG_UDP              iDivisorNMEA    $MXPGN,00FF28,3808,FF08FFFDFC059F41*19
 
7.94036         MSG_UDP              iDivisorNMEA    $MXPGN,01F803,281C,000000000000B482*18
 
7.95055         MSG_UDP              iDivisorNMEA    $MXPGN,01F804,281C,0000005411C1B482*6C
 
7.96071         MSG_UDP              iDivisorNMEA    $AGRSA,4.32,A,,V*4A
 
7.96074         ANGULO_LEME          iDivisorNMEA    4.32000      
7.97087         MSG_UDP              iDivisorNMEA    $HCHDG,285.1,0.0,E,23.3,W*6C
 
7.98103         MSG_UDP              iDivisorNMEA    $GPHDT,261.79,T*0E
 
8.21885         MSG_UDP              iDivisorNMEA    $MXPGN,01FF1A,680B,FF022B849F410500*6C
 
8.23197         MSG_UDP              iDivisorNMEA    $MXPGN,01FF1A,782B,FF010B049F4105A0*17
 
8.24203         MSG_UDP              iDivisorNMEA    $MXPGN,00EA04,630B,00EE00*17
 
8.24596         MSG_UDP              iDivisorNMEA    $MXPGN,01F803,281C,0000000000002886*60
 
8.25315         MSG_UDP              iDivisorNMEA    $MXPGN,01F804,281C,000000C630C12886*63
 
8.26792         MSG_UDP              iDivisorNMEA    $GPGGA,,2254.74769,S,04309.53739,W,1,,,,M,,M,,*5C
 
8.27412         MSG_UDP              iDivisorNMEA    $GPGLL,2254.74769,S,04309.53739,W,,A,A*47
 
8.28429         MSG_UDP              iDivisorNMEA    $GPVTG,7.40,T,,M,0.20,N,0.37,K,A*38
 
8.29442         MSG_UDP              iDivisorNMEA    $AGRSA,4.32,A,,V*4A
 
8.29449         ANGULO_LEME          iDivisorNMEA    4.32000      
8.30458         MSG_UDP              iDivisorNMEA    $MXPGN,00FF00,280B,0002000005049913*19
 
8.31690         MSG_UDP              iDivisorNMEA    $HCHDG,285.0,0.0,E,23.3,W*6D
 
8.32511         MSG_UDP              iDivisorNMEA    $GPHDT,261.74,T*03
 
8.33529         MSG_UDP              iDivisorNMEA    $TIROT,0.29,A*00
 
8.34539         MSG_UDP              iDivisorNMEA    $MXPGN,01FF1A,680B,FF022B849F410500*6C
 
8.35556         MSG_UDP              iDivisorNMEA    $MXPGN,01FF1A,782B,FF010B049F4105C0*15
 
8.36571         MSG_UDP              iDivisorNMEA    $MXPGN,01F803,281C,0000000000003C87*1B
 
8.37607         MSG_UDP              iDivisorNMEA    $MXPGN,01F804,281C,000000C630C13C87*18
 
8.38620         MSG_UDP              iDivisorNMEA    $AGRSA,4.32,A,,V*4A
 
8.38625         ANGULO_LEME          iDivisorNMEA    4.32000      
8.39636         MSG_UDP              iDivisorNMEA    $GPZDA,140128.800,06,03,2023,,*56
 
8.40653         MSG_UDP              iDivisorNMEA    $GPGSA,A,3,08,10,16,18,27,28,31,32,65,85,86,72,1.70,1.40,1.40*0A
 
8.41671         MSG_UDP              iDivisorNMEA    $GPGSV,3,1,12,08,44,250,47,10,34,144,28,16,06,323,39,18,13,063,35*78
 
8.42707         MSG_UDP              iDivisorNMEA    $GPGSV,3,2,12,27,58,306,44,28,25,035,41,31,19,025,45,32,70,133,43*74
 
8.43745         MSG_UDP              iDivisorNMEA    $GPGSV,3,3,12,65,24,300,39,85,30,039,44,86,72,088,39,72,62,240,37*70
 
8.44780         MSG_UDP              iDivisorNMEA    $MXPGN,01FF0D,780B,FF03000098900540*62
 
8.45801         MSG_UDP              iDivisorNMEA    $HCHDG,285.0,0.0,E,23.3,W*6D
 
8.46833         MSG_UDP              iDivisorNMEA    $GPHDT,261.73,T*04
 
8.47857         MSG_UDP              iDivisorNMEA    $TIROT,0.29,A*00
 
8.48877         MSG_UDP              iDivisorNMEA    $MXPGN,01FF1A,680B,FF022B849F410500*6C
 
8.49899         MSG_UDP              iDivisorNMEA    $MXPGN,01FF1A,782B,FF010B049F4105E0*13
 
8.50924         MSG_UDP              iDivisorNMEA    $MXPGN,01F803,281C,0000000000005088*61
 
8.51952         MSG_UDP              iDivisorNMEA    $MXPGN,01F804,281C,0000005682C15088*1D
 
8.52985         MSG_UDP              iDivisorNMEA    $AGRSA,4.32,A,,V*4A
 
8.52991         ANGULO_LEME          iDivisorNMEA    4.32000      
8.54012         MSG_UDP              iDivisorNMEA    $HCHDG,285.0,0.0,E,23.3,W*6D
 
8.55043         MSG_UDP              iDivisorNMEA    $GPHDT,261.73,T*04
 
8.56080         MSG_UDP              iDivisorNMEA    $TIROT,-0.09,A*2F
 
8.57112         MSG_UDP              iDivisorNMEA    $MXPGN,00FF00,280B,0002000005049913*19
 
8.58142         MSG_UDP              iDivisorNMEA    $MXPGN,01FF1A,680B,FF022B849F410500*6C
 
8.59170         MSG_UDP              iDivisorNMEA    !AIVDM,1,1,,A,3:U7oI07A3trJ;qjqjpIMWPr20sh,0*71
 
8.60197         MSG_UDP              iDivisorNMEA    $MXPGN,01FF2C,7808,FFFFFFFF9F411720*69
 
8.61220         MSG_UDP              iDivisorNMEA    $MXPGN,01FF1A,782B,FF010B049F410500*66
 
8.62248         MSG_UDP              iDivisorNMEA    $MXPGN,01FF2C,7808,FFFF7FFFFFFF7F21*14
 
8.63278         MSG_UDP              iDivisorNMEA    $MXPGN,01FF2C,7808,FF7FFFFFFFFFFF22*66
 
8.64300         MSG_UDP              iDivisorNMEA    $MXPGN,01F803,281C,0000000000006489*67
 
8.65328         MSG_UDP              iDivisorNMEA    $MXPGN,01F804,281C,0000005682C16489*1B
 
8.66356         MSG_UDP              iDivisorNMEA    $MXPGN,01FF2C,7808,FFFFFFFF7FFFFF23*67
 
8.67379         MSG_UDP              iDivisorNMEA    $AGRSA,4.32,A,,V*4A
 
8.67384         ANGULO_LEME          iDivisorNMEA    4.32000      
8.68403         MSG_UDP              iDivisorNMEA    $SDDPT,1.76,0.00,*7B
 
8.69424         MSG_UDP              iDivisorNMEA    $MXPGN,00FF3D,6808,7FFFFF0DFFFF9F41*6E
 
8.70450         MSG_UDP              iDivisorNMEA    $HCHDG,285.0,0.0,E,23.3,W*6D
 
8.71472         MSG_UDP              iDivisorNMEA    $GPHDT,261.73,T*04
 
8.72490         MSG_UDP              iDivisorNMEA    $TIROT,-0.09,A*2F
 
8.73514         MSG_UDP              iDivisorNMEA    $MXPGN,01FF1A,680B,FF022B849F410500*6C
 
8.74532         MSG_UDP              iDivisorNMEA    $MXPGN,01FF1A,782B,FF010B049F410520*64
 
8.75554         MSG_UDP              iDivisorNMEA    $MXPGN,01F803,281C,000000000000788A*12
 
8.76572         MSG_UDP              iDivisorNMEA    $MXPGN,01F804,281C,0000005682C1788A*6E
 
8.77592         MSG_UDP              iDivisorNMEA    $GPGGA,140129.000,2254.75381,S,04309.53955,W,1,12,1.00,3.40,M,-5.60,M,,*7F
 
8.78612         MSG_UDP              iDivisorNMEA    $GPGLL,2254.75381,S,04309.53955,W,140129.000,A,A*51
 
8.79628         MSG_UDP              iDivisorNMEA    $GPRMC,140129.000,A,2254.75381,S,04309.53955,W,0.00,0.00,060323,23.30,W,A*19
 
8.80653         MSG_UDP              iDivisorNMEA    $GPVTG,0.00,T,,M,0.00,N,0.00,K,A*3D
 
8.81670         MSG_UDP              iDivisorNMEA    $AGRSA,4.32,A,,V*4A
 
8.81672         ANGULO_LEME          iDivisorNMEA    4.32000      
8.82692         MSG_UDP              iDivisorNMEA    $HCHDG,285.0,0.0,E,23.3,W*6D
 
8.83716         MSG_UDP              iDivisorNMEA    $GPHDT,261.73,T*04
 
8.84747         MSG_UDP              iDivisorNMEA    $TIROT,-0.29,A*2D
 
8.85773         MSG_UDP              iDivisorNMEA    $MXPGN,01F803,281C,0000000000008C8B*65
 
9.11708         MSG_UDP              iDivisorNMEA    $HCHDG,285.0,0.0,E,23.3,W*6D
 
9.11763         MSG_UDP              iDivisorNMEA    $GPHDT,261.71,T*06
 
9.12788         MSG_UDP              iDivisorNMEA    $TIROT,-0.19,A*2E
 
9.14298         MSG_UDP              iDivisorNMEA    $MXPGN,00FF16,7808,FF0000002B0A9F41*1B
 
9.14826         MSG_UDP              iDivisorNMEA    $MXPGN,01F803,281C,000000000000148F*1F
 
9.15849         MSG_UDP              iDivisorNMEA    $MXPGN,01F804,281C,0000002EF0C1148F*6B
 
9.16878         MSG_UDP              iDivisorNMEA    $AGRSA,4.32,A,,V*4A
 
9.16887         ANGULO_LEME          iDivisorNMEA    4.32000      
9.21704         MSG_UDP              iDivisorNMEA    $HCHDG,285.0,0.0,E,23.3,W*6D
 
9.21718         MSG_UDP              iDivisorNMEA    $GPHDT,261.73,T*04
 
9.22743         MSG_UDP              iDivisorNMEA    $TIROT,-0.19,A*2E
 
9.24597         MSG_UDP              iDivisorNMEA    $MXPGN,01F803,281C,0000000000002890*67
 
9.24811         MSG_UDP              iDivisorNMEA    $MXPGN,01F804,281C,0000007F26C12890*67
 
9.26808         MSG_UDP              iDivisorNMEA    $GPGGA,,2254.74779,S,04309.53689,W,1,,,,M,,M,,*57
 
9.26937         MSG_UDP              iDivisorNMEA    $GPGLL,2254.74779,S,04309.53689,W,,A,A*4C
 
9.27962         MSG_UDP              iDivisorNMEA    $GPVTG,7.40,T,,M,0.50,N,0.92,K,A*30
 
9.28989         MSG_UDP              iDivisorNMEA    $AGRSA,4.32,A,,V*4A
 
9.29001         ANGULO_LEME          iDivisorNMEA    4.32000      
