%%%%%%%%%%%%%%%%%%%%%%%%%%%%%%%%%%%%%%%%%%%%%%%%%%%%%%%%%%%
%% LOG FILE:       /home/moos-ivp-douglas/log/teste_7_3_2023_____10_42_08/teste_7_3_2023_____10_42_08.alog
%% FILE OPENED ON  Wed Dec 31 21:00:00 1969
%% LOGSTART           1678196528.161739
%%%%%%%%%%%%%%%%%%%%%%%%%%%%%%%%%%%%%%%%%%%%%%%%%%%%%%%%%%%
-0.03970        MOOS_DEBUG           pHelmIvP        pHelmIvP AllStop: ManualOverride 
-0.03970        DESIRED_HEADING      pHelmIvP        0.00000      
-0.03970        DESIRED_SPEED        pHelmIvP        0.00000      
0.16639         DESIRED_RUDDER       pMarinePIDV22   0.00000      
0.16639         DESIRED_THRUST       pMarinePIDV22   0.00000      
0.70827         MSG_UDP              iDivisorNMEA    $AGRSA,-0.96,A,,V*6D
 
0.70830         ANGULO_LEME          iDivisorNMEA    -0.96000     
0.75723         MSG_UDP              iDivisorNMEA    $HCHDG,284.4,0.0,E,23.3,W*68
 
0.75729         MSG_UDP              iDivisorNMEA    $GPHDT,261.12,T*03
 
0.76744         MSG_UDP              iDivisorNMEA    $TIROT,0.00,A*0B
 
0.78220         MSG_UDP              iDivisorNMEA    $MXPGN,01F803,281C,000000000000B44A*67
 
0.78834         MSG_UDP              iDivisorNMEA    $MXPGN,01F804,281C,000000C58EC1B44A*19
 
0.80714         MSG_UDP              iDivisorNMEA    $AGRSA,-0.96,A,,V*6D
 
0.80720         ANGULO_LEME          iDivisorNMEA    -0.96000     
0.80935         MSG_UDP              iDivisorNMEA    $SDDPT,1.76,0.00,*7B
 
0.85716         MSG_UDP              iDivisorNMEA    $HCHDG,284.4,0.0,E,23.3,W*68
 
0.85743         MSG_UDP              iDivisorNMEA    $GPHDT,261.10,T*01
 
0.86764         MSG_UDP              iDivisorNMEA    $TIROT,0.00,A*0B
 
0.88223         MSG_UDP              iDivisorNMEA    $MXPGN,01F803,281C,000000000000C84B*69
 
0.88843         MSG_UDP              iDivisorNMEA    $MXPGN,01F804,281C,0000001DECC1C84B*6F
 
0.90710         MSG_UDP              iDivisorNMEA    $AGRSA,-0.96,A,,V*6D
 
0.90725         ANGULO_LEME          iDivisorNMEA    -0.96000     
0.91613         MSG_UDP              iDivisorNMEA    $MXPGN,00FF00,280B,0002000005049913*19
 
0.95723         MSG_UDP              iDivisorNMEA    $HCHDG,284.4,0.0,E,23.3,W*68
 
0.95735         MSG_UDP              iDivisorNMEA    $GPHDT,261.10,T*01
 
0.96749         MSG_UDP              iDivisorNMEA    $TIROT,-0.09,A*2F
 
0.97762         MSG_UDP              iDivisorNMEA    $GPGSA,A,3,08,10,16,18,21,23,26,,,,,,2.42,1.89,1.89*07
 
0.98776         MSG_UDP              iDivisorNMEA    $GPGSV,2,1,07,08,41,240,45,10,37,151,00,16,09,317,41,18,17,069,35*7F
 
0.99786         MSG_UDP              iDivisorNMEA    $GPGSV,2,2,07,21,11,221,00,23,13,124,00,26,01,351,00*4A
 
1.00802         MSG_UDP              iDivisorNMEA    $MXPGN,01FA06,681C,89011500C84B0FA0*12
 
1.01818         MSG_UDP              iDivisorNMEA    $MXPGN,01FA06,681C,008E0112EF8A00A1*69
 
1.02833         MSG_UDP              iDivisorNMEA    $MXPGN,01FA06,681C,FFFFFFFFFF018FA2*10
 
1.03851         MSG_UDP              iDivisorNMEA    $MXPGN,01F803,281C,000000000000004B*12
 
1.04871         MSG_UDP              iDivisorNMEA    $MXPGN,01F804,281C,0000001DECC1004B*14
 
1.05891         MSG_UDP              iDivisorNMEA    $GPGGA,134209.000,2254.75339,S,04309.53829,W,1,07,1.89,0.98,M,-5.00,M,,*71
 
1.06912         MSG_UDP              iDivisorNMEA    $GPGLL,2254.75339,S,04309.53829,W,134209.000,A,A*5A
 
1.07939         MSG_UDP              iDivisorNMEA    $GPRMC,134209.000,A,2254.75339,S,04309.53829,W,0.00,289.76,070323,23.39,W,A*18
 
1.08957         MSG_UDP              iDivisorNMEA    $GPVTG,289.76,T,,M,0.00,N,0.00,K,A*3F
 
1.30722         MSG_UDP              iDivisorNMEA    $AGRSA,-0.96,A,,V*6D
 
1.30728         ANGULO_LEME          iDivisorNMEA    -0.96000     
1.35736         MSG_UDP              iDivisorNMEA    $HCHDG,284.4,0.0,E,23.3,W*68
 
1.35748         MSG_UDP              iDivisorNMEA    $GPHDT,261.11,T*00
 
1.36760         MSG_UDP              iDivisorNMEA    $TIROT,-0.49,A*2B
 
1.38232         MSG_UDP              iDivisorNMEA    $MXPGN,01F803,281C,0000000000006450*63
 
1.38852         MSG_UDP              iDivisorNMEA    $MXPGN,01F804,281C,000000592CC16450*6B
 
1.39867         MSG_UDP              iDivisorNMEA    $MXPGN,00FF16,7808,FF0000002B0A9F41*1B
 
1.40888         MSG_UDP              iDivisorNMEA    $AGRSA,-0.96,A,,V*6D
 
1.40891         ANGULO_LEME          iDivisorNMEA    -0.96000     
1.41906         MSG_UDP              iDivisorNMEA    $MXPGN,00FF00,280B,0002000005049913*19
 
1.42924         MSG_UDP              iDivisorNMEA    $MXPGN,00FF19,7808,0000000202009F41*15
 
1.44215         MSG_UDP              iDivisorNMEA    $MXPGN,01FF0D,780B,FF03000098900520*64
 
1.45032         MSG_UDP              iDivisorNMEA    $MXPGN,00FF19,7808,0080000A0A009F41*1D
 
1.46053         MSG_UDP              iDivisorNMEA    $HCHDG,284.4,0.0,E,23.3,W*68
 
1.47070         MSG_UDP              iDivisorNMEA    $GPHDT,261.12,T*03
 
1.48088         MSG_UDP              iDivisorNMEA    $TIROT,-0.49,A*2B
 
1.49104         MSG_UDP              iDivisorNMEA    $MXPGN,01FF1A,680B,FF022B849F410560*6A
 
1.50119         MSG_UDP              iDivisorNMEA    $MXPGN,01F803,281C,0000000000007851*6F
 
1.51132         MSG_UDP              iDivisorNMEA    $MXPGN,01F804,281C,000000592CC17851*67
 
1.52150         MSG_UDP              iDivisorNMEA    $MXPGN,01FF1A,782B,FF010B049F4105E0*13
 
1.53170         MSG_UDP              iDivisorNMEA    $MXPGN,00FF8C,6808,FFF10695C9409F41*64
 
1.54191         MSG_UDP              iDivisorNMEA    $GPGGA,134209.000,2254.75609,S,04309.53844,W,1,12,1.00,5.37,M,-5.60,M,,*7F
 
1.55207         MSG_UDP              iDivisorNMEA    $GPGLL,2254.75609,S,04309.53844,W,134209.000,A,A*57
 
1.56223         MSG_UDP              iDivisorNMEA    $GPRMC,134209.000,A,2254.75609,S,04309.53844,W,0.09,0.00,070323,23.30,W,A*17
 
1.57243         MSG_UDP              iDivisorNMEA    $GPVTG,0.00,T,,M,0.09,N,0.16,K,A*33
 
1.58284         MSG_UDP              iDivisorNMEA    $GPGGA,,2254.75379,S,04309.54169,W,1,,,,M,,M,,*5C
 
1.59303         MSG_UDP              iDivisorNMEA    $GPGLL,2254.75379,S,04309.54169,W,,A,A*47
 
1.60322         MSG_UDP              iDivisorNMEA    $GPVTG,15.40,T,,M,0.20,N,0.37,K,A*0B
 
1.61340         MSG_UDP              iDivisorNMEA    $AGRSA,-0.96,A,,V*6D
 
1.61343         ANGULO_LEME          iDivisorNMEA    -0.96000     
1.62358         MSG_UDP              iDivisorNMEA    $HCHDG,284.4,0.0,E,23.3,W*68
 
1.63378         MSG_UDP              iDivisorNMEA    $GPHDT,261.14,T*05
 
1.64398         MSG_UDP              iDivisorNMEA    $TIROT,-0.39,A*2C
 
1.65413         MSG_UDP              iDivisorNMEA    $MXPGN,01F803,281C,0000000000008C52*18
 
1.66430         MSG_UDP              iDivisorNMEA    $MXPGN,01F804,281C,000000592CC18C52*10
 
1.67449         MSG_UDP              iDivisorNMEA    $AGRSA,-0.96,A,,V*6D
 
1.67453         ANGULO_LEME          iDivisorNMEA    -0.96000     
1.68469         MSG_UDP              iDivisorNMEA    $GPZDA,134208.820,07,03,2023,,*57
 
1.69488         MSG_UDP              iDivisorNMEA    $HCHDG,284.5,0.0,E,23.3,W*69
 
1.70507         MSG_UDP              iDivisorNMEA    $GPHDT,261.16,T*07
 
1.71525         MSG_UDP              iDivisorNMEA    $TIROT,-0.39,A*2C
 
1.72540         MSG_UDP              iDivisorNMEA    $MXPGN,00FF00,280B,0002000005049913*19
 
1.73555         MSG_UDP              iDivisorNMEA    $MXPGN,01F803,281C,0000000000008C52*18
 
1.74572         MSG_UDP              iDivisorNMEA    $MXPGN,01F804,281C,000000231EC18C52*18
 
1.75588         MSG_UDP              iDivisorNMEA    $AGRSA,-0.96,A,,V*6D
 
1.75592         ANGULO_LEME          iDivisorNMEA    -0.96000     
1.76606         MSG_UDP              iDivisorNMEA    $HCHDG,284.5,0.0,E,23.3,W*69
 
1.77625         MSG_UDP              iDivisorNMEA    $GPHDT,261.16,T*07
 
1.78643         MSG_UDP              iDivisorNMEA    $TIROT,-0.39,A*2C
 
1.79660         MSG_UDP              iDivisorNMEA    $MXPGN,01F803,281C,000000000000A053*13
 
1.80675         MSG_UDP              iDivisorNMEA    $MXPGN,01F804,281C,000000231EC1A053*13
 
1.81693         MSG_UDP              iDivisorNMEA    $MXPGN,01FF1A,782B,FFFAFF859F410500*1B
 
1.82712         MSG_UDP              iDivisorNMEA    $AGRSA,-0.96,A,,V*6D
 
1.82716         ANGULO_LEME          iDivisorNMEA    -0.96000     
1.83728         MSG_UDP              iDivisorNMEA    $SDDPT,1.78,0.00,*75
 
1.85732         MSG_UDP              iDivisorNMEA    $HCHDG,284.5,0.0,E,23.3,W*69
 
1.85751         MSG_UDP              iDivisorNMEA    $GPHDT,261.17,T*06
 
1.86780         MSG_UDP              iDivisorNMEA    $TIROT,-0.09,A*2F
 
1.88341         MSG_UDP              iDivisorNMEA    $MXPGN,01F803,281C,000000000000C855*1F
 
1.88863         MSG_UDP              iDivisorNMEA    $MXPGN,01F804,281C,00000056BFC1C855*6D
 
1.90730         MSG_UDP              iDivisorNMEA    $AGRSA,-0.96,A,,V*6D
 
1.90737         ANGULO_LEME          iDivisorNMEA    -0.96000     
1.91630         MSG_UDP              iDivisorNMEA    $MXPGN,00FF00,280B,0002000005049913*19
 
1.95758         MSG_UDP              iDivisorNMEA    $HCHDG,284.5,0.0,E,23.3,W*69
 
1.95833         MSG_UDP              iDivisorNMEA    $GPHDT,261.20,T*02
 
1.96789         MSG_UDP              iDivisorNMEA    $TIROT,-0.29,A*2D
 
1.97816         MSG_UDP              iDivisorNMEA    $GPGSA,A,3,08,10,16,18,21,23,26,,,,,,2.42,1.89,1.89*07
 
1.98836         MSG_UDP              iDivisorNMEA    $GPGSV,2,1,07,08,41,240,45,10,37,150,00,16,09,317,41,18,17,069,35*7E
 
1.99852         MSG_UDP              iDivisorNMEA    $GPGSV,2,2,07,21,11,221,00,23,13,124,00,26,01,351,00*4A
 
2.00863         MSG_UDP              iDivisorNMEA    $MXPGN,01FA06,681C,89011500C8550FC0*66
 
2.19854         MSG_UDP              iDivisorNMEA    $MXPGN,01FF2C,7808,FF7FFFFFFFFFFFC2*17
 
2.19948         MSG_UDP              iDivisorNMEA    $MXPGN,01FF2C,7808,FFFFFFFF7FFFFFC3*16
 
2.20977         MSG_UDP              iDivisorNMEA    $AGRSA,-0.96,A,,V*6D
 
2.20987         ANGULO_LEME          iDivisorNMEA    -0.96000     
2.22007         MSG_UDP              iDivisorNMEA    !AIVDO,1,1,,,B:UOH3P007>Vt4Lf>bl9cwU5oP06,0*5D
 
2.23028         MSG_UDP              iDivisorNMEA    $MXPGN,00FF3D,6808,7FFFFF0DFFFF9F41*6E
 
2.24555         MSG_UDP              iDivisorNMEA    $GPGSA,A,3,08,10,16,18,27,28,31,32,66,65,86,87,1.80,1.50,1.50*02
 
2.25093         MSG_UDP              iDivisorNMEA    $GPGSV,3,1,12,08,41,241,40,10,38,151,16,16,09,318,41,18,17,069,36*7A
 
2.26122         MSG_UDP              iDivisorNMEA    $GPGSV,3,2,12,27,62,291,34,28,20,029,42,31,15,020,45,32,76,112,45*74
 
2.27149         MSG_UDP              iDivisorNMEA    $GPGSV,3,3,12,66,17,311,41,65,62,259,40,86,28,047,41,87,71,138,42*70
 
2.28179         MSG_UDP              iDivisorNMEA    $HCHDG,284.5,0.0,E,23.3,W*69
 
2.29212         MSG_UDP              iDivisorNMEA    $GPHDT,261.22,T*00
 
2.30241         MSG_UDP              iDivisorNMEA    $TIROT,-0.29,A*2D
 
2.31265         MSG_UDP              iDivisorNMEA    $MXPGN,01F803,281C,0000000000005059*6D
 
2.32295         MSG_UDP              iDivisorNMEA    $MXPGN,01F804,281C,000000B844C15059*62
 
2.33326         MSG_UDP              iDivisorNMEA    !AIVDM,1,1,,B,33a0JR0000LrT4=jrVNm?qLF0CNu,0*6E
 
2.34363         MSG_UDP              iDivisorNMEA    $MXPGN,00FF3C,3808,8000F8FE00009F41*1C
 
2.35394         MSG_UDP              iDivisorNMEA    $AGRSA,-0.96,A,,V*6D
 
2.35404         ANGULO_LEME          iDivisorNMEA    -0.96000     
2.36424         MSG_UDP              iDivisorNMEA    $HCHDG,284.5,0.0,E,23.3,W*69
 
2.37446         MSG_UDP              iDivisorNMEA    $GPHDT,261.22,T*00
 
2.38467         MSG_UDP              iDivisorNMEA    $TIROT,-0.29,A*2D
 
2.39495         MSG_UDP              iDivisorNMEA    $MXPGN,01F803,281C,000000000000645A*12
 
2.40523         MSG_UDP              iDivisorNMEA    $MXPGN,01F804,281C,000000A7DBC1645A*17
 
2.41549         MSG_UDP              iDivisorNMEA    $MXPGN,00FF16,7808,FF0000002B0A9F41*1B
 
2.42575         MSG_UDP              iDivisorNMEA    $AGRSA,-0.96,A,,V*6D
 
2.42585         ANGULO_LEME          iDivisorNMEA    -0.96000     
2.43609         MSG_UDP              iDivisorNMEA    $MXPGN,00FF00,280B,0002000005049913*19
 
2.44633         MSG_UDP              iDivisorNMEA    $MXPGN,00FF19,7808,0000000202009F41*15
 
2.45671         MSG_UDP              iDivisorNMEA    $MXPGN,00FF19,7808,0080000A0A009F41*1D
 
2.46695         MSG_UDP              iDivisorNMEA    $HCHDG,284.5,0.0,E,23.3,W*69
 
2.47772         MSG_UDP              iDivisorNMEA    $GPHDT,261.23,T*01
 
2.48804         MSG_UDP              iDivisorNMEA    $TIROT,-0.29,A*2D
 
2.49828         MSG_UDP              iDivisorNMEA    $MXPGN,01FF1A,680B,FF022B849F410580*64
 
2.50854         MSG_UDP              iDivisorNMEA    $MXPGN,01F803,281C,000000000000785B*1C
 
2.51882         MSG_UDP              iDivisorNMEA    $MXPGN,01F804,281C,000000A7DBC1785B*19
 
2.52903         MSG_UDP              iDivisorNMEA    $MXPGN,01FF1A,782B,FF010B049F410500*66
 
2.53931         MSG_UDP              iDivisorNMEA    $MXPGN,00FF8C,6808,FFF10695C9409F41*64
 
2.54959         MSG_UDP              iDivisorNMEA    $MXPGN,01FF0D,780B,FF03000098900540*62
 
2.55990         MSG_UDP              iDivisorNMEA    $GPGGA,134210.000,2254.75625,S,04309.53856,W,1,12,1.00,5.43,M,-5.60,M,,*79
 
2.57023         MSG_UDP              iDivisorNMEA    $GPGLL,2254.75625,S,04309.53856,W,134210.000,A,A*52
 
2.58044         MSG_UDP              iDivisorNMEA    $GPRMC,134210.000,A,2254.75625,S,04309.53856,W,0.38,159.09,070323,23.30,W,A*14
 
2.59072         MSG_UDP              iDivisorNMEA    $GPVTG,159.09,T,,M,0.38,N,0.70,K,A*35
 
2.60097         MSG_UDP              iDivisorNMEA    $GPGGA,,2254.75389,S,04309.54159,W,1,,,,M,,M,,*50
 
2.61127         MSG_UDP              iDivisorNMEA    $GPGLL,2254.75389,S,04309.54159,W,,A,A*4B
 
2.62148         MSG_UDP              iDivisorNMEA    $GPVTG,15.40,T,,M,0.00,N,0.00,K,A*0D
 
2.63173         MSG_UDP              iDivisorNMEA    $AGRSA,-0.96,A,,V*6D
 
2.63185         ANGULO_LEME          iDivisorNMEA    -0.96000     
2.64202         MSG_UDP              iDivisorNMEA    $HCHDG,284.5,0.0,E,23.3,W*69
 
2.65227         MSG_UDP              iDivisorNMEA    $GPHDT,261.23,T*01
 
2.66255         MSG_UDP              iDivisorNMEA    $TIROT,-0.29,A*2D
 
2.67280         MSG_UDP              iDivisorNMEA    $MXPGN,01F803,281C,0000000000008C5C*69
 
2.68309         MSG_UDP              iDivisorNMEA    $MXPGN,01F804,281C,000000A7DBC18C5C*6C
 
2.69338         MSG_UDP              iDivisorNMEA    $AGRSA,-0.96,A,,V*6D
 
2.69346         ANGULO_LEME          iDivisorNMEA    -0.96000     
2.70366         MSG_UDP              iDivisorNMEA    $GPZDA,134209.820,07,03,2023,,*56
 
2.71399         MSG_UDP              iDivisorNMEA    !AIVDM,2,1,8,A,5:UQ1N0000011L<>2205HTr0Ln098U@v2222220010D244`=G4TRCp11H2PC,0*39
 
2.72444         MSG_UDP              iDivisorNMEA    !AIVDM,2,2,8,A,QBDSp888880,2*60
 
2.73485         MSG_UDP              iDivisorNMEA    $HCHDG,284.5,0.0,E,23.3,W*69
 
2.74517         MSG_UDP              iDivisorNMEA    $GPHDT,261.24,T*06
 
2.75550         MSG_UDP              iDivisorNMEA    $TIROT,-0.29,A*2D
 
2.76580         MSG_UDP              iDivisorNMEA    $MXPGN,00FF00,280B,0002000005049913*19
 
2.77612         MSG_UDP              iDivisorNMEA    $MXPGN,01F803,281C,0000000000008C5C*69
 
2.78642         MSG_UDP              iDivisorNMEA    $MXPGN,01F804,281C,000000BE91C18C5C*13
 
2.79672         MSG_UDP              iDivisorNMEA    !AIVDM,1,1,,B,1:UPuT5000LrKPUjpsAHToSp2P00,0*65
 
2.80713         MSG_UDP              iDivisorNMEA    $AGRSA,-0.96,A,,V*6D
 
2.80721         ANGULO_LEME          iDivisorNMEA    -0.96000     
2.81741         MSG_UDP              iDivisorNMEA    !AIVDM,1,1,,A,1:U7@T0000LrNoejsRATVCTF0@6F,0*78
 
2.82773         MSG_UDP              iDivisorNMEA    $HCHDG,284.5,0.0,E,23.3,W*69
 
2.83798         MSG_UDP              iDivisorNMEA    $GPHDT,261.24,T*06
 
3.09555         MSG_UDP              iDivisorNMEA    $MXPGN,00FF28,3808,FF08FFFDFC059F41*19
 
3.10752         MSG_UDP              iDivisorNMEA    $AGRSA,-0.96,A,,V*6D
 
3.10762         ANGULO_LEME          iDivisorNMEA    -0.96000     
3.15766         MSG_UDP              iDivisorNMEA    $HCHDG,284.5,0.0,E,23.3,W*69
 
3.15864         MSG_UDP              iDivisorNMEA    $GPHDT,261.22,T*00
 
3.16789         MSG_UDP              iDivisorNMEA    $TIROT,-0.19,A*2E
 
3.17812         MSG_UDP              iDivisorNMEA    $MXPGN,00FF00,280B,0002000005049913*19
 
3.18837         MSG_UDP              iDivisorNMEA    $MXPGN,01F803,281C,000000000000145F*12
 
3.19867         MSG_UDP              iDivisorNMEA    $MXPGN,01F804,281C,00000024BFC1145F*65
 
3.20894         MSG_UDP              iDivisorNMEA    $MXPGN,01FF2C,7808,FFFFFFFF9F4117E0*1E
 
3.21921         MSG_UDP              iDivisorNMEA    $MXPGN,01FF2C,7808,FFFF7FFFFFFF7FE1*63
 
3.22946         MSG_UDP              iDivisorNMEA    $MXPGN,01FF2C,7808,FF7FFFFFFFFFFFE2*11
 
3.23972         MSG_UDP              iDivisorNMEA    $MXPGN,01FF2C,7808,FFFFFFFF7FFFFFE3*10
 
3.24997         MSG_UDP              iDivisorNMEA    $AGRSA,-0.96,A,,V*6D
 
3.25003         ANGULO_LEME          iDivisorNMEA    -0.96000     
3.26021         MSG_UDP              iDivisorNMEA    $MXPGN,00FF3D,6808,7FFFFF0DFFFF9F41*6E
 
3.27049         MSG_UDP              iDivisorNMEA    $MXPGN,00FF3D,6808,0000FF0BFFFF9F41*19
 
3.28085         MSG_UDP              iDivisorNMEA    $GPGSA,A,3,08,10,16,18,27,28,31,32,66,65,86,87,1.80,1.50,1.50*02
 
3.29112         MSG_UDP              iDivisorNMEA    $GPGSV,3,1,12,08,41,241,40,10,38,151,16,16,09,318,41,18,17,069,36*7A
 
3.30140         MSG_UDP              iDivisorNMEA    $GPGSV,3,2,12,27,62,291,34,28,20,029,42,31,15,020,45,32,76,112,45*74
 
3.31166         MSG_UDP              iDivisorNMEA    $GPGSV,3,3,12,66,17,311,40,65,62,259,40,86,28,047,41,87,71,138,42*71
 
3.32195         MSG_UDP              iDivisorNMEA    $HCHDG,284.5,0.0,E,23.3,W*69
 
3.33220         MSG_UDP              iDivisorNMEA    $GPHDT,261.21,T*03
 
3.34247         MSG_UDP              iDivisorNMEA    $TIROT,-0.19,A*2E
 
3.35276         MSG_UDP              iDivisorNMEA    $MXPGN,00FF3D,6808,FFFFFF0CFFFF9F41*18
 
3.36314         MSG_UDP              iDivisorNMEA    !AIVDM,1,1,,B,3:U8l=PP0nLrLgAjrr5uPrbB0P00,0*52
 
3.37353         MSG_UDP              iDivisorNMEA    $MXPGN,01F803,281C,0000000000005062*65
 
3.38391         MSG_UDP              iDivisorNMEA    $MXPGN,01F804,281C,0000005D74C15062*62
 
3.39416         MSG_UDP              iDivisorNMEA    $MXPGN,00FF3D,6808,FFFFFF03FFFF9F41*68
 
3.40452         MSG_UDP              iDivisorNMEA    $MXPGN,00FF3C,3808,8000F8FE00009F41*1C
 
3.41478         MSG_UDP              iDivisorNMEA    $AGRSA,-0.96,A,,V*6D
 
3.41484         ANGULO_LEME          iDivisorNMEA    -0.96000     
3.42506         MSG_UDP              iDivisorNMEA    $MXPGN,00FF3D,6808,FFFFFF02FFFF9F41*69
 
3.43532         MSG_UDP              iDivisorNMEA    $HCHDG,284.5,0.0,E,23.3,W*69
 
3.44561         MSG_UDP              iDivisorNMEA    $GPHDT,261.20,T*02
 
3.45589         MSG_UDP              iDivisorNMEA    $TIROT,-0.49,A*2B
 
3.46618         MSG_UDP              iDivisorNMEA    $MXPGN,01F803,281C,0000000000007864*69
 
3.47647         MSG_UDP              iDivisorNMEA    $MXPGN,01F804,281C,0000009F23C17864*62
 
3.48672         MSG_UDP              iDivisorNMEA    $MXPGN,00FF16,7808,FF0000002B0A9F41*1B
 
3.49691         MSG_UDP              iDivisorNMEA    $AGRSA,-0.96,A,,V*6D
 
3.49697         ANGULO_LEME          iDivisorNMEA    -0.96000     
3.50719         MSG_UDP              iDivisorNMEA    $MXPGN,00FF19,7808,0000000202009F41*15
 
3.51747         MSG_UDP              iDivisorNMEA    $MXPGN,00FF00,280B,0002000005049913*19
 
3.52777         MSG_UDP              iDivisorNMEA    $MXPGN,00FF19,7808,0080000A0A009F41*1D
 
3.53799         MSG_UDP              iDivisorNMEA    $HCHDG,284.5,0.0,E,23.3,W*69
 
3.54826         MSG_UDP              iDivisorNMEA    $GPHDT,261.20,T*02
 
3.55861         MSG_UDP              iDivisorNMEA    $TIROT,-0.69,A*29
 
3.56891         MSG_UDP              iDivisorNMEA    $MXPGN,01FF1A,680B,FF022B849F4105A0*1D
 
3.57920         MSG_UDP              iDivisorNMEA    $MXPGN,01F803,281C,0000000000008D65*1B
 
3.58948         MSG_UDP              iDivisorNMEA    $MXPGN,01F804,281C,0000009F23C18D65*10
 
3.59973         MSG_UDP              iDivisorNMEA    $MXPGN,01FF1A,782B,FF010B049F410520*64
 
3.61049         MSG_UDP              iDivisorNMEA    $MXPGN,00FF8C,6808,FFF10695C9409F41*64
 
3.62073         MSG_UDP              iDivisorNMEA    $MXPGN,01FF0D,780B,FF03000098900560*60
 
3.63104         MSG_UDP              iDivisorNMEA    $GPGGA,134211.000,2254.75630,S,04309.53859,W,1,12,1.00,5.57,M,-5.60,M,,*76
 
3.64134         MSG_UDP              iDivisorNMEA    $GPGLL,2254.75630,S,04309.53859,W,134211.000,A,A*58
 
3.65166         MSG_UDP              iDivisorNMEA    $GPRMC,134211.000,A,2254.75630,S,04309.53859,W,0.00,0.00,070323,23.30,W,A*11
 
3.66195         MSG_UDP              iDivisorNMEA    $GPVTG,0.00,T,,M,0.00,N,0.00,K,A*3D
 
3.67226         MSG_UDP              iDivisorNMEA    $GPGGA,,2254.75389,S,04309.54159,W,1,,,,M,,M,,*50
 
3.68260         MSG_UDP              iDivisorNMEA    $GPGLL,2254.75389,S,04309.54159,W,,A,A*4B
 
3.69286         MSG_UDP              iDivisorNMEA    $GPVTG,15.40,T,,M,0.00,N,0.00,K,A*0D
 
3.70308         MSG_UDP              iDivisorNMEA    $AGRSA,-0.96,A,,V*6D
 
3.70314         ANGULO_LEME          iDivisorNMEA    -0.96000     
3.71337         MSG_UDP              iDivisorNMEA    $HCHDG,284.5,0.0,E,23.3,W*69
 
3.72357         MSG_UDP              iDivisorNMEA    $GPHDT,261.20,T*02
 
3.73390         MSG_UDP              iDivisorNMEA    $TIROT,-0.79,A*28
 
3.74416         MSG_UDP              iDivisorNMEA    $MXPGN,01F803,281C,000000000000A066*15
 
3.75442         MSG_UDP              iDivisorNMEA    $MXPGN,01F804,281C,0000009F23C1A066*1E
 
3.76470         MSG_UDP              iDivisorNMEA    $AGRSA,-0.96,A,,V*6D
 
3.76479         ANGULO_LEME          iDivisorNMEA    -0.96000     
3.77495         MSG_UDP              iDivisorNMEA    $GPZDA,134210.770,07,03,2023,,*54
 
4.00968         MSG_UDP              iDivisorNMEA    $GPGGA,134212.000,2254.75339,S,04309.53829,W,1,07,1.89,0.98,M,-5.00,M,,*7B
 
4.01085         MSG_UDP              iDivisorNMEA    $GPGLL,2254.75339,S,04309.53829,W,134212.000,A,A*50
 
4.02000         MSG_UDP              iDivisorNMEA    $GPRMC,134212.000,A,2254.75339,S,04309.53829,W,0.00,272.17,070323,23.39,W,A*11
 
4.03014         MSG_UDP              iDivisorNMEA    $GPVTG,272.17,T,,M,0.00,N,0.00,K,A*3C
 
4.04028         MSG_UDP              iDivisorNMEA    $AGRSA,-0.96,A,,V*6D
 
4.04033         ANGULO_LEME          iDivisorNMEA    -0.96000     
4.05789         MSG_UDP              iDivisorNMEA    $HCHDG,284.5,0.0,E,23.3,W*69
 
4.06105         MSG_UDP              iDivisorNMEA    $GPHDT,261.23,T*01
 
4.07121         MSG_UDP              iDivisorNMEA    $TIROT,-0.99,A*26
 
4.08382         MSG_UDP              iDivisorNMEA    $MXPGN,01F803,281C,000000000000146A*16
 
4.09200         MSG_UDP              iDivisorNMEA    $MXPGN,01F804,281C,0000005E0EC1146A*66
 
4.10217         MSG_UDP              iDivisorNMEA    $MXPGN,00FF28,3808,FF08FFFDFC059F41*19
 
4.11254         MSG_UDP              iDivisorNMEA    $AGRSA,-0.96,A,,V*6D
 
4.11256         ANGULO_LEME          iDivisorNMEA    -0.96000     
4.15805         MSG_UDP              iDivisorNMEA    $HCHDG,284.5,0.0,E,23.3,W*69
 
4.15869         MSG_UDP              iDivisorNMEA    $GPHDT,261.24,T*06
 
4.16886         MSG_UDP              iDivisorNMEA    $TIROT,-0.99,A*26
 
4.17910         MSG_UDP              iDivisorNMEA    $MXPGN,00FF00,280B,0002000005049913*19
 
4.18924         MSG_UDP              iDivisorNMEA    $MXPGN,01F803,281C,0000000000003C6C*61
 
4.19939         MSG_UDP              iDivisorNMEA    $MXPGN,01F804,281C,0000008E42C13C6C*6F
 
4.20950         MSG_UDP              iDivisorNMEA    $MXPGN,01FF2C,7808,FFFFFFFF9F411700*6B
 
4.21964         MSG_UDP              iDivisorNMEA    $MXPGN,01FF2C,7808,FFFF7FFFFFFF7F01*16
 
4.22977         MSG_UDP              iDivisorNMEA    $MXPGN,01FF2C,7808,FF7FFFFFFFFFFF02*64
 
4.23993         MSG_UDP              iDivisorNMEA    $MXPGN,01FF2C,7808,FFFFFFFF7FFFFF03*65
 
4.25011         MSG_UDP              iDivisorNMEA    $AGRSA,-0.96,A,,V*6D
 
4.25014         ANGULO_LEME          iDivisorNMEA    -0.96000     
4.26026         MSG_UDP              iDivisorNMEA    $MXPGN,00FF3D,6808,7FFFFF0DFFFF9F41*6E
 
4.27044         MSG_UDP              iDivisorNMEA    $GPGSA,A,3,08,10,16,18,27,28,31,32,66,65,86,87,1.80,1.50,1.50*02
 
4.28056         MSG_UDP              iDivisorNMEA    $GPGSV,3,1,12,08,41,241,40,10,38,151,16,16,09,318,41,18,17,069,36*7A
 
4.29069         MSG_UDP              iDivisorNMEA    $GPGSV,3,2,12,27,62,291,34,28,20,029,42,31,15,020,45,32,76,112,45*74
 
4.30082         MSG_UDP              iDivisorNMEA    $GPGSV,3,3,12,66,17,311,40,65,62,259,40,86,28,047,41,87,71,136,42*7F
 
4.31097         MSG_UDP              iDivisorNMEA    !AIVDO,1,1,,,B:UOH3P00W>Vt5Lf>bh9cwV5oP06,0*3B
 
4.32109         MSG_UDP              iDivisorNMEA    $HCHDG,284.5,0.0,E,23.3,W*69
 
4.33123         MSG_UDP              iDivisorNMEA    $GPHDT,261.24,T*06
 
4.34143         MSG_UDP              iDivisorNMEA    $TIROT,-0.99,A*26
 
4.35157         MSG_UDP              iDivisorNMEA    $MXPGN,01F803,281C,000000000000506D*13
 
4.36170         MSG_UDP              iDivisorNMEA    $MXPGN,01F804,281C,0000008E42C1506D*1D
 
4.37185         MSG_UDP              iDivisorNMEA    $MXPGN,00FF3C,3808,8000F8FE00009F41*1C
 
4.38202         MSG_UDP              iDivisorNMEA    $AGRSA,-0.96,A,,V*6D
 
4.38204         ANGULO_LEME          iDivisorNMEA    -0.96000     
4.39214         MSG_UDP              iDivisorNMEA    $HCHDG,284.5,0.0,E,23.3,W*69
 
4.40229         MSG_UDP              iDivisorNMEA    $GPHDT,261.24,T*06
 
4.41246         MSG_UDP              iDivisorNMEA    $TIROT,-1.09,A*2E
 
4.42264         MSG_UDP              iDivisorNMEA    $MXPGN,01F803,281C,000000000000646E*15
 
4.43286         MSG_UDP              iDivisorNMEA    $MXPGN,01F804,281C,0000009AC8C1646E*63
 
4.44303         MSG_UDP              iDivisorNMEA    $MXPGN,00FF16,7808,FF0000002B0A9F41*1B
 
4.45319         MSG_UDP              iDivisorNMEA    $AGRSA,-0.96,A,,V*6D
 
4.45322         ANGULO_LEME          iDivisorNMEA    -0.96000     
4.46340         MSG_UDP              iDivisorNMEA    $MXPGN,00FF00,280B,0002000005049913*19
 
4.47354         MSG_UDP              iDivisorNMEA    $MXPGN,00FF19,7808,0000000202009F41*15
 
4.48369         MSG_UDP              iDivisorNMEA    $MXPGN,00FF19,7808,0080000A0A009F41*1D
 
4.49380         MSG_UDP              iDivisorNMEA    $HCHDG,284.5,0.0,E,23.3,W*69
 
4.50393         MSG_UDP              iDivisorNMEA    $GPHDT,261.24,T*06
 
4.51404         MSG_UDP              iDivisorNMEA    $TIROT,-1.09,A*2E
 
4.52422         MSG_UDP              iDivisorNMEA    $MXPGN,01FF1A,680B,FF022B849F4105C0*1F
 
4.53440         MSG_UDP              iDivisorNMEA    $MXPGN,01F803,281C,000000000000786F*1B
 
4.54459         MSG_UDP              iDivisorNMEA    $MXPGN,01F804,281C,0000009AC8C1786F*6D
 
4.55479         MSG_UDP              iDivisorNMEA    $MXPGN,01FF1A,782B,FF010B049F410540*62
 
4.56507         MSG_UDP              iDivisorNMEA    $MXPGN,01FF0D,780B,FF03000098900580*6E
 
4.57539         MSG_UDP              iDivisorNMEA    $MXPGN,00FF8C,6808,FFF10695C9409F41*64
 
4.58564         MSG_UDP              iDivisorNMEA    $GPGGA,134212.000,2254.75639,S,04309.53856,W,1,12,1.00,5.70,M,-5.60,M,,*76
 
4.59587         MSG_UDP              iDivisorNMEA    $GPGLL,2254.75639,S,04309.53856,W,134212.000,A,A*5D
 
4.60617         MSG_UDP              iDivisorNMEA    $GPRMC,134212.000,A,2254.75639,S,04309.53856,W,0.29,11.49,070323,23.30,W,A*22
 
4.61639         MSG_UDP              iDivisorNMEA    $GPVTG,11.49,T,,M,0.29,N,0.53,K,A*0D
 
4.62671         MSG_UDP              iDivisorNMEA    $GPGGA,,2254.75409,S,04309.54149,W,1,,,,M,,M,,*5E
 
4.63697         MSG_UDP              iDivisorNMEA    $GPGLL,2254.75409,S,04309.54149,W,,A,A*45
 
4.64727         MSG_UDP              iDivisorNMEA    $GPVTG,15.40,T,,M,0.20,N,0.37,K,A*0B
 
4.65767         MSG_UDP              iDivisorNMEA    $AGRSA,-0.96,A,,V*6D
 
4.65776         ANGULO_LEME          iDivisorNMEA    -0.96000     
4.66795         MSG_UDP              iDivisorNMEA    $HCHDG,284.5,0.0,E,23.3,W*69
 
4.88390         MSG_UDP              iDivisorNMEA    $MXPGN,01F803,281C,000000000000C873*1B
 
4.88406         MSG_UDP              iDivisorNMEA    $MXPGN,01F804,281C,00000097C3C1C873*10
 
4.90790         MSG_UDP              iDivisorNMEA    $AGRSA,-0.96,A,,V*6D
 
4.90794         ANGULO_LEME          iDivisorNMEA    -0.96000     
4.91692         MSG_UDP              iDivisorNMEA    $MXPGN,00FF00,280B,0002000005049913*19
 
4.95826         MSG_UDP              iDivisorNMEA    $HCHDG,284.5,0.0,E,23.3,W*69
 
4.95891         MSG_UDP              iDivisorNMEA    $GPHDT,261.24,T*06
 
4.96910         MSG_UDP              iDivisorNMEA    $TIROT,-0.99,A*26
 
4.97924         MSG_UDP              iDivisorNMEA    $GPGSA,A,3,08,10,16,18,21,23,26,,,,,,2.42,1.89,1.89*07
 
4.98941         MSG_UDP              iDivisorNMEA    $GPGSV,2,1,07,08,41,240,45,10,37,150,00,16,09,317,41,18,17,069,32*79
 
4.99960         MSG_UDP              iDivisorNMEA    $GPGSV,2,2,07,21,11,221,00,23,13,124,00,26,01,351,00*4A
 
5.00977         MSG_UDP              iDivisorNMEA    $MXPGN,01FA06,681C,89011500C8730F20*13
 
5.01997         MSG_UDP              iDivisorNMEA    $MXPGN,01FA06,681C,008E0113EF8D0021*1E
 
5.03010         MSG_UDP              iDivisorNMEA    $MXPGN,01FA06,681C,FFFFFFFFFF018F22*63
 
5.04027         MSG_UDP              iDivisorNMEA    $MXPGN,01F803,281C,0000000000000073*60
 
5.05043         MSG_UDP              iDivisorNMEA    $MXPGN,01F804,281C,00000097C3C10073*6B
 
5.06057         MSG_UDP              iDivisorNMEA    $GPGGA,134213.000,2254.75339,S,04309.53829,W,1,07,1.89,0.98,M,-5.00,M,,*7A
 
5.07076         MSG_UDP              iDivisorNMEA    $GPGLL,2254.75339,S,04309.53829,W,134213.000,A,A*51
 
5.08096         MSG_UDP              iDivisorNMEA    $GPRMC,134213.000,A,2254.75339,S,04309.53829,W,0.01,208.20,070323,23.39,W,A*18
 
5.09114         MSG_UDP              iDivisorNMEA    $GPVTG,208.20,T,,M,0.01,N,0.01,K,A*35
 
5.10131         MSG_UDP              iDivisorNMEA    $AGRSA,-0.96,A,,V*6D
 
5.10139         ANGULO_LEME          iDivisorNMEA    -0.96000     
5.11154         MSG_UDP              iDivisorNMEA    $HCHDG,284.5,0.0,E,23.3,W*69
 
5.12190         MSG_UDP              iDivisorNMEA    $GPHDT,261.24,T*06
 
5.13210         MSG_UDP              iDivisorNMEA    $TIROT,-0.99,A*26
 
5.14227         MSG_UDP              iDivisorNMEA    $MXPGN,01F803,281C,0000000000002875*6C
 
5.15248         MSG_UDP              iDivisorNMEA    $MXPGN,01F804,281C,00000097C3C12875*67
 
5.16263         MSG_UDP              iDivisorNMEA    $MXPGN,00FF28,3808,FF08FFFDFC059F41*19
 
5.17281         MSG_UDP              iDivisorNMEA    $AGRSA,-0.96,A,,V*6D
 
5.17284         ANGULO_LEME          iDivisorNMEA    -0.96000     
5.18313         MSG_UDP              iDivisorNMEA    $HCHDG,284.5,0.0,E,23.3,W*69
 
5.19331         MSG_UDP              iDivisorNMEA    $GPHDT,261.24,T*06
 
5.20345         MSG_UDP              iDivisorNMEA    $TIROT,-0.99,A*26
 
5.21360         MSG_UDP              iDivisorNMEA    $MXPGN,00FF00,280B,0002000005049913*19
 
5.22375         MSG_UDP              iDivisorNMEA    $MXPGN,01F803,281C,0000000000003C76*15
 
5.23398         MSG_UDP              iDivisorNMEA    $MXPGN,01F804,281C,000000EA98C13C76*65
 
5.24416         MSG_UDP              iDivisorNMEA    $MXPGN,01FF2C,7808,FFFFFFFF9F411720*69
 
5.25431         MSG_UDP              iDivisorNMEA    $MXPGN,01FF2C,7808,FFFF7FFFFFFF7F21*14
 
5.26445         MSG_UDP              iDivisorNMEA    $MXPGN,01FF2C,7808,FF7FFFFFFFFFFF22*66
 
5.27459         MSG_UDP              iDivisorNMEA    $MXPGN,01FF2C,7808,FFFFFFFF7FFFFF23*67
 
5.28476         MSG_UDP              iDivisorNMEA    $AGRSA,-0.96,A,,V*6D
 
5.28481         ANGULO_LEME          iDivisorNMEA    -0.96000     
5.29493         MSG_UDP              iDivisorNMEA    $MXPGN,00FF3D,6808,7FFFFF0DFFFF9F41*6E
 
5.30509         MSG_UDP              iDivisorNMEA    $HCHDG,284.5,0.0,E,23.3,W*69
 
5.31526         MSG_UDP              iDivisorNMEA    $GPHDT,261.23,T*01
 
5.32552         MSG_UDP              iDivisorNMEA    $TIROT,-0.99,A*26
 
5.33568         MSG_UDP              iDivisorNMEA    $MXPGN,01F803,281C,0000000000005077*61
 
5.34580         MSG_UDP              iDivisorNMEA    $MXPGN,01F804,281C,000000EA98C15077*11
 
5.35596         MSG_UDP              iDivisorNMEA    $GPGSA,A,3,08,10,16,18,27,28,31,32,66,65,86,87,1.80,1.50,1.50*02
 
5.36608         MSG_UDP              iDivisorNMEA    $GPGSV,3,1,12,08,41,241,40,10,38,151,16,16,09,318,41,18,17,069,36*7A
 
5.37625         MSG_UDP              iDivisorNMEA    $GPGSV,3,2,12,27,62,291,33,28,20,029,42,31,15,020,45,32,76,112,44*72
 
5.38638         MSG_UDP              iDivisorNMEA    $GPGSV,3,3,12,66,17,311,40,65,62,259,40,86,28,047,41,87,71,136,42*7F
 
5.39654         MSG_UDP              iDivisorNMEA    $MXPGN,00FF3C,3808,8000F8FE00009F41*1C
 
5.40668         MSG_UDP              iDivisorNMEA    $AGRSA,-0.96,A,,V*6D
 
5.40672         ANGULO_LEME          iDivisorNMEA    -0.96000     
5.41685         MSG_UDP              iDivisorNMEA    $HCHDG,284.5,0.0,E,23.3,W*69
 
5.42699         MSG_UDP              iDivisorNMEA    $GPHDT,261.22,T*00
 
5.43717         MSG_UDP              iDivisorNMEA    $TIROT,-1.09,A*2E
 
5.44732         MSG_UDP              iDivisorNMEA    $MXPGN,01F803,281C,0000000000006478*69
 
5.45746         MSG_UDP              iDivisorNMEA    $MXPGN,01F804,281C,0000006A15C16478*6F
 
5.46764         MSG_UDP              iDivisorNMEA    !AIVDM,1,1,,B,1:U6vLPP04trHfQjpdq<HgvJ2@7q,0*1E
 
5.47786         MSG_UDP              iDivisorNMEA    $MXPGN,00FF16,7808,FF0000002B0A9F41*1B
 
5.48804         MSG_UDP              iDivisorNMEA    $AGRSA,-0.96,A,,V*6D
 
5.48806         ANGULO_LEME          iDivisorNMEA    -0.96000     
5.49818         MSG_UDP              iDivisorNMEA    $MXPGN,00FF00,280B,0002000005049913*19
 
5.50835         MSG_UDP              iDivisorNMEA    $MXPGN,00FF19,7808,0000000202009F41*15
 
5.51851         MSG_UDP              iDivisorNMEA    $MXPGN,00FF19,7808,0080000A0A009F41*1D
 
5.52866         MSG_UDP              iDivisorNMEA    $HCHDG,284.5,0.0,E,23.3,W*69
 
5.53883         MSG_UDP              iDivisorNMEA    $GPHDT,261.23,T*01
 
5.54898         MSG_UDP              iDivisorNMEA    $TIROT,-1.09,A*2E
 
5.78414         MSG_UDP              iDivisorNMEA    $MXPGN,01F803,281C,000000000000B47C*66
 
5.78422         MSG_UDP              iDivisorNMEA    $MXPGN,01F804,281C,0000007746C1B47C*11
 
5.80519         MSG_UDP              iDivisorNMEA    !AIVDM,1,1,,A,1:U6v;gP00LrHVmjpgTK:?wp2h89,0*42
 
5.80811         MSG_UDP              iDivisorNMEA    $AGRSA,-0.96,A,,V*6D
 
5.80818         ANGULO_LEME          iDivisorNMEA    -0.96000     
5.81632         MSG_UDP              iDivisorNMEA    $SDDPT,1.79,0.00,*74
 
5.85815         MSG_UDP              iDivisorNMEA    $HCHDG,284.6,0.0,E,23.3,W*6A
 
5.85926         MSG_UDP              iDivisorNMEA    $GPHDT,261.25,T*07
 
5.86845         MSG_UDP              iDivisorNMEA    $TIROT,-0.89,A*27
 
5.88423         MSG_UDP              iDivisorNMEA    $MXPGN,01F803,281C,000000000000C87D*6C
 
5.88934         MSG_UDP              iDivisorNMEA    $MXPGN,01F804,281C,0000008874C1C87D*1A
 
5.90805         MSG_UDP              iDivisorNMEA    $AGRSA,-0.96,A,,V*6D
 
5.90811         ANGULO_LEME          iDivisorNMEA    -0.96000     
5.91713         MSG_UDP              iDivisorNMEA    $MXPGN,00FF00,280B,0002000005049913*19
 
5.95811         MSG_UDP              iDivisorNMEA    $HCHDG,284.6,0.0,E,23.3,W*6A
 
5.95911         MSG_UDP              iDivisorNMEA    $GPHDT,261.26,T*04
 
5.96928         MSG_UDP              iDivisorNMEA    $TIROT,-0.99,A*26
 
5.97947         MSG_UDP              iDivisorNMEA    $GPGSA,A,3,08,10,16,18,21,23,26,,,,,,2.42,1.89,1.89*07
 
5.98966         MSG_UDP              iDivisorNMEA    $GPGSV,2,1,07,08,41,240,45,10,37,150,00,16,09,317,41,18,17,069,32*79
 
5.99987         MSG_UDP              iDivisorNMEA    $GPGSV,2,2,07,21,11,221,00,23,13,124,00,26,01,351,00*4A
 
6.01001         MSG_UDP              iDivisorNMEA    $MXPGN,01FA06,681C,89011500C87D0F40*62
 
6.02023         MSG_UDP              iDivisorNMEA    $MXPGN,01FA06,681C,008E0113EF8F0041*1A
 
6.03040         MSG_UDP              iDivisorNMEA    $MXPGN,01FA06,681C,FFFFFFFFFF019042*12
 
6.04060         MSG_UDP              iDivisorNMEA    $MXPGN,01F803,281C,000000000000007D*17
 
6.05080         MSG_UDP              iDivisorNMEA    $MXPGN,01F804,281C,0000008874C1007D*61
 
6.06096         MSG_UDP              iDivisorNMEA    $GPGGA,134214.000,2254.75339,S,04309.53829,W,1,07,1.89,0.98,M,-5.00,M,,*7D
 
6.07116         MSG_UDP              iDivisorNMEA    $GPGLL,2254.75339,S,04309.53829,W,134214.000,A,A*56
 
6.08135         MSG_UDP              iDivisorNMEA    $GPRMC,134214.000,A,2254.75339,S,04309.53829,W,0.01,174.94,070323,23.39,W,A*18
 
6.09153         MSG_UDP              iDivisorNMEA    $GPVTG,174.94,T,,M,0.01,N,0.01,K,A*32
 
6.10170         MSG_UDP              iDivisorNMEA    $AGRSA,-0.96,A,,V*6D
 
6.10173         ANGULO_LEME          iDivisorNMEA    -0.96000     
6.11184         MSG_UDP              iDivisorNMEA    $HCHDG,284.6,0.0,E,23.3,W*6A
 
6.12196         MSG_UDP              iDivisorNMEA    $GPHDT,261.26,T*04
 
6.13214         MSG_UDP              iDivisorNMEA    $TIROT,-0.99,A*26
 
6.14232         MSG_UDP              iDivisorNMEA    $MXPGN,01F803,281C,000000000000287F*1F
 
6.15249         MSG_UDP              iDivisorNMEA    $MXPGN,01F804,281C,0000008874C1287F*69
 
6.16271         MSG_UDP              iDivisorNMEA    $MXPGN,00FF28,3808,FF08FFFDFC059F41*19
 
6.17290         MSG_UDP              iDivisorNMEA    $AGRSA,-0.96,A,,V*6D
 
6.17292         ANGULO_LEME          iDivisorNMEA    -0.96000     
6.18309         MSG_UDP              iDivisorNMEA    $HCHDG,284.6,0.0,E,23.3,W*6A
 
6.19326         MSG_UDP              iDivisorNMEA    $GPHDT,261.27,T*05
 
6.20344         MSG_UDP              iDivisorNMEA    $TIROT,-1.09,A*2E
 
6.21361         MSG_UDP              iDivisorNMEA    $MXPGN,00FF00,280B,0002000005049913*19
 
6.22378         MSG_UDP              iDivisorNMEA    $MXPGN,01F803,281C,0000000000003C80*1C
 
6.23393         MSG_UDP              iDivisorNMEA    $MXPGN,01F804,281C,000000B771C13C80*1A
 
6.24412         MSG_UDP              iDivisorNMEA    $MXPGN,01FF2C,7808,FFFFFFFF9F411740*6F
 
6.25428         MSG_UDP              iDivisorNMEA    $MXPGN,01FF2C,7808,FFFF7FFFFFFF7F41*12
 
6.26447         MSG_UDP              iDivisorNMEA    $MXPGN,01FF2C,7808,FF7FFFFFFFFFFF42*60
 
6.27464         MSG_UDP              iDivisorNMEA    $MXPGN,01FF2C,7808,FFFFFFFF7FFFFF43*61
 
6.28485         MSG_UDP              iDivisorNMEA    $AGRSA,-0.96,A,,V*6D
 
6.28490         ANGULO_LEME          iDivisorNMEA    -0.96000     
6.29516         MSG_UDP              iDivisorNMEA    $MXPGN,00FF3D,6808,7FFFFF0DFFFF9F41*6E
 
6.30532         MSG_UDP              iDivisorNMEA    $HCHDG,284.6,0.0,E,23.3,W*6A
 
6.31551         MSG_UDP              iDivisorNMEA    $GPHDT,261.27,T*05
 
6.32566         MSG_UDP              iDivisorNMEA    $TIROT,-1.09,A*2E
 
6.33588         MSG_UDP              iDivisorNMEA    !AIVDO,1,1,,,B:UOH3P017>Vt5Lf>bP9cwW5oP06,0*63
 
6.34600         MSG_UDP              iDivisorNMEA    $MXPGN,01F803,281C,0000000000005081*68
 
6.35621         MSG_UDP              iDivisorNMEA    $MXPGN,01F804,281C,000000B771C15081*6E
 
6.36633         MSG_UDP              iDivisorNMEA    $GPGSA,A,3,08,10,16,18,27,28,31,32,66,65,86,87,1.80,1.50,1.50*02
 
6.37645         MSG_UDP              iDivisorNMEA    $GPGSV,3,1,12,08,41,241,40,10,38,151,17,16,09,318,41,18,17,069,35*78
 
6.38658         MSG_UDP              iDivisorNMEA    $GPGSV,3,2,12,27,62,291,33,28,20,029,42,31,15,020,45,32,76,112,44*72
 
6.39675         MSG_UDP              iDivisorNMEA    $GPGSV,3,3,12,66,17,311,40,65,62,259,41,86,28,047,42,87,71,136,42*7D
 
6.40691         MSG_UDP              iDivisorNMEA    $MXPGN,00FF3C,3808,8000F8FE00009F41*1C
 
6.41713         MSG_UDP              iDivisorNMEA    $AGRSA,-0.96,A,,V*6D
 
6.41718         ANGULO_LEME          iDivisorNMEA    -0.96000     
6.42739         MSG_UDP              iDivisorNMEA    $HCHDG,284.6,0.0,E,23.3,W*6A
 
6.43794         MSG_UDP              iDivisorNMEA    $GPHDT,261.28,T*0A
 
6.44832         MSG_UDP              iDivisorNMEA    $TIROT,-1.09,A*2E
 
6.45857         MSG_UDP              iDivisorNMEA    $MXPGN,01F803,281C,0000000000006482*6C
 
6.46894         MSG_UDP              iDivisorNMEA    $MXPGN,01F804,281C,000000C227C16482*6D
 
6.68439         MSG_UDP              iDivisorNMEA    $MXPGN,01F803,281C,000000000000A085*18
 
6.68467         MSG_UDP              iDivisorNMEA    $MXPGN,01F804,281C,000000DD7CC1A085*19
 
6.70831         MSG_UDP              iDivisorNMEA    $AGRSA,-0.90,A,,V*6B
 
6.70838         ANGULO_LEME          iDivisorNMEA    -0.90000     
6.75851         MSG_UDP              iDivisorNMEA    $HCHDG,284.6,0.0,E,23.3,W*6A
 
6.75938         MSG_UDP              iDivisorNMEA    $GPHDT,261.27,T*05
 
6.76964         MSG_UDP              iDivisorNMEA    $TIROT,-1.49,A*2A
 
6.77990         MSG_UDP              iDivisorNMEA    !AIVDM,1,1,,B,3:U8l=PP0mLrLfejrrCuP:`J0Qt0,0*05
 
6.79033         MSG_UDP              iDivisorNMEA    $MXPGN,01F803,281C,000000000000B486*1C
 
6.80113         MSG_UDP              iDivisorNMEA    $MXPGN,01F804,281C,000000DD7CC1B486*1D
 
6.81139         MSG_UDP              iDivisorNMEA    $AGRSA,-0.90,A,,V*6B
 
6.81145         ANGULO_LEME          iDivisorNMEA    -0.90000     
6.82163         MSG_UDP              iDivisorNMEA    $SDDPT,1.79,0.00,*74
 
6.85847         MSG_UDP              iDivisorNMEA    $HCHDG,284.6,0.0,E,23.3,W*6A
 
6.85944         MSG_UDP              iDivisorNMEA    $GPHDT,261.27,T*05
 
6.86978         MSG_UDP              iDivisorNMEA    $TIROT,-1.49,A*2A
 
6.88459         MSG_UDP              iDivisorNMEA    $MXPGN,01F803,281C,000000000000C887*10
 
6.89091         MSG_UDP              iDivisorNMEA    $MXPGN,01F804,281C,0000003719C1C887*69
 
6.90837         MSG_UDP              iDivisorNMEA    $AGRSA,-0.96,A,,V*6D
 
6.90846         ANGULO_LEME          iDivisorNMEA    -0.96000     
6.91730         MSG_UDP              iDivisorNMEA    $MXPGN,00FF00,280B,0002000005049913*19
 
6.95846         MSG_UDP              iDivisorNMEA    $HCHDG,284.6,0.0,E,23.3,W*6A
 
6.95942         MSG_UDP              iDivisorNMEA    $GPHDT,261.28,T*0A
 
6.96971         MSG_UDP              iDivisorNMEA    $TIROT,-1.49,A*2A
 
6.98010         MSG_UDP              iDivisorNMEA    $GPGSA,A,3,08,10,16,18,21,23,26,,,,,,2.42,1.89,1.89*07
 
6.99033         MSG_UDP              iDivisorNMEA    $GPGSV,2,1,07,08,41,240,45,10,37,150,00,16,09,317,40,18,17,069,32*78
 
7.00065         MSG_UDP              iDivisorNMEA    $GPGSV,2,2,07,21,11,221,00,23,13,124,00,26,01,351,00*4A
 
7.01095         MSG_UDP              iDivisorNMEA    $MXPGN,01FA06,681C,89011500C8870F60*1C
 
7.02122         MSG_UDP              iDivisorNMEA    $MXPGN,01FA06,681C,008E0113EF8F0061*18
 
7.03147         MSG_UDP              iDivisorNMEA    $MXPGN,01FA06,681C,FFFFFFFFFF019062*10
 
7.04197         MSG_UDP              iDivisorNMEA    $MXPGN,01F803,281C,0000000000000087*6B
 
7.05228         MSG_UDP              iDivisorNMEA    $MXPGN,01F804,281C,0000003719C10087*12
 
7.06255         MSG_UDP              iDivisorNMEA    $GPGGA,134215.000,2254.75339,S,04309.53829,W,1,07,1.89,0.98,M,-5.00,M,,*7C
 
7.07284         MSG_UDP              iDivisorNMEA    $GPGLL,2254.75339,S,04309.53829,W,134215.000,A,A*57
 
7.08309         MSG_UDP              iDivisorNMEA    $GPRMC,134215.000,A,2254.75339,S,04309.53829,W,0.01,324.86,070323,23.39,W,A*1D
 
7.09333         MSG_UDP              iDivisorNMEA    $GPVTG,324.86,T,,M,0.01,N,0.01,K,A*36
 
7.10359         MSG_UDP              iDivisorNMEA    $AGRSA,-0.96,A,,V*6D
 
7.10364         ANGULO_LEME          iDivisorNMEA    -0.96000     
7.11386         MSG_UDP              iDivisorNMEA    !AIVDM,1,1,,A,1:U8M80P03trHBqjqB8tcOvN2@8o,0*0F
 
7.12422         MSG_UDP              iDivisorNMEA    $HCHDG,284.6,0.0,E,23.3,W*6A
 
7.13444         MSG_UDP              iDivisorNMEA    $GPHDT,261.28,T*0A
 
7.14474         MSG_UDP              iDivisorNMEA    $TIROT,-1.49,A*2A
 
7.15499         MSG_UDP              iDivisorNMEA    $MXPGN,01F803,281C,0000000000002889*6F
 
7.16525         MSG_UDP              iDivisorNMEA    $MXPGN,01F804,281C,0000003719C12889*16
 
7.17550         MSG_UDP              iDivisorNMEA    $MXPGN,00FF28,3808,FF08FFFDFC059F41*19
 
7.18577         MSG_UDP              iDivisorNMEA    $AGRSA,-0.96,A,,V*6D
 
7.18586         ANGULO_LEME          iDivisorNMEA    -0.96000     
7.19606         MSG_UDP              iDivisorNMEA    $HCHDG,284.6,0.0,E,23.3,W*6A
 
7.20630         MSG_UDP              iDivisorNMEA    $GPHDT,261.29,T*0B
 
7.21657         MSG_UDP              iDivisorNMEA    $TIROT,-1.39,A*2D
 
7.22689         MSG_UDP              iDivisorNMEA    $MXPGN,00FF00,280B,0002000005049913*19
 
7.23722         MSG_UDP              iDivisorNMEA    $MXPGN,01F803,281C,0000000000003C8A*6D
 
7.24756         MSG_UDP              iDivisorNMEA    $MXPGN,01F804,281C,000000D877C13C8A*64
 
7.25793         MSG_UDP              iDivisorNMEA    $MXPGN,01FF2C,7808,FFFFFFFF9F411760*6D
 
7.26833         MSG_UDP              iDivisorNMEA    $MXPGN,01FF2C,7808,FFFF7FFFFFFF7F61*10
 
7.27869         MSG_UDP              iDivisorNMEA    $MXPGN,01FF2C,7808,FF7FFFFFFFFFFF62*62
 
7.28899         MSG_UDP              iDivisorNMEA    $MXPGN,01FF2C,7808,FFFFFFFF7FFFFF63*63
 
7.29929         MSG_UDP              iDivisorNMEA    $AGRSA,-0.96,A,,V*6D
 
7.29940         ANGULO_LEME          iDivisorNMEA    -0.96000     
7.31003         MSG_UDP              iDivisorNMEA    $MXPGN,00FF3D,6808,7FFFFF0DFFFF9F41*6E
 
7.32034         MSG_UDP              iDivisorNMEA    !AIVDM,1,1,,A,16:>J;?P00LrE9qjr;5orwvP00Ri,0*69
 
7.33080         MSG_UDP              iDivisorNMEA    $HCHDG,284.6,0.0,E,23.3,W*6A
 
7.34112         MSG_UDP              iDivisorNMEA    $GPHDT,261.29,T*0B
 
7.35144         MSG_UDP              iDivisorNMEA    $TIROT,-1.39,A*2D
 
7.36170         MSG_UDP              iDivisorNMEA    $MXPGN,01F803,281C,000000000000508B*1B
 
7.37206         MSG_UDP              iDivisorNMEA    $MXPGN,01F804,281C,000000D877C1508B*12
 
7.38234         MSG_UDP              iDivisorNMEA    $MXPGN,00FF3C,3808,8000F8FE00009F41*1C
 
7.39274         MSG_UDP              iDivisorNMEA    $AGRSA,-0.90,A,,V*6B
 
7.39283         ANGULO_LEME          iDivisorNMEA    -0.90000     
7.40306         MSG_UDP              iDivisorNMEA    $GPGSA,A,3,08,10,16,18,27,28,31,32,66,65,86,87,1.80,1.50,1.50*02
 
7.41338         MSG_UDP              iDivisorNMEA    $GPGSV,3,1,12,08,41,241,40,10,38,151,17,16,09,318,41,18,17,069,36*7B
 
7.58453         MSG_UDP              iDivisorNMEA    $MXPGN,01F803,281C,0000000000008C8E*62
 
7.58541         MSG_UDP              iDivisorNMEA    $MXPGN,01F804,281C,00000072ACC18C8E*10
 
7.60855         MSG_UDP              iDivisorNMEA    $AGRSA,-0.96,A,,V*6D
 
7.60864         ANGULO_LEME          iDivisorNMEA    -0.96000     
7.60947         MSG_UDP              iDivisorNMEA    $GPZDA,134214.770,07,03,2023,,*50
 
7.65855         MSG_UDP              iDivisorNMEA    $HCHDG,284.6,0.0,E,23.3,W*6A
 
7.65951         MSG_UDP              iDivisorNMEA    $GPHDT,261.31,T*02
 
7.67012         MSG_UDP              iDivisorNMEA    $TIROT,-1.59,A*2B
 
7.68054         MSG_UDP              iDivisorNMEA    $MXPGN,00FF00,280B,0002000005049913*19
 
7.69075         MSG_UDP              iDivisorNMEA    $MXPGN,01F803,281C,0000000000008C8E*62
 
7.70097         MSG_UDP              iDivisorNMEA    $MXPGN,01F804,281C,000000481EC18C8E*6F
 
7.71120         MSG_UDP              iDivisorNMEA    $AGRSA,-0.96,A,,V*6D
 
7.71126         ANGULO_LEME          iDivisorNMEA    -0.96000     
7.75868         MSG_UDP              iDivisorNMEA    $HCHDG,284.6,0.0,E,23.3,W*6A
 
7.75943         MSG_UDP              iDivisorNMEA    $GPHDT,261.31,T*02
 
7.76970         MSG_UDP              iDivisorNMEA    $TIROT,-1.59,A*2B
 
7.78447         MSG_UDP              iDivisorNMEA    $MXPGN,01F803,281C,000000000000A08F*6B
 
7.79078         MSG_UDP              iDivisorNMEA    $MXPGN,01F804,281C,000000481EC1A08F*66
 
7.80880         MSG_UDP              iDivisorNMEA    $AGRSA,-0.96,A,,V*6D
 
7.80890         ANGULO_LEME          iDivisorNMEA    -0.96000     
7.81158         MSG_UDP              iDivisorNMEA    $SDDPT,1.81,0.00,*73
 
7.85859         MSG_UDP              iDivisorNMEA    $HCHDG,284.6,0.0,E,23.3,W*6A
 
7.85946         MSG_UDP              iDivisorNMEA    $GPHDT,261.31,T*02
 
7.86969         MSG_UDP              iDivisorNMEA    $TIROT,-1.39,A*2D
 
7.88010         MSG_UDP              iDivisorNMEA    !AIVDM,2,1,9,A,5:U8vhT2CPbM1G;WK21E20<u84j222222222221J1q86=76<0<4RCp11H2PC,0*37
 
7.89048         MSG_UDP              iDivisorNMEA    !AIVDM,2,2,9,A,QBDSp888888,2*69
 
7.90084         MSG_UDP              iDivisorNMEA    $MXPGN,01FF1A,782B,FFFAFF859F4105C0*68
 
7.91103         MSG_UDP              iDivisorNMEA    $MXPGN,01F803,281C,000000000000C891*17
 
7.92131         MSG_UDP              iDivisorNMEA    $MXPGN,01F804,281C,000000CA40C1C891*64
 
7.93162         MSG_UDP              iDivisorNMEA    $AGRSA,-0.96,A,,V*6D
 
7.93169         ANGULO_LEME          iDivisorNMEA    -0.96000     
7.94189         MSG_UDP              iDivisorNMEA    $MXPGN,00FF00,280B,0002000005049913*19
 
7.95857         MSG_UDP              iDivisorNMEA    $HCHDG,284.7,0.0,E,23.3,W*6B
 
7.96282         MSG_UDP              iDivisorNMEA    $GPHDT,261.35,T*06
 
7.97313         MSG_UDP              iDivisorNMEA    $TIROT,-1.29,A*2C
 
7.98338         MSG_UDP              iDivisorNMEA    $GPGSA,A,3,08,10,16,18,21,23,26,,,,,,2.42,1.89,1.89*07
 
7.99365         MSG_UDP              iDivisorNMEA    $GPGSV,2,1,07,08,41,240,45,10,37,150,00,16,09,317,40,18,17,069,00*79
 
8.00390         MSG_UDP              iDivisorNMEA    $GPGSV,2,2,07,21,11,221,00,23,13,124,00,26,01,351,00*4A
 
8.01418         MSG_UDP              iDivisorNMEA    $MXPGN,01FA06,681C,89011500C8910F80*15
 
8.02444         MSG_UDP              iDivisorNMEA    $MXPGN,01FA06,681C,008E0113EF8F0081*16
 
8.03469         MSG_UDP              iDivisorNMEA    $MXPGN,01FA06,681C,FFFFFFFFFF019082*1E
 
8.04500         MSG_UDP              iDivisorNMEA    $MXPGN,01F803,281C,0000000000000091*6C
 
8.05525         MSG_UDP              iDivisorNMEA    $MXPGN,01F804,281C,000000CA40C10091*1F
 
8.06571         MSG_UDP              iDivisorNMEA    $GPGGA,134216.000,2254.75339,S,04309.53829,W,1,07,1.89,0.98,M,-5.00,M,,*7F
 
8.07603         MSG_UDP              iDivisorNMEA    $GPGLL,2254.75339,S,04309.53829,W,134216.000,A,A*54
 
8.08633         MSG_UDP              iDivisorNMEA    $GPRMC,134216.000,A,2254.75339,S,04309.53829,W,0.01,105.77,070323,23.39,W,A*11
 
8.09663         MSG_UDP              iDivisorNMEA    $GPVTG,105.77,T,,M,0.01,N,0.01,K,A*39
 
8.10688         MSG_UDP              iDivisorNMEA    $AGRSA,-0.96,A,,V*6D
 
8.10694         ANGULO_LEME          iDivisorNMEA    -0.96000     
8.11713         MSG_UDP              iDivisorNMEA    $HCHDG,284.7,0.0,E,23.3,W*6B
 
8.12745         MSG_UDP              iDivisorNMEA    $GPHDT,261.35,T*06
 
8.13773         MSG_UDP              iDivisorNMEA    $TIROT,-1.29,A*2C
 
8.14796         MSG_UDP              iDivisorNMEA    $MXPGN,01F803,281C,0000000000002893*64
 
8.15819         MSG_UDP              iDivisorNMEA    $MXPGN,01F804,281C,000000CA40C12893*17
 
8.16845         MSG_UDP              iDivisorNMEA    $MXPGN,00FF28,3808,FF08FFFDFC059F41*19
 
8.17879         MSG_UDP              iDivisorNMEA    $AGRSA,-0.96,A,,V*6D
 
8.17888         ANGULO_LEME          iDivisorNMEA    -0.96000     
8.18907         MSG_UDP              iDivisorNMEA    $HCHDG,284.7,0.0,E,23.3,W*6B
 
8.19931         MSG_UDP              iDivisorNMEA    $GPHDT,261.38,T*0B
 
8.20952         MSG_UDP              iDivisorNMEA    $TIROT,-0.99,A*26
 
8.21977         MSG_UDP              iDivisorNMEA    $MXPGN,00FF00,280B,0002000005049913*19
 
8.23000         MSG_UDP              iDivisorNMEA    $MXPGN,01F803,281C,0000000000003C94*19
 
8.24028         MSG_UDP              iDivisorNMEA    $MXPGN,01F804,281C,000000B228C13C94*16
 
8.25055         MSG_UDP              iDivisorNMEA    $MXPGN,01FF2C,7808,FFFFFFFF9F411780*63
 
8.26078         MSG_UDP              iDivisorNMEA    $MXPGN,01FF2C,7808,FFFF7FFFFFFF7F81*1E
 
8.27101         MSG_UDP              iDivisorNMEA    $MXPGN,01FF2C,7808,FF7FFFFFFFFFFF82*6C
 
8.28128         MSG_UDP              iDivisorNMEA    $MXPGN,01FF2C,7808,FFFFFFFF7FFFFF83*6D
 
8.29157         MSG_UDP              iDivisorNMEA    $AGRSA,-0.96,A,,V*6D
 
8.29163         ANGULO_LEME          iDivisorNMEA    -0.96000     
8.30184         MSG_UDP              iDivisorNMEA    $MXPGN,00FF3D,6808,7FFFFF0DFFFF9F41*6E
 
8.31257         MSG_UDP              iDivisorNMEA    $MXPGN,00FF3D,6808,0000FF0BFFFF9F41*19
 
8.46676         MSG_UDP              iDivisorNMEA    $MXPGN,01FF1A,680B,FF022B849F410540*68
 
8.48466         MSG_UDP              iDivisorNMEA    $MXPGN,01F803,281C,0000000000007897*65
 
8.48481         MSG_UDP              iDivisorNMEA    $MXPGN,01F804,281C,00000044EDC17897*11
 
8.49510         MSG_UDP              iDivisorNMEA    $MXPGN,01FF1A,782B,FF010B049F4105C0*15
 
8.50534         MSG_UDP              iDivisorNMEA    $MXPGN,00FF8C,6808,FFF10695C9409F41*64
 
8.51562         MSG_UDP              iDivisorNMEA    $MXPGN,01FF22,2808,FF01FFFF9F410C80*63
 
8.52590         MSG_UDP              iDivisorNMEA    $MXPGN,01FF22,2808,FFFF00000A003981*11
 
8.53625         MSG_UDP              iDivisorNMEA    $GPGGA,,2254.75469,S,04309.54159,W,1,,,,M,,M,,*59
 
8.54651         MSG_UDP              iDivisorNMEA    $GPGLL,2254.75469,S,04309.54159,W,,A,A*42
 
8.55679         MSG_UDP              iDivisorNMEA    $GPVTG,15.40,T,,M,0.20,N,0.37,K,A*0B
 
8.56704         MSG_UDP              iDivisorNMEA    $AGRSA,-0.90,A,,V*6B
 
8.56709         ANGULO_LEME          iDivisorNMEA    -0.90000     
8.57733         MSG_UDP              iDivisorNMEA    $MXPGN,01FF0D,780B,FF03000098900500*66
 
8.58760         MSG_UDP              iDivisorNMEA    $GPGGA,134216.000,2254.75657,S,04309.53899,W,1,12,1.00,6.29,M,-5.60,M,,*76
 
8.59789         MSG_UDP              iDivisorNMEA    $GPGLL,2254.75657,S,04309.53899,W,134216.000,A,A*52
 
8.60811         MSG_UDP              iDivisorNMEA    $GPRMC,134216.000,A,2254.75657,S,04309.53899,W,0.09,0.00,070323,23.30,W,A*12
 
8.61836         MSG_UDP              iDivisorNMEA    $GPVTG,0.00,T,,M,0.09,N,0.16,K,A*33
 
8.62859         MSG_UDP              iDivisorNMEA    $HCHDG,284.7,0.0,E,23.3,W*6B
 
8.63881         MSG_UDP              iDivisorNMEA    $GPHDT,261.43,T*07
 
8.64906         MSG_UDP              iDivisorNMEA    $TIROT,-1.29,A*2C
 
8.65929         MSG_UDP              iDivisorNMEA    $MXPGN,01F803,281C,0000000000008C98*1E
 
8.66951         MSG_UDP              iDivisorNMEA    $MXPGN,01F804,281C,00000044EDC18C98*6A
 
8.67984         MSG_UDP              iDivisorNMEA    $AGRSA,-0.90,A,,V*6B
 
8.67995         ANGULO_LEME          iDivisorNMEA    -0.90000     
8.69020         MSG_UDP              iDivisorNMEA    $GPZDA,134215.770,07,03,2023,,*51
 
8.70048         MSG_UDP              iDivisorNMEA    $HCHDG,284.7,0.0,E,23.3,W*6B
 
8.71069         MSG_UDP              iDivisorNMEA    $GPHDT,261.42,T*06
 
8.72089         MSG_UDP              iDivisorNMEA    $TIROT,-1.29,A*2C
 
8.73114         MSG_UDP              iDivisorNMEA    $MXPGN,00FF00,280B,0002000005049913*19
 
8.74142         MSG_UDP              iDivisorNMEA    $MXPGN,01F803,281C,0000000000008C98*1E
 
8.75171         MSG_UDP              iDivisorNMEA    $MXPGN,01F804,281C,0000005A63C18C98*1A
 
8.76197         MSG_UDP              iDivisorNMEA    $AGRSA,-0.96,A,,V*6D
 
8.76205         ANGULO_LEME          iDivisorNMEA    -0.96000     
8.77225         MSG_UDP              iDivisorNMEA    $HCHDG,284.7,0.0,E,23.3,W*6B
 
8.78254         MSG_UDP              iDivisorNMEA    $GPHDT,261.42,T*06
 
8.79277         MSG_UDP              iDivisorNMEA    $TIROT,-1.29,A*2C
 
8.80307         MSG_UDP              iDivisorNMEA    !AIVDM,1,1,,A,1:U7?1@P00trH>IjqA8II?vP2<2R,0*7D
 
8.81394         MSG_UDP              iDivisorNMEA    $MXPGN,01F803,281C,000000000000A099*15
 
8.82428         MSG_UDP              iDivisorNMEA    $MXPGN,01F804,281C,0000005A63C1A099*11
 
8.83462         MSG_UDP              iDivisorNMEA    $AGRSA,-0.96,A,,V*6D
 
8.83471         ANGULO_LEME          iDivisorNMEA    -0.96000     
8.84493         MSG_UDP              iDivisorNMEA    $SDDPT,1.80,0.00,*72
 
8.85879         MSG_UDP              iDivisorNMEA    $HCHDG,284.7,0.0,E,23.3,W*6B
 
8.86603         MSG_UDP              iDivisorNMEA    $GPHDT,261.43,T*07
 
8.87623         MSG_UDP              iDivisorNMEA    $TIROT,-1.59,A*2B
 
8.88646         MSG_UDP              iDivisorNMEA    $MXPGN,01F803,281C,000000000000A099*15
 
8.89672         MSG_UDP              iDivisorNMEA    $MXPGN,01F804,281C,0000005A63C1A099*11
 
8.90869         MSG_UDP              iDivisorNMEA    $AGRSA,-0.96,A,,V*6D
 
8.90874         ANGULO_LEME          iDivisorNMEA    -0.96000     
8.91801         MSG_UDP              iDivisorNMEA    $MXPGN,00FF00,280B,0002000005049913*19
 
8.95890         MSG_UDP              iDivisorNMEA    $HCHDG,284.7,0.0,E,23.3,W*6B
 
8.95983         MSG_UDP              iDivisorNMEA    $GPHDT,261.43,T*07
 
8.97024         MSG_UDP              iDivisorNMEA    $TIROT,-1.59,A*2B
 
8.98059         MSG_UDP              iDivisorNMEA    $GPGSA,A,3,08,10,16,18,21,23,,,,,,,2.42,1.89,1.89*03
 
8.99099         MSG_UDP              iDivisorNMEA    $GPGSV,2,1,06,08,41,240,45,10,37,150,00,16,09,317,40,18,17,069,00*78
 
9.00128         MSG_UDP              iDivisorNMEA    $GPGSV,2,2,06,21,11,221,00,23,13,124,00*79
 
9.01168         MSG_UDP              iDivisorNMEA    $MXPGN,01FA06,681C,89011500C89A0FA0*1C
 
9.02201         MSG_UDP              iDivisorNMEA    $MXPGN,01FA06,681C,008E0113EF8F00A1*6F
 
9.03222         MSG_UDP              iDivisorNMEA    $MXPGN,01FA06,681C,FFFFFFFFFF0190A2*67
 
9.04246         MSG_UDP              iDivisorNMEA    $MXPGN,01F803,281C,000000000000009A*1C
 
9.05273         MSG_UDP              iDivisorNMEA    $MXPGN,01F804,281C,0000005A63C1009A*18
 
9.06300         MSG_UDP              iDivisorNMEA    $GPGGA,134216.900,2254.75339,S,04309.53839,W,1,06,1.89,0.98,M,-5.00,M,,*76
 
9.07331         MSG_UDP              iDivisorNMEA    $GPGLL,2254.75339,S,04309.53839,W,134216.900,A,A*5C
 
