%%%%%%%%%%%%%%%%%%%%%%%%%%%%%%%%%%%%%%%%%%%%%%%%%%%%%%%%%%%
%% LOG FILE:       /home/moos-ivp-douglas/log/teste_19_3_2023_____09_19_19/teste_19_3_2023_____09_19_19.alog
%% FILE OPENED ON  Wed Dec 31 21:00:00 1969
%% LOGSTART           1679228358.367776
%%%%%%%%%%%%%%%%%%%%%%%%%%%%%%%%%%%%%%%%%%%%%%%%%%%%%%%%%%%
-0.04172        MOOS_DEBUG           pHelmIvP        pHelmIvP AllStop: ManualOverride 
-0.04171        DESIRED_SPEED        pHelmIvP        0.00000      
-0.04171        DESIRED_HEADING      pHelmIvP        0.00000      
0.16385         DESIRED_RUDDER       pMarinePIDV22   0.00000      
0.16385         DESIRED_THRUST       pMarinePIDV22   0.00000      
0.80205         MSG_UDP              iDivisorNMEA    $GPRMC,121920.787,A,2254.656137,S,04309.556790,W,4.9,10.7,190323,,,*17
$IIVHW,10.7,T,10.7,M,4.9,N,9.0,K*51
$GPVTG,10.7,T,10.7,M,4.9,N,9.0,K*4A
$IIHDT,10.7,T*14
$GPGLL,2254.656137,S,04309.556790,W,121920.787,A*3D
$GPGGA,121920.787,2254.656137,S,04309.556790,W,1,4,1.6,2.0,M,,,,*37
$GPGSA,A,3,8,11,15,22,,,,,,,,,1.4,1.6,1.1*0C
$GPZDA,121920.787,19,03,2023,-04,00*76
$IIVBW,4.3,4.2,A,4.2,4.0,A,4.1,A,3.9,A*4F
!AIVDO,1,1,,A,17PaewhP0htrKcSjpvOhJPD`0000,0*69
!AIVDM,1,1,,A,17PaewhP0htrKcSjpvOhJPD`0000,0*6B
$WIMWD,271.4,T,271.4,M,6.4,N,3.3,M*58
$WIMWV,301.4,R,7.4,N,A*26
$IIMTW,7.9,C*2D
$SDDPT,7.6,0.3*55
$SDDBT,25.0,f,7.6,M,4.2,F*36
!AIVDO,2,1,9,A,57Paewh00001<To7;?@plD5<Tl0000000000000U1@:550qdC2TnA3QF,0*5E
!AIVDO,2,2,9,A,@00000000000002,2*5D
!AIVDM,2,1,9,A,57Paewh00001<To7;?@plD5<Tl0000000000000U1@:550qdC2TnA3QF,0*5C
!AIVDM,2,2,9,A,@00000000000002,2*5F
$IIRPM,E,1,0,10.5,A*7C
$IIRPM,E,2,0,10.5,A*7F
 
0.80225         NAV_LAT              iDivisorNMEA    -22.91094    
0.80226         NAV_LONG             iDivisorNMEA    -43.15928    
0.80226         NAV_SPEED            iDivisorNMEA    4.00000      
0.80226         NAV_HEADING          iDivisorNMEA    0.00000      
0.80226         GPS_HEADING          iDivisorNMEA    10.70000     
1.80895         MSG_UDP              iDivisorNMEA    $GPRMC,121921.787,A,2254.654823,S,04309.556534,W,4.8,10.2,190323,,,*10
$IIVHW,10.2,T,10.2,M,4.8,N,8.9,K*58
$GPVTG,10.2,T,10.2,M,4.8,N,8.9,K*43
$IIHDT,10.2,T*11
$GPGLL,2254.654823,S,04309.556534,W,121921.787,A*3E
$GPGGA,121921.787,2254.654823,S,04309.556534,W,1,4,1.5,2.0,M,,,,*37
$GPGSA,A,3,8,11,15,22,,,,,,,,,1.5,1.5,1.0*0F
$GPZDA,121921.787,19,03,2023,-04,00*77
$IIVBW,4.5,4.5,A,3.9,4.4,A,3.9,A,4.0,A*47
!AIVDO,1,1,,A,17PaewhP0htrKcWjpvS0I@Db0000,0*38
!AIVDM,1,1,,A,17PaewhP0htrKcWjpvS0I@Db0000,0*3A
$WIMWD,258.5,T,258.5,M,5.3,N,2.7,M*59
$WIMWV,300.0,R,5.7,N,A*22
$IIMTW,8.0,C*2B
$SDDPT,7.3,0.3*50
$SDDBT,23.8,f,7.3,M,4.0,F*3F
!AIVDO,2,1,9,A,57Paewh00001<To7;?@plD5<Tl0000000000000U1@:550qdC2TnA3QF,0*5E
!AIVDO,2,2,9,A,@00000000000002,2*5D
!AIVDM,2,1,9,A,57Paewh00001<To7;?@plD5<Tl0000000000000U1@:550qdC2TnA3QF,0*5C
!AIVDM,2,2,9,A,@00000000000002,2*5F
$IIRPM,E,1,0,10.5,A*7C
$IIRPM,E,2,0,10.5,A*7F
 
1.80920         NAV_LAT              iDivisorNMEA    -22.91091    
1.80920         NAV_LONG             iDivisorNMEA    -43.15928    
1.80920         NAV_SPEED            iDivisorNMEA    4.00000      
1.80920         NAV_HEADING          iDivisorNMEA    0.00000      
1.80920         GPS_HEADING          iDivisorNMEA    10.20000     
2.80414         MSG_UDP              iDivisorNMEA    $GPRMC,121922.787,A,2254.653525,S,04309.556269,W,4.8,10.7,190323,,,*15
$IIVHW,10.7,T,10.7,M,4.8,N,8.8,K*59
$GPVTG,10.7,T,10.7,M,4.8,N,8.8,K*42
$IIHDT,10.7,T*14
$GPGLL,2254.653525,S,04309.556269,W,121922.787,A*3E
$GPGGA,121922.787,2254.653525,S,04309.556269,W,1,4,1.4,2.0,M,,,,*36
$GPGSA,A,3,8,11,15,22,,,,,,,,,1.6,1.4,1.1*0C
$GPZDA,121922.787,19,03,2023,-04,00*74
$IIVBW,4.3,4.5,A,4.2,3.8,A,3.8,A,4.3,A*44
!AIVDO,1,1,,A,17PaewhP0gtrKcejpvV@JPDd0000,0*65
!AIVDM,1,1,,A,17PaewhP0gtrKcejpvV@JPDd0000,0*67
$WIMWD,246.2,T,246.2,M,4.4,N,2.3,M*5B
$WIMWV,301.8,R,4.3,N,A*2E
$IIMTW,8.0,C*2B
$SDDPT,7.6,0.3*55
$SDDBT,25.0,f,7.6,M,4.2,F*36
!AIVDO,2,1,9,A,57Paewh00001<To7;?@plD5<Tl0000000000000U1@:550qdC2TnA3QF,0*5E
!AIVDO,2,2,9,A,@00000000000002,2*5D
!AIVDM,2,1,9,A,57Paewh00001<To7;?@plD5<Tl0000000000000U1@:550qdC2TnA3QF,0*5C
!AIVDM,2,2,9,A,@00000000000002,2*5F
$IIRPM,E,1,0,10.5,A*7C
$IIRPM,E,2,0,10.5,A*7F
 
2.80436         NAV_LAT              iDivisorNMEA    -22.91089    
2.80437         NAV_LONG             iDivisorNMEA    -43.15927    
2.80437         NAV_SPEED            iDivisorNMEA    4.00000      
2.80437         NAV_HEADING          iDivisorNMEA    0.00000      
2.80437         GPS_HEADING          iDivisorNMEA    10.70000     
3.79576         MSG_UDP              iDivisorNMEA    $GPRMC,121923.787,A,2254.652243,S,04309.555994,W,4.7,11.2,190323,,,*13
$IIVHW,11.2,T,11.2,M,4.7,N,8.7,K*59
$GPVTG,11.2,T,11.2,M,4.7,N,8.7,K*42
$IIHDT,11.2,T*10
$GPGLL,2254.652243,S,04309.555994,W,121923.787,A*33
$GPGGA,121923.787,2254.652243,S,04309.555994,W,1,4,1.3,2.0,M,,,,*3C
$GPGSA,A,3,8,11,15,22,,,,,,,,,1.7,1.3,1.0*0B
$GPZDA,121923.787,19,03,2023,-04,00*75
$IIVBW,4.1,4.0,A,4.6,3.8,A,4.0,A,4.5,A*4E
!AIVDO,1,1,,A,17PaewhP0gtrKckjpvaPKhFf0000,0*75
!AIVDM,1,1,,A,17PaewhP0gtrKckjpvaPKhFf0000,0*77
$WIMWD,234.5,T,234.5,M,3.7,N,1.9,M*56
$WIMWV,308.8,R,3.2,N,A*21
$IIMTW,8.1,C*2A
$SDDPT,7.3,0.3*50
$SDDBT,23.8,f,7.3,M,4.0,F*3F
!AIVDO,2,1,9,A,57Paewh00001<To7;?@plD5<Tl0000000000000U1@:550qdC2TnA3QF,0*5E
!AIVDO,2,2,9,A,@00000000000002,2*5D
!AIVDM,2,1,9,A,57Paewh00001<To7;?@plD5<Tl0000000000000U1@:550qdC2TnA3QF,0*5C
!AIVDM,2,2,9,A,@00000000000002,2*5F
$IIRPM,E,1,0,10.5,A*7C
$IIRPM,E,2,0,10.5,A*7F
 
3.79600         NAV_LAT              iDivisorNMEA    -22.91087    
3.79600         NAV_LONG             iDivisorNMEA    -43.15927    
3.79600         NAV_SPEED            iDivisorNMEA    4.00000      
3.79600         NAV_HEADING          iDivisorNMEA    0.00000      
3.79600         GPS_HEADING          iDivisorNMEA    11.20000     
4.79019         MSG_UDP              iDivisorNMEA    $GPRMC,121924.790,A,2254.650967,S,04309.555733,W,4.7,10.7,190323,,,*1A
$IIVHW,10.7,T,10.7,M,4.7,N,8.6,K*58
$GPVTG,10.7,T,10.7,M,4.7,N,8.6,K*43
$IIHDT,10.7,T*14
$GPGLL,2254.650967,S,04309.555733,W,121924.790,A*3E
$GPGGA,121924.790,2254.650967,S,04309.555733,W,1,4,1.2,2.0,M,,,,*30
$GPGSA,A,3,8,11,15,22,,,,,,,,,1.6,1.2,1.1*0A
$GPZDA,121924.790,19,03,2023,-04,00*74
$IIVBW,3.8,3.9,A,4.7,4.1,A,4.6,A,4.5,A*47
!AIVDO,1,1,,A,17PaewhP0ftrKcojpvdhJPDh0000,0*78
!AIVDM,1,1,,A,17PaewhP0ftrKcojpvdhJPDh0000,0*7A
$WIMWD,246.2,T,246.2,M,3.1,N,1.6,M*5F
$WIMWV,319.1,R,3.9,N,A*23
$IIMTW,8.2,C*29
$SDDPT,7.6,0.3*55
$SDDBT,25.0,f,7.6,M,4.2,F*36
!AIVDO,2,1,9,A,57Paewh00001<To7;?@plD5<Tl0000000000000U1@:550qdC2TnA3QF,0*5E
!AIVDO,2,2,9,A,@00000000000002,2*5D
!AIVDM,2,1,9,A,57Paewh00001<To7;?@plD5<Tl0000000000000U1@:550qdC2TnA3QF,0*5C
!AIVDM,2,2,9,A,@00000000000002,2*5F
$IIRPM,E,1,0,10.5,A*7C
$IIRPM,E,2,0,10.5,A*7F
 
4.79040         NAV_LAT              iDivisorNMEA    -22.91085    
4.79040         NAV_LONG             iDivisorNMEA    -43.15926    
4.79041         NAV_SPEED            iDivisorNMEA    4.00000      
4.79042         NAV_HEADING          iDivisorNMEA    0.00000      
4.79042         GPS_HEADING          iDivisorNMEA    10.70000     
5.75400         MSG_UDP              iDivisorNMEA    $GPRMC,121925.787,A,2254.649684,S,04309.555483,W,4.7,10.2,190323,,,*1A
$IIVHW,10.2,T,10.2,M,4.7,N,8.7,K*59
$GPVTG,10.2,T,10.2,M,4.7,N,8.7,K*42
$IIHDT,10.2,T*11
$GPGLL,2254.649684,S,04309.555483,W,121925.787,A*3B
$GPGGA,121925.787,2254.649684,S,04309.555483,W,1,4,1.1,2.0,M,,,,*36
$GPGSA,A,3,8,11,15,22,,,,,,,,,1.7,1.1,1.0*09
$GPZDA,121925.787,19,03,2023,-04,00*73
$IIVBW,4.0,4.5,A,4.4,4.5,A,4.4,A,3.9,A*4D
!AIVDO,1,1,,A,17PaewhP0gtrKcujpvh0I@Dj0000,0*26
!AIVDM,1,1,,A,17PaewhP0gtrKcujpvh0I@Dj0000,0*24
$WIMWD,258.5,T,258.5,M,3.7,N,1.9,M*56
$WIMWV,314.4,R,4.8,N,A*2D
$IIMTW,8.1,C*2A
$SDDPT,8.0,0.3*5C
$SDDBT,26.2,f,8.0,M,4.4,F*38
!AIVDO,2,1,9,A,57Paewh00001<To7;?@plD5<Tl0000000000000U1@:550qdC2TnA3QF,0*5E
!AIVDO,2,2,9,A,@00000000000002,2*5D
!AIVDM,2,1,9,A,57Paewh00001<To7;?@plD5<Tl0000000000000U1@:550qdC2TnA3QF,0*5C
!AIVDM,2,2,9,A,@00000000000002,2*5F
$IIRPM,E,1,0,10.5,A*7C
$IIRPM,E,2,0,10.5,A*7F
 
5.75420         NAV_LAT              iDivisorNMEA    -22.91083    
5.75420         NAV_LONG             iDivisorNMEA    -43.15926    
5.75420         NAV_SPEED            iDivisorNMEA    4.00000      
5.75420         NAV_HEADING          iDivisorNMEA    0.00000      
5.75420         GPS_HEADING          iDivisorNMEA    10.20000     
6.74346         MSG_UDP              iDivisorNMEA    $GPRMC,121926.787,A,2254.648382,S,04309.555243,W,4.8,9.7,190323,,,*23
$IIVHW,9.7,T,9.7,M,4.8,N,8.8,K*59
$GPVTG,9.7,T,9.7,M,4.8,N,8.8,K*42
$IIHDT,9.7,T*2C
$GPGLL,2254.648382,S,04309.555243,W,121926.787,A*30
$GPGGA,121926.787,2254.648382,S,04309.555243,W,1,4,1.2,2.0,M,,,,*3E
$GPGSA,A,3,8,11,15,22,,,,,,,,,1.6,1.2,0.9*03
$GPZDA,121926.787,19,03,2023,-04,00*70
$IIVBW,4.5,4.7,A,4.7,4.5,A,4.4,A,4.0,A*47
!AIVDO,1,1,,A,17PaewhP0gtrKd1jpvk@H0Bl0000,0*67
!AIVDM,1,1,,A,17PaewhP0gtrKd1jpvk@H0Bl0000,0*65
$WIMWD,271.4,T,271.4,M,4.4,N,2.3,M*5B
$WIMWV,313.3,R,6.0,N,A*27
$IIMTW,8.2,C*29
$SDDPT,8.4,0.3*58
$SDDBT,27.6,f,8.4,M,4.6,F*3B
!AIVDO,2,1,9,A,57Paewh00001<To7;?@plD5<Tl0000000000000U1@:550qdC2TnA3QF,0*5E
!AIVDO,2,2,9,A,@00000000000002,2*5D
!AIVDM,2,1,9,A,57Paewh00001<To7;?@plD5<Tl0000000000000U1@:550qdC2TnA3QF,0*5C
!AIVDM,2,2,9,A,@00000000000002,2*5F
$IIRPM,E,1,0,10.5,A*7C
$IIRPM,E,2,0,10.5,A*7F
 
6.74373         NAV_LAT              iDivisorNMEA    -22.91081    
6.74373         NAV_LONG             iDivisorNMEA    -43.15925    
6.74373         NAV_SPEED            iDivisorNMEA    4.00000      
6.74373         NAV_HEADING          iDivisorNMEA    0.00000      
6.74373         GPS_HEADING          iDivisorNMEA    9.70000      
7.75329         MSG_UDP              iDivisorNMEA    $GPRMC,121927.787,A,2254.647065,S,04309.555011,W,4.8,9.2,190323,,,*27
$IIVHW,9.2,T,9.2,M,4.8,N,8.9,K*58
$GPVTG,9.2,T,9.2,M,4.8,N,8.9,K*43
$IIHDT,9.2,T*29
$GPGLL,2254.647065,S,04309.555011,W,121927.787,A*31
$GPGGA,121927.787,2254.647065,S,04309.555011,W,1,4,1.3,2.0,M,,,,*3E
$GPGSA,A,3,8,11,15,22,,,,,,,,,1.5,1.3,0.9*01
$GPZDA,121927.787,19,03,2023,-04,00*71
$IIVBW,3.8,4.5,A,4.8,4.1,A,4.3,A,4.4,A*47
!AIVDO,1,1,,A,17PaewhP0htrKd5jpvnPG0Bn0000,0*74
!AIVDM,1,1,,A,17PaewhP0htrKd5jpvnPG0Bn0000,0*76
$WIMWD,258.5,T,258.5,M,5.3,N,2.7,M*59
$WIMWV,300.6,R,5.8,N,A*2B
$IIMTW,8.3,C*28
$SDDPT,8.8,0.3*54
$SDDBT,28.9,f,8.8,M,4.8,F*39
!AIVDO,2,1,9,A,57Paewh00001<To7;?@plD5<Tl0000000000000U1@:550qdC2TnA3QF,0*5E
!AIVDO,2,2,9,A,@00000000000002,2*5D
!AIVDM,2,1,9,A,57Paewh00001<To7;?@plD5<Tl0000000000000U1@:550qdC2TnA3QF,0*5C
!AIVDM,2,2,9,A,@00000000000002,2*5F
$IIRPM,E,1,0,10.5,A*7C
$IIRPM,E,2,0,10.5,A*7F
 
7.75350         NAV_LAT              iDivisorNMEA    -22.91078    
7.75350         NAV_LONG             iDivisorNMEA    -43.15925    
7.75350         NAV_SPEED            iDivisorNMEA    4.00000      
7.75350         NAV_HEADING          iDivisorNMEA    0.00000      
7.75350         GPS_HEADING          iDivisorNMEA    9.20000      
8.75134         MSG_UDP              iDivisorNMEA    $GPRMC,121928.790,A,2254.645756,S,04309.554792,W,4.8,8.8,190323,,,*2D
$IIVHW,8.8,T,8.8,M,4.8,N,8.8,K*59
$GPVTG,8.8,T,8.8,M,4.8,N,8.8,K*42
$IIHDT,8.8,T*22
$GPGLL,2254.645756,S,04309.554792,W,121928.790,A*30
$GPGGA,121928.790,2254.645756,S,04309.554792,W,1,4,1.2,2.0,M,,,,*3E
$GPGSA,A,3,8,11,15,22,,,,,,,,,1.4,1.2,0.8*00
$GPZDA,121928.790,19,03,2023,-04,00*78
$IIVBW,4.0,4.1,A,4.6,4.0,A,4.1,A,3.8,A*4A
!AIVDO,1,1,,A,17PaewhP0gtrKd;jpvqhEh@p0000,0*14
!AIVDM,1,1,,A,17PaewhP0gtrKd;jpvqhEh@p0000,0*16
$WIMWD,271.4,T,271.4,M,6.4,N,3.3,M*58
$WIMWV,302.0,R,7.4,N,A*21
$IIMTW,8.2,C*29
$SDDPT,8.4,0.3*58
$SDDBT,27.6,f,8.4,M,4.6,F*3B
!AIVDO,2,1,9,A,57Paewh00001<To7;?@plD5<Tl0000000000000U1@:550qdC2TnA3QF,0*5E
!AIVDO,2,2,9,A,@00000000000002,2*5D
!AIVDM,2,1,9,A,57Paewh00001<To7;?@plD5<Tl0000000000000U1@:550qdC2TnA3QF,0*5C
!AIVDM,2,2,9,A,@00000000000002,2*5F
$IIRPM,E,1,0,10.5,A*7C
$IIRPM,E,2,0,10.5,A*7F
 
8.75153         NAV_LAT              iDivisorNMEA    -22.91076    
8.75153         NAV_LONG             iDivisorNMEA    -43.15925    
8.75153         NAV_SPEED            iDivisorNMEA    4.00000      
8.75154         NAV_HEADING          iDivisorNMEA    0.00000      
8.75154         GPS_HEADING          iDivisorNMEA    8.80000      
9.72987         MSG_UDP              iDivisorNMEA    $GPRMC,121929.788,A,2254.644443,S,04309.554561,W,4.8,9.2,190323,,,*26
$IIVHW,9.2,T,9.2,M,4.8,N,8.9,K*58
$GPVTG,9.2,T,9.2,M,4.8,N,8.9,K*43
$IIHDT,9.2,T*29
$GPGLL,2254.644443,S,04309.554561,W,121929.788,A*30
$GPGGA,121929.788,2254.644443,S,04309.554561,W,1,4,1.1,2.0,M,,,,*3D
$GPGSA,A,3,8,11,15,22,,,,,,,,,1.3,1.1,0.9*05
$GPZDA,121929.788,19,03,2023,-04,00*70
$IIVBW,3.9,4.7,A,4.4,4.2,A,4.6,A,4.1,A*4B
!AIVDO,1,1,,A,17PaewhP0htrKd?jpvu0G0Br0000,0*19
!AIVDM,1,1,,A,17PaewhP0htrKd?jpvu0G0Br0000,0*1B
$WIMWD,258.5,T,258.5,M,5.3,N,2.7,M*59
$WIMWV,300.6,R,5.8,N,A*2B
$IIMTW,8.1,C*2A
$SDDPT,8.0,0.3*5C
$SDDBT,26.2,f,8.0,M,4.4,F*38
!AIVDO,2,1,9,A,57Paewh00001<To7;?@plD5<Tl0000000000000U1@:550qdC2TnA3QF,0*5E
!AIVDO,2,2,9,A,@00000000000002,2*5D
!AIVDM,2,1,9,A,57Paewh00001<To7;?@plD5<Tl0000000000000U1@:550qdC2TnA3QF,0*5C
!AIVDM,2,2,9,A,@00000000000002,2*5F
$IIRPM,E,1,0,10.5,A*7C
$IIRPM,E,2,0,10.5,A*7F
 
9.73005         NAV_LAT              iDivisorNMEA    -22.91074    
9.73005         NAV_LONG             iDivisorNMEA    -43.15924    
9.73007         NAV_SPEED            iDivisorNMEA    4.00000      
9.73007         NAV_HEADING          iDivisorNMEA    0.00000      
9.73007         GPS_HEADING          iDivisorNMEA    9.20000      
10.70507        MSG_UDP              iDivisorNMEA    $GPRMC,121930.789,A,2254.643113,S,04309.554314,W,4.9,9.7,190323,,,*28
$IIVHW,9.7,T,9.7,M,4.9,N,9.0,K*51
$GPVTG,9.7,T,9.7,M,4.9,N,9.0,K*4A
$IIHDT,9.7,T*2C
$GPGLL,2254.643113,S,04309.554314,W,121930.789,A*3A
$GPGGA,121930.789,2254.643113,S,04309.554314,W,1,4,1.2,2.0,M,,,,*34
$GPGSA,A,3,8,11,15,22,,,,,,,,,1.4,1.2,0.9*01
$GPZDA,121930.789,19,03,2023,-04,00*79
$IIVBW,4.5,4.3,A,4.5,4.6,A,4.1,A,4.5,A*42
!AIVDO,1,1,,A,17PaewhP0htrKdCjpw0@H0Bt0000,0*58
!AIVDM,1,1,,A,17PaewhP0htrKdCjpw0@H0Bt0000,0*5A
$WIMWD,246.2,T,246.2,M,6.4,N,3.3,M*58
$WIMWV,284.2,R,5.5,N,A*2F
$IIMTW,8.2,C*29
$SDDPT,8.4,0.3*58
$SDDBT,27.6,f,8.4,M,4.6,F*3B
!AIVDO,2,1,9,A,57Paewh00001<To7;?@plD5<Tl0000000000000U1@:550qdC2TnA3QF,0*5E
!AIVDO,2,2,9,A,@00000000000002,2*5D
!AIVDM,2,1,9,A,57Paewh00001<To7;?@plD5<Tl0000000000000U1@:550qdC2TnA3QF,0*5C
!AIVDM,2,2,9,A,@00000000000002,2*5F
$IIRPM,E,1,0,10.5,A*7C
$IIRPM,E,2,0,10.5,A*7F
 
10.70525        NAV_LAT              iDivisorNMEA    -22.91072    
10.70526        NAV_LONG             iDivisorNMEA    -43.15924    
10.70526        NAV_SPEED            iDivisorNMEA    4.00000      
10.70526        NAV_HEADING          iDivisorNMEA    0.00000      
10.70526        GPS_HEADING          iDivisorNMEA    9.70000      
11.71589        MSG_UDP              iDivisorNMEA    $GPRMC,121931.788,A,2254.641776,S,04309.554055,W,4.9,10.2,190323,,,*14
$IIVHW,10.2,T,10.2,M,4.9,N,9.1,K*50
$GPVTG,10.2,T,10.2,M,4.9,N,9.1,K*4B
$IIHDT,10.2,T*11
$GPGLL,2254.641776,S,04309.554055,W,121931.788,A*3B
$GPGGA,121931.788,2254.641776,S,04309.554055,W,1,4,1.3,2.0,M,,,,*34
$GPGSA,A,3,8,11,15,22,,,,,,,,,1.5,1.3,0.9*01
$GPZDA,121931.788,19,03,2023,-04,00*79
$IIVBW,4.2,3.9,A,4.6,4.9,A,4.7,A,4.0,A*47
!AIVDO,1,1,,A,17PaewhP0itrKdIjpw3hI@Dv0000,0*0D
!AIVDM,1,1,,A,17PaewhP0itrKdIjpw3hI@Dv0000,0*0F
$WIMWD,258.5,T,258.5,M,5.3,N,2.7,M*59
$WIMWV,300.8,R,5.7,N,A*2A
$IIMTW,8.1,C*2A
$SDDPT,8.8,0.3*54
$SDDBT,28.9,f,8.8,M,4.8,F*39
!AIVDO,2,1,9,A,57Paewh00001<To7;?@plD5<Tl0000000000000U1@:550qdC2TnA3QF,0*5E
!AIVDO,2,2,9,A,@00000000000002,2*5D
!AIVDM,2,1,9,A,57Paewh00001<To7;?@plD5<Tl0000000000000U1@:550qdC2TnA3QF,0*5C
!AIVDM,2,2,9,A,@00000000000002,2*5F
$IIRPM,E,1,0,10.5,A*7C
$IIRPM,E,2,0,10.5,A*7F
 
11.71606        NAV_LAT              iDivisorNMEA    -22.91070    
11.71606        NAV_LONG             iDivisorNMEA    -43.15923    
11.71606        NAV_SPEED            iDivisorNMEA    4.00000      
11.71606        NAV_HEADING          iDivisorNMEA    0.00000      
11.71606        GPS_HEADING          iDivisorNMEA    10.20000     
12.70722        MSG_UDP              iDivisorNMEA    $GPRMC,121932.790,A,2254.640448,S,04309.553783,W,4.9,10.7,190323,,,*1F
$IIVHW,10.7,T,10.7,M,4.9,N,9.0,K*51
$GPVTG,10.7,T,10.7,M,4.9,N,9.0,K*4A
$IIHDT,10.7,T*14
$GPGLL,2254.640448,S,04309.553783,W,121932.790,A*35
$GPGGA,121932.790,2254.640448,S,04309.553783,W,1,4,1.2,2.0,M,,,,*3B
$GPGSA,A,3,8,11,15,22,,,,,,,,,1.4,1.2,0.8*00
$GPZDA,121932.790,19,03,2023,-04,00*73
$IIVBW,4.0,4.8,A,4.5,3.9,A,4.7,A,4.2,A*45
!AIVDO,1,1,,A,17PaewhP0htrKdOjpw70JPE00000,0*02
!AIVDM,1,1,,A,17PaewhP0htrKdOjpw70JPE00000,0*00
$WIMWD,246.2,T,246.2,M,6.4,N,3.3,M*58
$WIMWV,283.4,R,5.4,N,A*2F
$IIMTW,8.0,C*2B
$SDDPT,8.4,0.3*58
$SDDBT,27.6,f,8.4,M,4.6,F*3B
!AIVDO,2,1,9,A,57Paewh00001<To7;?@plD5<Tl0000000000000U1@:550qdC2TnA3QF,0*5E
!AIVDO,2,2,9,A,@00000000000002,2*5D
!AIVDM,2,1,9,A,57Paewh00001<To7;?@plD5<Tl0000000000000U1@:550qdC2TnA3QF,0*5C
!AIVDM,2,2,9,A,@00000000000002,2*5F
$IIRPM,E,1,0,10.5,A*7C
$IIRPM,E,2,0,10.5,A*7F
 
12.70742        NAV_LAT              iDivisorNMEA    -22.91067    
12.70743        NAV_LONG             iDivisorNMEA    -43.15923    
12.70743        NAV_SPEED            iDivisorNMEA    4.00000      
12.70743        NAV_HEADING          iDivisorNMEA    0.00000      
12.70743        GPS_HEADING          iDivisorNMEA    10.70000     
13.69227        MSG_UDP              iDivisorNMEA    $GPRMC,121933.787,A,2254.639139,S,04309.553529,W,4.8,10.2,190323,,,*13
$IIVHW,10.2,T,10.2,M,4.8,N,8.9,K*58
$GPVTG,10.2,T,10.2,M,4.8,N,8.9,K*43
$IIHDT,10.2,T*11
$GPGLL,2254.639139,S,04309.553529,W,121933.787,A*3D
$GPGGA,121933.787,2254.639139,S,04309.553529,W,1,4,1.1,2.0,M,,,,*30
$GPGSA,A,3,8,11,15,22,,,,,,,,,1.5,1.1,0.8*02
$GPZDA,121933.787,19,03,2023,-04,00*74
$IIVBW,4.1,4.7,A,3.9,4.5,A,4.2,A,4.3,A*4F
!AIVDO,1,1,,A,17PaewhP0htrKdSjpw:@I@E20000,0*72
!AIVDM,1,1,,A,17PaewhP0htrKdSjpw:@I@E20000,0*70
$WIMWD,234.5,T,234.5,M,7.6,N,3.9,M*51
$WIMWV,262.9,R,5.4,N,A*2D
$IIMTW,8.1,C*2A
$SDDPT,8.0,0.3*5C
$SDDBT,26.2,f,8.0,M,4.4,F*38
!AIVDO,2,1,9,A,57Paewh00001<To7;?@plD5<Tl0000000000000U1@:550qdC2TnA3QF,0*5E
!AIVDO,2,2,9,A,@00000000000002,2*5D
!AIVDM,2,1,9,A,57Paewh00001<To7;?@plD5<Tl0000000000000U1@:550qdC2TnA3QF,0*5C
!AIVDM,2,2,9,A,@00000000000002,2*5F
$IIRPM,E,1,0,10.5,A*7C
$IIRPM,E,2,0,10.5,A*7F
 
13.69254        NAV_LAT              iDivisorNMEA    -22.91065    
13.69254        NAV_LONG             iDivisorNMEA    -43.15923    
13.69255        NAV_SPEED            iDivisorNMEA    4.00000      
13.69255        NAV_HEADING          iDivisorNMEA    0.00000      
13.69255        GPS_HEADING          iDivisorNMEA    10.20000     
14.68196        MSG_UDP              iDivisorNMEA    $GPRMC,121934.787,A,2254.637811,S,04309.553283,W,4.9,9.7,190323,,,*22
$IIVHW,9.7,T,9.7,M,4.9,N,9.0,K*51
$GPVTG,9.7,T,9.7,M,4.9,N,9.0,K*4A
$IIHDT,9.7,T*2C
$GPGLL,2254.637811,S,04309.553283,W,121934.787,A*30
$GPGGA,121934.787,2254.637811,S,04309.553283,W,1,4,1.1,2.0,M,,,,*3D
$GPGSA,A,3,8,11,15,22,,,,,,,,,1.6,1.1,0.8*01
$GPZDA,121934.787,19,03,2023,-04,00*73
$IIVBW,4.3,4.1,A,4.2,4.7,A,4.6,A,4.2,A*40
!AIVDO,1,1,,A,17PaewhP0htrKdajpw=PH0C40000,0*26
!AIVDM,1,1,,A,17PaewhP0htrKdajpw=PH0C40000,0*24
$WIMWD,246.2,T,246.2,M,9.2,N,4.7,M*52
$WIMWV,268.5,R,7.6,N,A*2B
$IIMTW,8.0,C*2B
$SDDPT,7.6,0.3*55
$SDDBT,25.0,f,7.6,M,4.2,F*36
!AIVDO,2,1,9,A,57Paewh00001<To7;?@plD5<Tl0000000000000U1@:550qdC2TnA3QF,0*5E
!AIVDO,2,2,9,A,@00000000000002,2*5D
!AIVDM,2,1,9,A,57Paewh00001<To7;?@plD5<Tl0000000000000U1@:550qdC2TnA3QF,0*5C
!AIVDM,2,2,9,A,@00000000000002,2*5F
$IIRPM,E,1,0,10.5,A*7C
$IIRPM,E,2,0,10.5,A*7F
 
14.68217        NAV_LAT              iDivisorNMEA    -22.91063    
14.68217        NAV_LONG             iDivisorNMEA    -43.15922    
14.68217        NAV_SPEED            iDivisorNMEA    4.00000      
14.68217        NAV_HEADING          iDivisorNMEA    0.00000      
14.68217        GPS_HEADING          iDivisorNMEA    9.70000      
15.67689        MSG_UDP              iDivisorNMEA    $GPRMC,121935.787,A,2254.636468,S,04309.553047,W,4.9,9.2,190323,,,*2F
$IIVHW,9.2,T,9.2,M,4.9,N,9.1,K*50
$GPVTG,9.2,T,9.2,M,4.9,N,9.1,K*4B
$IIHDT,9.2,T*29
$GPGLL,2254.636468,S,04309.553047,W,121935.787,A*38
$GPGGA,121935.787,2254.636468,S,04309.553047,W,1,4,1.1,2.0,M,,,,*35
$GPGSA,A,3,8,11,15,22,,,,,,,,,1.7,1.1,0.8*00
$GPZDA,121935.787,19,03,2023,-04,00*72
$IIVBW,4.4,4.0,A,4.4,4.2,A,3.9,A,4.5,A*4A
!AIVDO,1,1,,A,17PaewhP0itrKdejpwA0G0C60000,0*32
!AIVDM,1,1,,A,17PaewhP0itrKdejpwA0G0C60000,0*30
$WIMWD,258.5,T,258.5,M,11.0,N,5.7,M*68
$WIMWV,275.6,R,10.3,N,A*17
$IIMTW,8.0,C*2B
$SDDPT,7.3,0.3*50
$SDDBT,23.8,f,7.3,M,4.0,F*3F
!AIVDO,2,1,9,A,57Paewh00001<To7;?@plD5<Tl0000000000000U1@:550qdC2TnA3QF,0*5E
!AIVDO,2,2,9,A,@00000000000002,2*5D
!AIVDM,2,1,9,A,57Paewh00001<To7;?@plD5<Tl0000000000000U1@:550qdC2TnA3QF,0*5C
!AIVDM,2,2,9,A,@00000000000002,2*5F
$IIRPM,E,1,0,10.5,A*7C
$IIRPM,E,2,0,10.5,A*7F
 
15.67709        NAV_LAT              iDivisorNMEA    -22.91061    
15.67709        NAV_LONG             iDivisorNMEA    -43.15922    
15.67709        NAV_SPEED            iDivisorNMEA    4.00000      
15.67709        NAV_HEADING          iDivisorNMEA    0.00000      
15.67709        GPS_HEADING          iDivisorNMEA    9.20000      
16.65919        MSG_UDP              iDivisorNMEA    $GPRMC,121936.788,A,2254.635140,S,04309.552801,W,4.9,9.7,190323,,,*21
$IIVHW,9.7,T,9.7,M,4.9,N,9.0,K*51
$GPVTG,9.7,T,9.7,M,4.9,N,9.0,K*4A
$IIHDT,9.7,T*2C
$GPGLL,2254.635140,S,04309.552801,W,121936.788,A*33
$GPGGA,121936.788,2254.635140,S,04309.552801,W,1,4,1.2,2.0,M,,,,*3D
$GPGSA,A,3,8,11,15,22,,,,,,,,,1.8,1.2,0.8*0C
$GPZDA,121936.788,19,03,2023,-04,00*7E
$IIVBW,4.7,4.1,A,4.0,4.2,A,4.2,A,3.9,A*4B
!AIVDO,1,1,,A,17PaewhP0htrKdijpwD@H0C80000,0*4B
!AIVDM,1,1,,A,17PaewhP0htrKdijpwD@H0C80000,0*49
$WIMWD,246.2,T,246.2,M,13.2,N,6.8,M*64
$WIMWV,257.6,R,11.3,N,A*16
$IIMTW,8.0,C*2B
$SDDPT,7.6,0.3*55
$SDDBT,25.0,f,7.6,M,4.2,F*36
!AIVDO,2,1,9,A,57Paewh00001<To7;?@plD5<Tl0000000000000U1@:550qdC2TnA3QF,0*5E
!AIVDO,2,2,9,A,@00000000000002,2*5D
!AIVDM,2,1,9,A,57Paewh00001<To7;?@plD5<Tl0000000000000U1@:550qdC2TnA3QF,0*5C
!AIVDM,2,2,9,A,@00000000000002,2*5F
$IIRPM,E,1,0,10.5,A*7C
$IIRPM,E,2,0,10.5,A*7F
 
16.65939        NAV_LAT              iDivisorNMEA    -22.91059    
16.65940        NAV_LONG             iDivisorNMEA    -43.15921    
16.65940        NAV_SPEED            iDivisorNMEA    4.00000      
16.65940        NAV_HEADING          iDivisorNMEA    0.00000      
16.65940        GPS_HEADING          iDivisorNMEA    9.70000      
17.65446        MSG_UDP              iDivisorNMEA    $GPRMC,121937.787,A,2254.633827,S,04309.552546,W,4.8,10.2,190323,,,*13
$IIVHW,10.2,T,10.2,M,4.8,N,8.9,K*58
$GPVTG,10.2,T,10.2,M,4.8,N,8.9,K*43
$IIHDT,10.2,T*11
$GPGLL,2254.633827,S,04309.552546,W,121937.787,A*3D
$GPGGA,121937.787,2254.633827,S,04309.552546,W,1,4,1.3,2.0,M,,,,*32
$GPGSA,A,3,8,11,15,22,,,,,,,,,2.0,1.3,0.9*07
$GPZDA,121937.787,19,03,2023,-04,00*70
$IIVBW,3.9,4.4,A,4.1,4.0,A,4.1,A,4.5,A*4C
!AIVDO,1,1,,A,17PaewhP0htrKdojpwGPI@E:0000,0*2B
!AIVDM,1,1,,A,17PaewhP0htrKdojpwGPI@E:0000,0*29
$WIMWD,234.5,T,234.5,M,11.0,N,5.7,M*68
$WIMWV,248.3,R,8.3,N,A*25
$IIMTW,8.0,C*2B
$SDDPT,7.3,0.3*50
$SDDBT,23.8,f,7.3,M,4.0,F*3F
!AIVDO,2,1,9,A,57Paewh00001<To7;?@plD5<Tl0000000000000U1@:550qdC2TnA3QF,0*5E
!AIVDO,2,2,9,A,@00000000000002,2*5D
!AIVDM,2,1,9,A,57Paewh00001<To7;?@plD5<Tl0000000000000U1@:550qdC2TnA3QF,0*5C
!AIVDM,2,2,9,A,@00000000000002,2*5F
$IIRPM,E,1,0,10.5,A*7C
$IIRPM,E,2,0,10.5,A*7F
 
17.65467        NAV_LAT              iDivisorNMEA    -22.91056    
17.65467        NAV_LONG             iDivisorNMEA    -43.15921    
17.65467        NAV_SPEED            iDivisorNMEA    4.00000      
17.65467        NAV_HEADING          iDivisorNMEA    0.00000      
17.65467        GPS_HEADING          iDivisorNMEA    10.20000     
18.63653        MSG_UDP              iDivisorNMEA    $GPRMC,121938.787,A,2254.632499,S,04309.552300,W,4.9,9.7,190323,,,*2C
$IIVHW,9.7,T,9.7,M,4.9,N,9.0,K*51
$GPVTG,9.7,T,9.7,M,4.9,N,9.0,K*4A
$IIHDT,9.7,T*2C
$GPGLL,2254.632499,S,04309.552300,W,121938.787,A*3E
$GPGGA,121938.787,2254.632499,S,04309.552300,W,1,4,1.4,2.0,M,,,,*36
$GPGSA,A,3,8,11,15,22,,,,,,,,,1.8,1.4,0.9*0B
$GPZDA,121938.787,19,03,2023,-04,00*7F
$IIVBW,3.9,4.4,A,4.7,4.8,A,4.4,A,3.9,A*4C
!AIVDO,1,1,,A,17PaewhP0htrKdsjpwK0H0C<0000,0*2A
!AIVDM,1,1,,A,17PaewhP0htrKdsjpwK0H0C<0000,0*28
$WIMWD,246.2,T,246.2,M,13.2,N,6.8,M*64
$WIMWV,257.6,R,11.3,N,A*16
$IIMTW,7.9,C*2D
$SDDPT,7.6,0.3*55
$SDDBT,25.0,f,7.6,M,4.2,F*36
!AIVDO,2,1,9,A,57Paewh00001<To7;?@plD5<Tl0000000000000U1@:550qdC2TnA3QF,0*5E
!AIVDO,2,2,9,A,@00000000000002,2*5D
!AIVDM,2,1,9,A,57Paewh00001<To7;?@plD5<Tl0000000000000U1@:550qdC2TnA3QF,0*5C
!AIVDM,2,2,9,A,@00000000000002,2*5F
$IIRPM,E,1,0,10.5,A*7C
$IIRPM,E,2,0,10.5,A*7F
 
18.63674        NAV_LAT              iDivisorNMEA    -22.91054    
18.63675        NAV_LONG             iDivisorNMEA    -43.15921    
18.63675        NAV_SPEED            iDivisorNMEA    4.00000      
18.63675        NAV_HEADING          iDivisorNMEA    0.00000      
18.63675        GPS_HEADING          iDivisorNMEA    9.70000      
19.62958        MSG_UDP              iDivisorNMEA    $GPRMC,121939.787,A,2254.631156,S,04309.552064,W,4.9,9.2,190323,,,*2C
$IIVHW,9.2,T,9.2,M,4.9,N,9.1,K*50
$GPVTG,9.2,T,9.2,M,4.9,N,9.1,K*4B
$IIHDT,9.2,T*29
$GPGLL,2254.631156,S,04309.552064,W,121939.787,A*3B
$GPGGA,121939.787,2254.631156,S,04309.552064,W,1,4,1.3,2.0,M,,,,*34
$GPGSA,A,3,8,11,15,22,,,,,,,,,1.7,1.3,1.0*0B
$GPZDA,121939.787,19,03,2023,-04,00*7E
$IIVBW,4.3,4.5,A,4.7,4.6,A,4.0,A,4.5,A*41
!AIVDO,1,1,,A,17PaewhP0itrKe1jpwN@G0C>0000,0*10
!AIVDM,1,1,,A,17PaewhP0itrKe1jpwN@G0C>0000,0*12
$WIMWD,234.5,T,234.5,M,11.0,N,5.7,M*68
$WIMWV,250.0,R,8.3,N,A*2F
$IIMTW,7.8,C*2C
$SDDPT,8.0,0.3*5C
$SDDBT,26.2,f,8.0,M,4.4,F*38
!AIVDO,2,1,9,A,57Paewh00001<To7;?@plD5<Tl0000000000000U1@:550qdC2TnA3QF,0*5E
!AIVDO,2,2,9,A,@00000000000002,2*5D
!AIVDM,2,1,9,A,57Paewh00001<To7;?@plD5<Tl0000000000000U1@:550qdC2TnA3QF,0*5C
!AIVDM,2,2,9,A,@00000000000002,2*5F
$IIRPM,E,1,0,10.5,A*7C
$IIRPM,E,2,0,10.5,A*7F
 
19.62978        NAV_LAT              iDivisorNMEA    -22.91052    
19.62978        NAV_LONG             iDivisorNMEA    -43.15920    
19.62978        NAV_SPEED            iDivisorNMEA    4.00000      
19.62978        NAV_HEADING          iDivisorNMEA    0.00000      
19.62978        GPS_HEADING          iDivisorNMEA    9.20000      
20.61484        MSG_UDP              iDivisorNMEA    $GPRMC,121940.787,A,2254.629828,S,04309.551818,W,4.9,9.7,190323,,,*2E
$IIVHW,9.7,T,9.7,M,4.9,N,9.0,K*51
$GPVTG,9.7,T,9.7,M,4.9,N,9.0,K*4A
$IIHDT,9.7,T*2C
$GPGLL,2254.629828,S,04309.551818,W,121940.787,A*3C
$GPGGA,121940.787,2254.629828,S,04309.551818,W,1,4,1.2,2.0,M,,,,*32
$GPGSA,A,3,8,11,15,22,,,,,,,,,1.8,1.2,1.1*04
$GPZDA,121940.787,19,03,2023,-04,00*70
$IIVBW,4.5,4.8,A,3.9,4.4,A,4.4,A,4.7,A*47
!AIVDO,1,1,,A,17PaewhP0htrKe5jpwQPH0C@0000,0*6B
!AIVDM,1,1,,A,17PaewhP0htrKe5jpwQPH0C@0000,0*69
$WIMWD,223.3,T,223.3,M,9.2,N,4.7,M*52
$WIMWV,241.3,R,5.8,N,A*2A
$IIMTW,7.9,C*2D
$SDDPT,7.6,0.3*55
$SDDBT,25.0,f,7.6,M,4.2,F*36
!AIVDO,2,1,9,A,57Paewh00001<To7;?@plD5<Tl0000000000000U1@:550qdC2TnA3QF,0*5E
!AIVDO,2,2,9,A,@00000000000002,2*5D
!AIVDM,2,1,9,A,57Paewh00001<To7;?@plD5<Tl0000000000000U1@:550qdC2TnA3QF,0*5C
!AIVDM,2,2,9,A,@00000000000002,2*5F
$IIRPM,E,1,0,10.5,A*7C
$IIRPM,E,2,0,10.5,A*7F
 
20.61504        NAV_LAT              iDivisorNMEA    -22.91050    
20.61504        NAV_LONG             iDivisorNMEA    -43.15920    
20.61504        NAV_SPEED            iDivisorNMEA    4.00000      
20.61504        NAV_HEADING          iDivisorNMEA    0.00000      
20.61505        GPS_HEADING          iDivisorNMEA    9.70000      
21.60953        MSG_UDP              iDivisorNMEA    $GPRMC,121941.788,A,2254.628488,S,04309.551558,W,4.9,10.2,190323,,,*13
$IIVHW,10.2,T,10.2,M,4.9,N,9.1,K*50
$GPVTG,10.2,T,10.2,M,4.9,N,9.1,K*4B
$IIHDT,10.2,T*11
$GPGLL,2254.628488,S,04309.551558,W,121941.788,A*3C
$GPGGA,121941.788,2254.628488,S,04309.551558,W,1,4,1.1,2.0,M,,,,*31
$GPGSA,A,3,8,11,15,22,,,,,,,,,1.7,1.1,1.0*09
$GPZDA,121941.788,19,03,2023,-04,00*7E
$IIVBW,4.3,4.9,A,4.0,4.8,A,4.5,A,4.0,A*44
!AIVDO,1,1,,A,17PaewhP0itrKe;jpwU0I@EB0000,0*75
!AIVDM,1,1,,A,17PaewhP0itrKe;jpwU0I@EB0000,0*77
$WIMWD,234.5,T,234.5,M,11.0,N,5.7,M*68
$WIMWV,248.9,R,8.2,N,A*2E
$IIMTW,8.0,C*2B
$SDDPT,7.3,0.3*50
$SDDBT,23.8,f,7.3,M,4.0,F*3F
!AIVDO,2,1,9,A,57Paewh00001<To7;?@plD5<Tl0000000000000U1@:550qdC2TnA3QF,0*5E
!AIVDO,2,2,9,A,@00000000000002,2*5D
!AIVDM,2,1,9,A,57Paewh00001<To7;?@plD5<Tl0000000000000U1@:550qdC2TnA3QF,0*5C
!AIVDM,2,2,9,A,@00000000000002,2*5F
$IIRPM,E,1,0,10.5,A*7C
$IIRPM,E,2,0,10.5,A*7F
 
21.60972        NAV_LAT              iDivisorNMEA    -22.91047    
21.60972        NAV_LONG             iDivisorNMEA    -43.15919    
21.60972        NAV_SPEED            iDivisorNMEA    4.00000      
21.60972        NAV_HEADING          iDivisorNMEA    0.00000      
21.60973        GPS_HEADING          iDivisorNMEA    10.20000     
22.59861        MSG_UDP              iDivisorNMEA    $GPRMC,121942.787,A,2254.627161,S,04309.551312,W,4.9,9.7,190323,,,*27
$IIVHW,9.7,T,9.7,M,4.9,N,9.0,K*51
$GPVTG,9.7,T,9.7,M,4.9,N,9.0,K*4A
$IIHDT,9.7,T*2C
$GPGLL,2254.627161,S,04309.551312,W,121942.787,A*35
$GPGGA,121942.787,2254.627161,S,04309.551312,W,1,4,1.2,2.0,M,,,,*3B
$GPGSA,A,3,8,11,15,22,,,,,,,,,1.6,1.2,0.9*03
$GPZDA,121942.787,19,03,2023,-04,00*72
$IIVBW,4.0,4.8,A,4.2,4.6,A,4.8,A,4.6,A*41
!AIVDO,1,1,,A,17PaewhP0htrKe?jpw`@H0CD0000,0*44
!AIVDM,1,1,,A,17PaewhP0htrKe?jpw`@H0CD0000,0*46
$WIMWD,223.3,T,223.3,M,9.2,N,4.7,M*52
$WIMWV,241.3,R,5.8,N,A*2A
$IIMTW,7.9,C*2D
$SDDPT,6.9,0.3*5B
$SDDBT,22.7,f,6.9,M,3.8,F*35
!AIVDO,2,1,9,A,57Paewh00001<To7;?@plD5<Tl0000000000000U1@:550qdC2TnA3QF,0*5E
!AIVDO,2,2,9,A,@00000000000002,2*5D
!AIVDM,2,1,9,A,57Paewh00001<To7;?@plD5<Tl0000000000000U1@:550qdC2TnA3QF,0*5C
!AIVDM,2,2,9,A,@00000000000002,2*5F
$IIRPM,E,1,0,10.5,A*7C
$IIRPM,E,2,0,10.5,A*7F
 
22.59883        NAV_LAT              iDivisorNMEA    -22.91045    
22.59883        NAV_LONG             iDivisorNMEA    -43.15919    
22.59883        NAV_SPEED            iDivisorNMEA    4.00000      
22.59884        NAV_HEADING          iDivisorNMEA    0.00000      
22.59884        GPS_HEADING          iDivisorNMEA    9.70000      
23.57045        MSG_UDP              iDivisorNMEA    $GPRMC,121943.052,A,2254.626805,S,04309.551250,W,4.9,9.2,190323,,,*21
$IIVHW,9.2,T,9.2,M,4.9,N,9.1,K*50
$GPVTG,9.2,T,9.2,M,4.9,N,9.1,K*4B
$IIHDT,9.2,T*29
$GPGLL,2254.626805,S,04309.551250,W,121943.052,A*36
$GPGGA,121943.052,2254.626805,S,04309.551250,W,1,4,1.1,2.0,M,,,,*3B
$GPGSA,A,3,8,11,15,22,,,,,,,,,1.7,1.1,1.0*09
$GPZDA,121943.052,19,03,2023,-04,00*7C
$IIVBW,4.4,4.9,A,4.2,4.2,A,4.7,A,4.0,A*49
!AIVDO,1,1,,A,17PaewhP0itrKeAjpwa0G0CF0000,0*47
!AIVDM,1,1,,A,17PaewhP0itrKeAjpwa0G0CF0000,0*45
$WIMWD,212.7,T,212.7,M,11.0,N,5.7,M*68
$WIMWV,220.2,R,6.8,N,A*2F
$IIMTW,8.0,C*2B
$SDDPT,7.3,0.3*50
$SDDBT,23.8,f,7.3,M,4.0,F*3F
!AIVDO,2,1,9,A,57Paewh00001<To7;?@plD5<Tl0000000000000U1@:550qdC2TnA3QF,0*5E
!AIVDO,2,2,9,A,@00000000000002,2*5D
!AIVDM,2,1,9,A,57Paewh00001<To7;?@plD5<Tl0000000000000U1@:550qdC2TnA3QF,0*5C
!AIVDM,2,2,9,A,@00000000000002,2*5F
$IIRPM,E,1,0,10.5,A*7C
$IIRPM,E,2,0,10.5,A*7F
 
23.57063        NAV_LAT              iDivisorNMEA    -22.91045    
23.57064        NAV_LONG             iDivisorNMEA    -43.15919    
23.57064        NAV_SPEED            iDivisorNMEA    4.00000      
23.57064        NAV_HEADING          iDivisorNMEA    0.00000      
23.57064        GPS_HEADING          iDivisorNMEA    9.20000      
24.56483        MSG_UDP              iDivisorNMEA    $GPRMC,121944.052,A,2254.625477,S,04309.551004,W,4.9,9.7,190323,,,*2A
$IIVHW,9.7,T,9.7,M,4.9,N,9.0,K*51
$GPVTG,9.7,T,9.7,M,4.9,N,9.0,K*4A
$IIHDT,9.7,T*2C
$GPGLL,2254.625477,S,04309.551004,W,121944.052,A*38
$GPGGA,121944.052,2254.625477,S,04309.551004,W,1,4,1.2,2.0,M,,,,*36
$GPGSA,A,3,8,11,15,22,,,,,,,,,1.6,1.2,1.1*0A
$GPZDA,121944.052,19,03,2023,-04,00*7B
$IIVBW,4.2,4.7,A,4.4,4.3,A,4.7,A,4.4,A*42
!AIVDO,1,1,,A,17PaewhP0htrKeEjpwdPH0CH0000,0*26
!AIVDM,1,1,,A,17PaewhP0htrKeEjpwdPH0CH0000,0*24
$WIMWD,202.5,T,202.5,M,9.2,N,4.7,M*52
$WIMWV,206.6,R,4.6,N,A*23
$IIMTW,7.9,C*2D
$SDDPT,7.6,0.3*55
$SDDBT,25.0,f,7.6,M,4.2,F*36
!AIVDO,2,1,9,A,57Paewh00001<To7;?@plD5<Tl0000000000000U1@:550qdC2TnA3QF,0*5E
!AIVDO,2,2,9,A,@00000000000002,2*5D
!AIVDM,2,1,9,A,57Paewh00001<To7;?@plD5<Tl0000000000000U1@:550qdC2TnA3QF,0*5C
!AIVDM,2,2,9,A,@00000000000002,2*5F
$IIRPM,E,1,0,10.5,A*7C
$IIRPM,E,2,0,10.5,A*7F
 
24.56503        NAV_LAT              iDivisorNMEA    -22.91042    
24.56503        NAV_LONG             iDivisorNMEA    -43.15918    
24.56503        NAV_SPEED            iDivisorNMEA    4.00000      
24.56503        NAV_HEADING          iDivisorNMEA    0.00000      
24.56503        GPS_HEADING          iDivisorNMEA    9.70000      
25.56323        MSG_UDP              iDivisorNMEA    $GPRMC,121945.053,A,2254.624160,S,04309.550772,W,4.8,9.2,190323,,,*2B
$IIVHW,9.2,T,9.2,M,4.8,N,8.9,K*58
$GPVTG,9.2,T,9.2,M,4.8,N,8.9,K*43
$IIHDT,9.2,T*29
$GPGLL,2254.624160,S,04309.550772,W,121945.053,A*3D
$GPGGA,121945.053,2254.624160,S,04309.550772,W,1,4,1.1,2.0,M,,,,*30
$GPGSA,A,3,8,11,15,22,,,,,,,,,1.5,1.1,1.1*0A
$GPZDA,121945.053,19,03,2023,-04,00*7B
$IIVBW,4.5,4.5,A,4.7,4.6,A,4.5,A,4.8,A*4F
!AIVDO,1,1,,A,17PaewhP0htrKeKjpwghG0CJ0000,0*1E
!AIVDM,1,1,,A,17PaewhP0htrKeKjpwghG0CJ0000,0*1C
$WIMWD,192.9,T,192.9,M,11.0,N,5.7,M*68
$WIMWV,186.5,R,6.2,N,A*2D
$IIMTW,8.0,C*2B
$SDDPT,7.3,0.3*50
$SDDBT,23.8,f,7.3,M,4.0,F*3F
!AIVDO,2,1,9,A,57Paewh00001<To7;?@plD5<Tl0000000000000U1@:550qdC2TnA3QF,0*5E
!AIVDO,2,2,9,A,@00000000000002,2*5D
!AIVDM,2,1,9,A,57Paewh00001<To7;?@plD5<Tl0000000000000U1@:550qdC2TnA3QF,0*5C
!AIVDM,2,2,9,A,@00000000000002,2*5F
$IIRPM,E,1,0,10.5,A*7C
$IIRPM,E,2,0,10.5,A*7F
 
25.56339        NAV_LAT              iDivisorNMEA    -22.91040    
25.56339        NAV_LONG             iDivisorNMEA    -43.15918    
25.56339        NAV_SPEED            iDivisorNMEA    4.00000      
25.56339        NAV_HEADING          iDivisorNMEA    0.00000      
25.56339        GPS_HEADING          iDivisorNMEA    9.20000      
26.55035        MSG_UDP              iDivisorNMEA    $GPRMC,121946.053,A,2254.622857,S,04309.550531,W,4.8,9.7,190323,,,*23
$IIVHW,9.7,T,9.7,M,4.8,N,8.8,K*59
$GPVTG,9.7,T,9.7,M,4.8,N,8.8,K*42
$IIHDT,9.7,T*2C
$GPGLL,2254.622857,S,04309.550531,W,121946.053,A*30
$GPGGA,121946.053,2254.622857,S,04309.550531,W,1,4,1.2,2.0,M,,,,*3E
$GPGSA,A,3,8,11,15,22,,,,,,,,,1.4,1.2,1.2*0B
$GPZDA,121946.053,19,03,2023,-04,00*78
$IIVBW,4.2,4.2,A,4.5,4.3,A,4.1,A,4.2,A*46
!AIVDO,1,1,,A,17PaewhP0gtrKeOjpwk0H0CL0000,0*48
!AIVDM,1,1,,A,17PaewhP0gtrKeOjpwk0H0CL0000,0*4A
$WIMWD,183.7,T,183.7,M,13.2,N,6.8,M*64
$WIMWV,170.7,R,8.5,N,A*2F
$IIMTW,7.9,C*2D
$SDDPT,6.9,0.3*5B
$SDDBT,22.7,f,6.9,M,3.8,F*35
!AIVDO,2,1,9,A,57Paewh00001<To7;?@plD5<Tl0000000000000U1@:550qdC2TnA3QF,0*5E
!AIVDO,2,2,9,A,@00000000000002,2*5D
!AIVDM,2,1,9,A,57Paewh00001<To7;?@plD5<Tl0000000000000U1@:550qdC2TnA3QF,0*5C
!AIVDM,2,2,9,A,@00000000000002,2*5F
$IIRPM,E,1,0,10.5,A*7C
$IIRPM,E,2,0,10.5,A*7F
 
26.55054        NAV_LAT              iDivisorNMEA    -22.91038    
26.55054        NAV_LONG             iDivisorNMEA    -43.15918    
26.55054        NAV_SPEED            iDivisorNMEA    4.00000      
26.55054        NAV_HEADING          iDivisorNMEA    0.00000      
26.55054        GPS_HEADING          iDivisorNMEA    9.70000      
27.54062        MSG_UDP              iDivisorNMEA    $GPRMC,121947.052,A,2254.621542,S,04309.550300,W,4.8,9.2,190323,,,*28
$IIVHW,9.2,T,9.2,M,4.8,N,8.9,K*58
$GPVTG,9.2,T,9.2,M,4.8,N,8.9,K*43
$IIHDT,9.2,T*29
$GPGLL,2254.621542,S,04309.550300,W,121947.052,A*3E
$GPGGA,121947.052,2254.621542,S,04309.550300,W,1,4,1.1,2.0,M,,,,*33
$GPGSA,A,3,8,11,15,22,,,,,,,,,1.3,1.1,1.1*0C
$GPZDA,121947.052,19,03,2023,-04,00*78
$IIVBW,4.5,4.2,A,4.6,4.2,A,4.6,A,4.6,A*40
!AIVDO,1,1,,A,17PaewhP0htrKeSjpwn@G0CN0000,0*23
!AIVDM,1,1,,A,17PaewhP0htrKeSjpwn@G0CN0000,0*21
$WIMWD,192.9,T,192.9,M,11.0,N,5.7,M*68
$WIMWV,186.5,R,6.2,N,A*2D
$IIMTW,8.0,C*2B
$SDDPT,6.6,0.3*54
$SDDBT,21.6,f,6.6,M,3.6,F*36
!AIVDO,2,1,9,A,57Paewh00001<To7;?@plD5<Tl0000000000000U1@:550qdC2TnA3QF,0*5E
!AIVDO,2,2,9,A,@00000000000002,2*5D
!AIVDM,2,1,9,A,57Paewh00001<To7;?@plD5<Tl0000000000000U1@:550qdC2TnA3QF,0*5C
!AIVDM,2,2,9,A,@00000000000002,2*5F
$IIRPM,E,1,0,10.5,A*7C
$IIRPM,E,2,0,10.5,A*7F
 
27.54083        NAV_LAT              iDivisorNMEA    -22.91036    
27.54083        NAV_LONG             iDivisorNMEA    -43.15917    
27.54083        NAV_SPEED            iDivisorNMEA    4.00000      
27.54084        NAV_HEADING          iDivisorNMEA    0.00000      
27.54084        GPS_HEADING          iDivisorNMEA    9.20000      
28.52135        MSG_UDP              iDivisorNMEA    $GPRMC,121948.053,A,2254.620211,S,04309.550077,W,4.9,8.8,190323,,,*2F
$IIVHW,8.8,T,8.8,M,4.9,N,9.0,K*51
$GPVTG,8.8,T,8.8,M,4.9,N,9.0,K*4A
$IIHDT,8.8,T*22
$GPGLL,2254.620211,S,04309.550077,W,121948.053,A*33
$GPGGA,121948.053,2254.620211,S,04309.550077,W,1,4,1.1,2.0,M,,,,*3E
$GPGSA,A,3,8,11,15,22,,,,,,,,,1.4,1.1,1.1*0B
$GPZDA,121948.053,19,03,2023,-04,00*76
$IIVBW,4.1,4.3,A,4.6,4.5,A,3.9,A,4.1,A*4D
!AIVDO,1,1,,A,17PaewhP0htrKeajpwqPEhAP0000,0*58
!AIVDM,1,1,,A,17PaewhP0htrKeajpwqPEhAP0000,0*5A
$WIMWD,202.5,T,202.5,M,13.2,N,6.8,M*64
$WIMWV,201.5,R,8.6,N,A*2B
$IIMTW,8.0,C*2B
$SDDPT,6.3,0.3*51
$SDDBT,20.6,f,6.3,M,3.4,F*30
!AIVDO,2,1,9,A,57Paewh00001<To7;?@plD5<Tl0000000000000U1@:550qdC2TnA3QF,0*5E
!AIVDO,2,2,9,A,@00000000000002,2*5D
!AIVDM,2,1,9,A,57Paewh00001<To7;?@plD5<Tl0000000000000U1@:550qdC2TnA3QF,0*5C
!AIVDM,2,2,9,A,@00000000000002,2*5F
$IIRPM,E,1,0,10.5,A*7C
$IIRPM,E,2,0,10.5,A*7F
 
28.52160        NAV_LAT              iDivisorNMEA    -22.91034    
28.52161        NAV_LONG             iDivisorNMEA    -43.15917    
28.52161        NAV_SPEED            iDivisorNMEA    4.00000      
28.52161        NAV_HEADING          iDivisorNMEA    0.00000      
28.52161        GPS_HEADING          iDivisorNMEA    8.80000      
29.52244        MSG_UDP              iDivisorNMEA    $GPRMC,121949.053,A,2254.618892,S,04309.549867,W,4.8,8.4,190323,,,*28
$IIVHW,8.4,T,8.4,M,4.8,N,8.9,K*58
$GPVTG,8.4,T,8.4,M,4.8,N,8.9,K*43
$IIHDT,8.4,T*2E
$GPGLL,2254.618892,S,04309.549867,W,121949.053,A*39
$GPGGA,121949.053,2254.618892,S,04309.549867,W,1,4,1.1,2.0,M,,,,*34
$GPGSA,A,3,8,11,15,22,,,,,,,,,1.3,1.1,1.0*0D
$GPZDA,121949.053,19,03,2023,-04,00*77
$IIVBW,4.6,4.6,A,3.9,3.9,A,4.3,A,4.3,A*43
!AIVDO,1,1,,A,17PaewhP0htrKeejpwu0DhAR0000,0*3B
!AIVDM,1,1,,A,17PaewhP0htrKeejpwu0DhAR0000,0*39
$WIMWD,192.9,T,192.9,M,15.8,N,8.1,M*6F
$WIMWV,186.5,R,11.1,N,A*18
$IIMTW,8.1,C*2A
$SDDPT,6.0,0.3*52
$SDDBT,19.6,f,6.0,M,3.3,F*3E
!AIVDO,2,1,9,A,57Paewh00001<To7;?@plD5<Tl0000000000000U1@:550qdC2TnA3QF,0*5E
!AIVDO,2,2,9,A,@00000000000002,2*5D
!AIVDM,2,1,9,A,57Paewh00001<To7;?@plD5<Tl0000000000000U1@:550qdC2TnA3QF,0*5C
!AIVDM,2,2,9,A,@00000000000002,2*5F
$IIRPM,E,1,0,10.5,A*7C
$IIRPM,E,2,0,10.5,A*7F
 
29.52272        NAV_LAT              iDivisorNMEA    -22.91031    
29.52273        NAV_LONG             iDivisorNMEA    -43.15916    
29.52273        NAV_SPEED            iDivisorNMEA    4.00000      
29.52273        NAV_HEADING          iDivisorNMEA    0.00000      
29.52273        GPS_HEADING          iDivisorNMEA    8.40000      
30.49926        MSG_UDP              iDivisorNMEA    $GPRMC,121950.053,A,2254.617583,S,04309.549668,W,4.8,8.0,190323,,,*27
$IIVHW,8.0,T,8.0,M,4.8,N,8.8,K*59
$GPVTG,8.0,T,8.0,M,4.8,N,8.8,K*42
$IIHDT,8.0,T*2A
$GPGLL,2254.617583,S,04309.549668,W,121950.053,A*32
$GPGGA,121950.053,2254.617583,S,04309.549668,W,1,4,1.2,2.0,M,,,,*3C
$GPGSA,A,3,8,11,15,22,,,,,,,,,1.2,1.2,0.9*07
$GPZDA,121950.053,19,03,2023,-04,00*7F
$IIVBW,3.8,4.4,A,3.8,4.3,A,4.0,A,3.9,A*4A
!AIVDO,1,1,,A,17PaewhP0gtrKeijq00@Ch?T0000,0*34
!AIVDM,1,1,,A,17PaewhP0gtrKeijq00@Ch?T0000,0*36
$WIMWD,183.7,T,183.7,M,13.2,N,6.8,M*64
$WIMWV,173.4,R,8.5,N,A*2F
$IIMTW,8.0,C*2B
$SDDPT,6.3,0.3*51
$SDDBT,20.6,f,6.3,M,3.4,F*30
!AIVDO,2,1,9,A,57Paewh00001<To7;?@plD5<Tl0000000000000U1@:550qdC2TnA3QF,0*5E
!AIVDO,2,2,9,A,@00000000000002,2*5D
!AIVDM,2,1,9,A,57Paewh00001<To7;?@plD5<Tl0000000000000U1@:550qdC2TnA3QF,0*5C
!AIVDM,2,2,9,A,@00000000000002,2*5F
$IIRPM,E,1,0,10.5,A*7C
$IIRPM,E,2,0,10.5,A*7F
 
30.49949        NAV_LAT              iDivisorNMEA    -22.91029    
30.49949        NAV_LONG             iDivisorNMEA    -43.15916    
30.49949        NAV_SPEED            iDivisorNMEA    4.00000      
30.49949        NAV_HEADING          iDivisorNMEA    0.00000      
30.49949        GPS_HEADING          iDivisorNMEA    8.00000      
31.47091        MSG_UDP              iDivisorNMEA    $GPRMC,121951.052,A,2254.616291,S,04309.549462,W,4.7,8.4,190323,,,*21
$IIVHW,8.4,T,8.4,M,4.7,N,8.7,K*59
$GPVTG,8.4,T,8.4,M,4.7,N,8.7,K*42
$IIHDT,8.4,T*2E
$GPGLL,2254.616291,S,04309.549462,W,121951.052,A*3F
$GPGGA,121951.052,2254.616291,S,04309.549462,W,1,4,1.3,2.0,M,,,,*30
$GPGSA,A,3,8,11,15,22,,,,,,,,,1.1,1.3,1.0*0D
$GPZDA,121951.052,19,03,2023,-04,00*7F
$IIVBW,4.7,4.7,A,4.1,3.8,A,3.8,A,4.7,A*45
!AIVDO,1,1,,A,17PaewhP0gtrKemjq03PDhAV0000,0*58
!AIVDM,1,1,,A,17PaewhP0gtrKemjq03PDhAV0000,0*5A
$WIMWD,192.9,T,192.9,M,11.0,N,5.7,M*68
$WIMWV,187.9,R,6.3,N,A*21
$IIMTW,8.0,C*2B
$SDDPT,6.0,0.3*52
$SDDBT,19.6,f,6.0,M,3.3,F*3E
!AIVDO,2,1,9,A,57Paewh00001<To7;?@plD5<Tl0000000000000U1@:550qdC2TnA3QF,0*5E
!AIVDO,2,2,9,A,@00000000000002,2*5D
!AIVDM,2,1,9,A,57Paewh00001<To7;?@plD5<Tl0000000000000U1@:550qdC2TnA3QF,0*5C
!AIVDM,2,2,9,A,@00000000000002,2*5F
$IIRPM,E,1,0,10.5,A*7C
$IIRPM,E,2,0,10.5,A*7F
 
31.47114        NAV_LAT              iDivisorNMEA    -22.91027    
31.47115        NAV_LONG             iDivisorNMEA    -43.15916    
31.47115        NAV_SPEED            iDivisorNMEA    4.00000      
31.47115        NAV_HEADING          iDivisorNMEA    0.00000      
31.47115        GPS_HEADING          iDivisorNMEA    8.40000      
32.47703        MSG_UDP              iDivisorNMEA    $GPRMC,121952.053,A,2254.615009,S,04309.549267,W,4.7,8.0,190323,,,*24
$IIVHW,8.0,T,8.0,M,4.7,N,8.6,K*58
$GPVTG,8.0,T,8.0,M,4.7,N,8.6,K*43
$IIHDT,8.0,T*2A
$GPGLL,2254.615009,S,04309.549267,W,121952.053,A*3E
$GPGGA,121952.053,2254.615009,S,04309.549267,W,1,4,1.4,2.0,M,,,,*36
$GPGSA,A,3,8,11,15,22,,,,,,,,,1.1,1.4,0.9*02
$GPZDA,121952.053,19,03,2023,-04,00*7D
$IIVBW,4.2,4.0,A,4.3,4.0,A,4.6,A,3.7,A*44
!AIVDO,1,1,,A,17PaewhP0ftrKeqjq06PCh?`0000,0*0F
!AIVDM,1,1,,A,17PaewhP0ftrKeqjq06PCh?`0000,0*0D
$WIMWD,202.5,T,202.5,M,9.2,N,4.7,M*52
$WIMWV,208.8,R,4.8,N,A*2D
$IIMTW,8.0,C*2B
$SDDPT,6.3,0.3*51
$SDDBT,20.6,f,6.3,M,3.4,F*30
!AIVDO,2,1,9,A,57Paewh00001<To7;?@plD5<Tl0000000000000U1@:550qdC2TnA3QF,0*5E
!AIVDO,2,2,9,A,@00000000000002,2*5D
!AIVDM,2,1,9,A,57Paewh00001<To7;?@plD5<Tl0000000000000U1@:550qdC2TnA3QF,0*5C
!AIVDM,2,2,9,A,@00000000000002,2*5F
$IIRPM,E,1,0,10.5,A*7C
$IIRPM,E,2,0,10.5,A*7F
 
32.47721        NAV_LAT              iDivisorNMEA    -22.91025    
32.47722        NAV_LONG             iDivisorNMEA    -43.15915    
32.47722        NAV_SPEED            iDivisorNMEA    4.00000      
32.47722        NAV_HEADING          iDivisorNMEA    0.00000      
32.47722        GPS_HEADING          iDivisorNMEA    8.00000      
33.47508        MSG_UDP              iDivisorNMEA    $GPRMC,121953.053,A,2254.613737,S,04309.549084,W,4.6,7.6,190323,,,*2E
$IIVHW,7.6,T,7.6,M,4.6,N,8.6,K*59
$GPVTG,7.6,T,7.6,M,4.6,N,8.6,K*42
$IIHDT,7.6,T*23
$GPGLL,2254.613737,S,04309.549084,W,121953.053,A*3C
$GPGGA,121953.053,2254.613737,S,04309.549084,W,1,4,1.5,2.0,M,,,,*35
$GPGSA,A,3,8,11,15,22,,,,,,,,,1.0,1.5,1.0*0A
$GPZDA,121953.053,19,03,2023,-04,00*7C
$IIVBW,4.2,4.1,A,4.1,4.5,A,3.6,A,4.1,A*44
!AIVDO,1,1,,A,17PaewhP0ftrKeujq09hBh?b0000,0*3F
!AIVDM,1,1,,A,17PaewhP0ftrKeujq09hBh?b0000,0*3D
$WIMWD,212.7,T,212.7,M,11.0,N,5.7,M*68
$WIMWV,221.1,R,7.1,N,A*25
$IIMTW,8.1,C*2A
$SDDPT,6.0,0.3*52
$SDDBT,19.6,f,6.0,M,3.3,F*3E
!AIVDO,2,1,9,A,57Paewh00001<To7;?@plD5<Tl0000000000000U1@:550qdC2TnA3QF,0*5E
!AIVDO,2,2,9,A,@00000000000002,2*5D
!AIVDM,2,1,9,A,57Paewh00001<To7;?@plD5<Tl0000000000000U1@:550qdC2TnA3QF,0*5C
!AIVDM,2,2,9,A,@00000000000002,2*5F
$IIRPM,E,1,0,10.5,A*7C
$IIRPM,E,2,0,10.5,A*7F
 
33.47530        NAV_LAT              iDivisorNMEA    -22.91023    
33.47530        NAV_LONG             iDivisorNMEA    -43.15915    
33.47531        NAV_SPEED            iDivisorNMEA    4.00000      
33.47531        NAV_HEADING          iDivisorNMEA    0.00000      
33.47531        GPS_HEADING          iDivisorNMEA    7.60000      
34.45159        MSG_UDP              iDivisorNMEA    $GPRMC,121954.052,A,2254.612454,S,04309.548907,W,4.7,7.2,190323,,,*29
$IIVHW,7.2,T,7.2,M,4.7,N,8.6,K*58
$GPVTG,7.2,T,7.2,M,4.7,N,8.6,K*43
$IIHDT,7.2,T*27
$GPGLL,2254.612454,S,04309.548907,W,121954.052,A*3E
$GPGGA,121954.052,2254.612454,S,04309.548907,W,1,4,1.6,2.0,M,,,,*34
$GPGSA,A,3,8,11,15,22,,,,,,,,,1.1,1.6,1.1*09
$GPZDA,121954.052,19,03,2023,-04,00*7A
$IIVBW,3.9,4.3,A,4.4,4.4,A,4.6,A,4.4,A*4C
!AIVDO,1,1,,A,17PaewhP0ftrKewjq0=0B0?d0000,0*3F
!AIVDM,1,1,,A,17PaewhP0ftrKewjq0=0B0?d0000,0*3D
$WIMWD,202.5,T,202.5,M,13.2,N,6.8,M*64
$WIMWV,203.4,R,8.8,N,A*26
$IIMTW,8.0,C*2B
$SDDPT,5.7,0.3*56
$SDDBT,18.7,f,5.7,M,3.1,F*38
!AIVDO,2,1,9,A,57Paewh00001<To7;?@plD5<Tl0000000000000U1@:550qdC2TnA3QF,0*5E
!AIVDO,2,2,9,A,@00000000000002,2*5D
!AIVDM,2,1,9,A,57Paewh00001<To7;?@plD5<Tl0000000000000U1@:550qdC2TnA3QF,0*5C
!AIVDM,2,2,9,A,@00000000000002,2*5F
$IIRPM,E,1,0,10.5,A*7C
$IIRPM,E,2,0,10.5,A*7F
 
34.45182        NAV_LAT              iDivisorNMEA    -22.91021    
34.45182        NAV_LONG             iDivisorNMEA    -43.15915    
34.45182        NAV_SPEED            iDivisorNMEA    4.00000      
34.45182        NAV_HEADING          iDivisorNMEA    0.00000      
34.45182        GPS_HEADING          iDivisorNMEA    7.20000      
35.45297        MSG_UDP              iDivisorNMEA    $GPRMC,121955.053,A,2254.611182,S,04309.548724,W,4.6,7.6,190323,,,*2E
$IIVHW,7.6,T,7.6,M,4.6,N,8.6,K*59
$GPVTG,7.6,T,7.6,M,4.6,N,8.6,K*42
$IIHDT,7.6,T*23
$GPGLL,2254.611182,S,04309.548724,W,121955.053,A*3C
$GPGGA,121955.053,2254.611182,S,04309.548724,W,1,4,1.5,2.0,M,,,,*35
$GPGSA,A,3,8,11,15,22,,,,,,,,,1.1,1.5,1.1*0A
$GPZDA,121955.053,19,03,2023,-04,00*7A
$IIVBW,4.5,4.4,A,3.7,3.8,A,3.7,A,4.6,A*4B
!AIVDO,1,1,,A,17PaewhP0ftrKf3jq0@@Bh?f0000,0*2F
!AIVDM,1,1,,A,17PaewhP0ftrKf3jq0@@Bh?f0000,0*2D
$WIMWD,212.7,T,212.7,M,11.0,N,5.7,M*68
$WIMWV,221.1,R,7.1,N,A*25
$IIMTW,8.1,C*2A
$SDDPT,6.0,0.3*52
$SDDBT,19.6,f,6.0,M,3.3,F*3E
!AIVDO,2,1,9,A,57Paewh00001<To7;?@plD5<Tl0000000000000U1@:550qdC2TnA3QF,0*5E
!AIVDO,2,2,9,A,@00000000000002,2*5D
!AIVDM,2,1,9,A,57Paewh00001<To7;?@plD5<Tl0000000000000U1@:550qdC2TnA3QF,0*5C
!AIVDM,2,2,9,A,@00000000000002,2*5F
$IIRPM,E,1,0,10.5,A*7C
$IIRPM,E,2,0,10.5,A*7F
 
35.45315        NAV_LAT              iDivisorNMEA    -22.91019    
35.45316        NAV_LONG             iDivisorNMEA    -43.15915    
35.45316        NAV_SPEED            iDivisorNMEA    4.00000      
35.45316        NAV_HEADING          iDivisorNMEA    0.00000      
35.45316        GPS_HEADING          iDivisorNMEA    7.60000      
36.41686        MSG_UDP              iDivisorNMEA    $GPRMC,121956.053,A,2254.609925,S,04309.548533,W,4.6,8.0,190323,,,*2C
$IIVHW,8.0,T,8.0,M,4.6,N,8.5,K*5A
$GPVTG,8.0,T,8.0,M,4.6,N,8.5,K*41
$IIHDT,8.0,T*2A
$GPGLL,2254.609925,S,04309.548533,W,121956.053,A*37
$GPGGA,121956.053,2254.609925,S,04309.548533,W,1,4,1.4,2.0,M,,,,*3F
$GPGSA,A,3,8,11,15,22,,,,,,,,,1.1,1.4,1.1*0B
$GPZDA,121956.053,19,03,2023,-04,00*79
$IIVBW,3.7,4.4,A,4.2,4.5,A,3.6,A,4.1,A*40
!AIVDO,1,1,,A,17PaewhP0etrKf7jq0C@Ch?h0000,0*24
!AIVDM,1,1,,A,17PaewhP0etrKf7jq0C@Ch?h0000,0*26
$WIMWD,202.5,T,202.5,M,9.2,N,4.7,M*52
$WIMWV,208.2,R,4.9,N,A*26
$IIMTW,8.0,C*2B
$SDDPT,6.3,0.3*51
$SDDBT,20.6,f,6.3,M,3.4,F*30
!AIVDO,2,1,9,A,57Paewh00001<To7;?@plD5<Tl0000000000000U1@:550qdC2TnA3QF,0*5E
!AIVDO,2,2,9,A,@00000000000002,2*5D
!AIVDM,2,1,9,A,57Paewh00001<To7;?@plD5<Tl0000000000000U1@:550qdC2TnA3QF,0*5C
!AIVDM,2,2,9,A,@00000000000002,2*5F
$IIRPM,E,1,0,10.5,A*7C
$IIRPM,E,2,0,10.5,A*7F
 
36.41705        NAV_LAT              iDivisorNMEA    -22.91017    
36.41706        NAV_LONG             iDivisorNMEA    -43.15914    
36.41706        NAV_SPEED            iDivisorNMEA    4.00000      
36.41706        NAV_HEADING          iDivisorNMEA    0.00000      
36.41706        GPS_HEADING          iDivisorNMEA    8.00000      
37.42857        MSG_UDP              iDivisorNMEA    $GPRMC,121957.052,A,2254.608681,S,04309.548353,W,4.5,7.6,190323,,,*26
$IIVHW,7.6,T,7.6,M,4.5,N,8.4,K*58
$GPVTG,7.6,T,7.6,M,4.5,N,8.4,K*43
$IIHDT,7.6,T*23
$GPGLL,2254.608681,S,04309.548353,W,121957.052,A*37
$GPGGA,121957.052,2254.608681,S,04309.548353,W,1,4,1.5,2.0,M,,,,*3E
$GPGSA,A,3,8,11,15,22,,,,,,,,,1.0,1.5,1.0*0A
$GPZDA,121957.052,19,03,2023,-04,00*79
$IIVBW,4.2,4.3,A,3.9,3.6,A,3.6,A,4.2,A*4E
!AIVDO,1,1,,A,17PaewhP0etrKf;jq0FPBh?j0000,0*3E
!AIVDM,1,1,,A,17PaewhP0etrKf;jq0FPBh?j0000,0*3C
$WIMWD,212.7,T,212.7,M,11.0,N,5.7,M*68
$WIMWV,220.6,R,7.2,N,A*20
$IIMTW,8.1,C*2A
$SDDPT,6.0,0.3*52
$SDDBT,19.6,f,6.0,M,3.3,F*3E
!AIVDO,2,1,9,A,57Paewh00001<To7;?@plD5<Tl0000000000000U1@:550qdC2TnA3QF,0*5E
!AIVDO,2,2,9,A,@00000000000002,2*5D
!AIVDM,2,1,9,A,57Paewh00001<To7;?@plD5<Tl0000000000000U1@:550qdC2TnA3QF,0*5C
!AIVDM,2,2,9,A,@00000000000002,2*5F
$IIRPM,E,1,0,10.5,A*7C
$IIRPM,E,2,0,10.5,A*7F
 
37.42878        NAV_LAT              iDivisorNMEA    -22.91014    
37.42879        NAV_LONG             iDivisorNMEA    -43.15914    
37.42879        NAV_SPEED            iDivisorNMEA    4.00000      
37.42879        NAV_HEADING          iDivisorNMEA    0.00000      
37.42879        GPS_HEADING          iDivisorNMEA    7.60000      
38.39785        MSG_UDP              iDivisorNMEA    $GPRMC,121958.053,A,2254.607445,S,04309.548184,W,4.5,7.2,190323,,,*21
$IIVHW,7.2,T,7.2,M,4.5,N,8.3,K*5F
$GPVTG,7.2,T,7.2,M,4.5,N,8.3,K*44
$IIHDT,7.2,T*27
$GPGLL,2254.607445,S,04309.548184,W,121958.053,A*34
$GPGGA,121958.053,2254.607445,S,04309.548184,W,1,4,1.6,2.0,M,,,,*3E
$GPGSA,A,3,8,11,15,22,,,,,,,,,1.1,1.6,1.1*09
$GPZDA,121958.053,19,03,2023,-04,00*77
$IIVBW,4.3,4.4,A,4.0,4.0,A,4.1,A,3.5,A*47
!AIVDO,1,1,,A,17PaewhP0dtrKf?jq0IPB0?l0000,0*6A
!AIVDM,1,1,,A,17PaewhP0dtrKf?jq0IPB0?l0000,0*68
$WIMWD,223.3,T,223.3,M,9.2,N,4.7,M*52
$WIMWV,241.5,R,6.1,N,A*26
$IIMTW,8.2,C*29
$SDDPT,5.7,0.3*56
$SDDBT,18.7,f,5.7,M,3.1,F*38
!AIVDO,2,1,9,A,57Paewh00001<To7;?@plD5<Tl0000000000000U1@:550qdC2TnA3QF,0*5E
!AIVDO,2,2,9,A,@00000000000002,2*5D
!AIVDM,2,1,9,A,57Paewh00001<To7;?@plD5<Tl0000000000000U1@:550qdC2TnA3QF,0*5C
!AIVDM,2,2,9,A,@00000000000002,2*5F
$IIRPM,E,1,0,10.5,A*7C
$IIRPM,E,2,0,10.5,A*7F
 
38.39804        NAV_LAT              iDivisorNMEA    -22.91012    
38.39804        NAV_LONG             iDivisorNMEA    -43.15914    
38.39805        NAV_SPEED            iDivisorNMEA    4.00000      
38.39805        NAV_HEADING          iDivisorNMEA    0.00000      
38.39805        GPS_HEADING          iDivisorNMEA    7.20000      
39.41130        MSG_UDP              iDivisorNMEA    $GPRMC,121959.053,A,2254.606226,S,04309.548008,W,4.4,7.6,190323,,,*22
$IIVHW,7.6,T,7.6,M,4.4,N,8.2,K*5F
$GPVTG,7.6,T,7.6,M,4.4,N,8.2,K*44
$IIHDT,7.6,T*23
$GPGLL,2254.606226,S,04309.548008,W,121959.053,A*32
$GPGGA,121959.053,2254.606226,S,04309.548008,W,1,4,1.5,2.0,M,,,,*3B
$GPGSA,A,3,8,11,15,22,,,,,,,,,1.0,1.5,1.0*0A
$GPZDA,121959.053,19,03,2023,-04,00*76
$IIVBW,3.6,4.1,A,4.1,3.7,A,4.3,A,3.5,A*43
!AIVDO,1,1,,A,17PaewhP0dtrKfAjq0LPBh?n0000,0*4B
!AIVDM,1,1,,A,17PaewhP0dtrKfAjq0LPBh?n0000,0*49
$WIMWD,212.7,T,212.7,M,11.0,N,5.7,M*68
$WIMWV,220.2,R,7.2,N,A*24
$IIMTW,8.1,C*2A
$SDDPT,5.4,0.3*55
$SDDBT,17.8,f,5.4,M,3.0,F*3A
!AIVDO,2,1,9,A,57Paewh00001<To7;?@plD5<Tl0000000000000U1@:550qdC2TnA3QF,0*5E
!AIVDO,2,2,9,A,@00000000000002,2*5D
!AIVDM,2,1,9,A,57Paewh00001<To7;?@plD5<Tl0000000000000U1@:550qdC2TnA3QF,0*5C
!AIVDM,2,2,9,A,@00000000000002,2*5F
$IIRPM,E,1,0,10.5,A*7C
$IIRPM,E,2,0,10.5,A*7F
 
39.41154        NAV_LAT              iDivisorNMEA    -22.91010    
39.41154        NAV_LONG             iDivisorNMEA    -43.15913    
39.41154        NAV_SPEED            iDivisorNMEA    4.00000      
39.41154        NAV_HEADING          iDivisorNMEA    0.00000      
39.41154        GPS_HEADING          iDivisorNMEA    7.60000      
40.40683        MSG_UDP              iDivisorNMEA    $GPRMC,122000.053,A,2254.604992,S,04309.547838,W,4.5,7.2,190323,,,*23
$IIVHW,7.2,T,7.2,M,4.5,N,8.3,K*5F
$GPVTG,7.2,T,7.2,M,4.5,N,8.3,K*44
$IIHDT,7.2,T*27
$GPGLL,2254.604992,S,04309.547838,W,122000.053,A*36
$GPGGA,122000.053,2254.604992,S,04309.547838,W,1,4,1.4,2.0,M,,,,*3E
$GPGSA,A,3,8,11,15,22,,,,,,,,,1.1,1.4,0.9*02
$GPZDA,122000.053,19,03,2023,-04,00*70
$IIVBW,4.0,4.0,A,4.0,3.7,A,4.1,A,3.9,A*4C
!AIVDO,1,1,,A,17PaewhP0dtrKfEjq0OhB0>00000,0*73
!AIVDM,1,1,,A,17PaewhP0dtrKfEjq0OhB0>00000,0*71
$WIMWD,223.3,T,223.3,M,9.2,N,4.7,M*52
$WIMWV,241.5,R,6.1,N,A*26
$IIMTW,8.0,C*2B
$SDDPT,5.2,0.3*53
$SDDBT,16.9,f,5.2,M,2.8,F*35
!AIVDO,2,1,9,A,57Paewh00001<To7;?@plD5<Tl0000000000000U1@:550qdD2TnA3QF,0*59
!AIVDO,2,2,9,A,@00000000000002,2*5D
!AIVDM,2,1,9,A,57Paewh00001<To7;?@plD5<Tl0000000000000U1@:550qdD2TnA3QF,0*5B
!AIVDM,2,2,9,A,@00000000000002,2*5F
$IIRPM,E,1,0,10.5,A*7C
$IIRPM,E,2,0,10.5,A*7F
 
40.40701        NAV_LAT              iDivisorNMEA    -22.91008    
40.40702        NAV_LONG             iDivisorNMEA    -43.15913    
40.40702        NAV_SPEED            iDivisorNMEA    4.00000      
40.40702        NAV_HEADING          iDivisorNMEA    0.00000      
40.40702        GPS_HEADING          iDivisorNMEA    7.20000      
41.36126        MSG_UDP              iDivisorNMEA    $GPRMC,122001.053,A,2254.603743,S,04309.547675,W,4.5,6.9,190323,,,*2A
$IIVHW,6.9,T,6.9,M,4.5,N,8.4,K*58
$GPVTG,6.9,T,6.9,M,4.5,N,8.4,K*43
$IIHDT,6.9,T*2D
$GPGLL,2254.603743,S,04309.547675,W,122001.053,A*35
$GPGGA,122001.053,2254.603743,S,04309.547675,W,1,4,1.3,2.0,M,,,,*3A
$GPGSA,A,3,8,11,15,22,,,,,,,,,1.1,1.3,0.9*05
$GPZDA,122001.053,19,03,2023,-04,00*71
$IIVBW,4.1,4.1,A,3.8,4.0,A,3.7,A,3.8,A*43
!AIVDO,1,1,,A,17PaewhP0etrKfIjq0RhA0<20000,0*60
!AIVDM,1,1,,A,17PaewhP0etrKfIjq0RhA0<20000,0*62
$WIMWD,234.5,T,234.5,M,7.6,N,3.9,M*51
$WIMWV,263.7,R,5.7,N,A*21
$IIMTW,8.1,C*2A
$SDDPT,4.9,0.3*59
$SDDBT,16.1,f,4.9,M,2.7,F*38
!AIVDO,2,1,9,A,57Paewh00001<To7;?@plD5<Tl0000000000000U1@:550qdD2TnA3QF,0*59
!AIVDO,2,2,9,A,@00000000000002,2*5D
!AIVDM,2,1,9,A,57Paewh00001<To7;?@plD5<Tl0000000000000U1@:550qdD2TnA3QF,0*5B
!AIVDM,2,2,9,A,@00000000000002,2*5F
$IIRPM,E,1,0,10.5,A*7C
$IIRPM,E,2,0,10.5,A*7F
 
41.36146        NAV_LAT              iDivisorNMEA    -22.91006    
41.36146        NAV_LONG             iDivisorNMEA    -43.15913    
41.36147        NAV_SPEED            iDivisorNMEA    4.00000      
41.36147        NAV_HEADING          iDivisorNMEA    0.00000      
41.36147        GPS_HEADING          iDivisorNMEA    6.90000      
42.37856        MSG_UDP              iDivisorNMEA    $GPRMC,122002.053,A,2254.602482,S,04309.547517,W,4.6,6.5,190323,,,*2E
$IIVHW,6.5,T,6.5,M,4.6,N,8.5,K*5A
$GPVTG,6.5,T,6.5,M,4.6,N,8.5,K*41
$IIHDT,6.5,T*21
$GPGLL,2254.602482,S,04309.547517,W,122002.053,A*3E
$GPGGA,122002.053,2254.602482,S,04309.547517,W,1,4,1.2,2.0,M,,,,*30
$GPGSA,A,3,8,11,15,22,,,,,,,,,1.2,1.2,0.9*07
$GPZDA,122002.053,19,03,2023,-04,00*72
$IIVBW,3.8,4.2,A,4.3,4.3,A,4.5,A,3.9,A*45
!AIVDO,1,1,,A,17PaewhP0etrKfKjq0V0@@<40000,0*49
!AIVDM,1,1,,A,17PaewhP0etrKfKjq0V0@@<40000,0*4B
$WIMWD,246.2,T,246.2,M,6.4,N,3.3,M*58
$WIMWV,283.9,R,5.7,N,A*21
$IIMTW,8.0,C*2B
$SDDPT,4.7,0.3*57
$SDDBT,15.3,f,4.7,M,2.6,F*36
!AIVDO,2,1,9,A,57Paewh00001<To7;?@plD5<Tl0000000000000U1@:550qdD2TnA3QF,0*59
!AIVDO,2,2,9,A,@00000000000002,2*5D
!AIVDM,2,1,9,A,57Paewh00001<To7;?@plD5<Tl0000000000000U1@:550qdD2TnA3QF,0*5B
!AIVDM,2,2,9,A,@00000000000002,2*5F
$IIRPM,E,1,0,10.5,A*7C
$IIRPM,E,2,0,10.5,A*7F
 
42.37874        NAV_LAT              iDivisorNMEA    -22.91004    
42.37874        NAV_LONG             iDivisorNMEA    -43.15913    
42.37874        NAV_SPEED            iDivisorNMEA    4.00000      
42.37874        NAV_HEADING          iDivisorNMEA    0.00000      
42.37875        GPS_HEADING          iDivisorNMEA    6.50000      
43.36113        MSG_UDP              iDivisorNMEA    $GPRMC,122003.053,A,2254.601209,S,04309.547351,W,4.6,6.9,190323,,,*21
$IIVHW,6.9,T,6.9,M,4.6,N,8.6,K*59
$GPVTG,6.9,T,6.9,M,4.6,N,8.6,K*42
$IIHDT,6.9,T*2D
$GPGLL,2254.601209,S,04309.547351,W,122003.053,A*3D
$GPGGA,122003.053,2254.601209,S,04309.547351,W,1,4,1.3,2.0,M,,,,*32
$GPGSA,A,3,8,11,15,22,,,,,,,,,1.3,1.3,0.9*07
$GPZDA,122003.053,19,03,2023,-04,00*73
$IIVBW,3.9,3.8,A,3.9,4.3,A,3.7,A,4.3,A*4C
!AIVDO,1,1,,A,17PaewhP0ftrKfOjq0a0A0<60000,0*0A
!AIVDM,1,1,,A,17PaewhP0ftrKfOjq0a0A0<60000,0*08
$WIMWD,258.5,T,258.5,M,7.6,N,3.9,M*51
$WIMWV,287.0,R,7.6,N,A*2F
$IIMTW,8.1,C*2A
$SDDPT,4.5,0.3*55
$SDDBT,14.6,f,4.5,M,2.4,F*32
!AIVDO,2,1,9,A,57Paewh00001<To7;?@plD5<Tl0000000000000U1@:550qdD2TnA3QF,0*59
!AIVDO,2,2,9,A,@00000000000002,2*5D
!AIVDM,2,1,9,A,57Paewh00001<To7;?@plD5<Tl0000000000000U1@:550qdD2TnA3QF,0*5B
!AIVDM,2,2,9,A,@00000000000002,2*5F
$IIRPM,E,1,0,10.5,A*7C
$IIRPM,E,2,0,10.5,A*7F
 
43.36136        NAV_LAT              iDivisorNMEA    -22.91002    
43.36136        NAV_LONG             iDivisorNMEA    -43.15912    
43.36137        NAV_SPEED            iDivisorNMEA    4.00000      
43.36137        NAV_HEADING          iDivisorNMEA    0.00000      
43.36137        GPS_HEADING          iDivisorNMEA    6.90000      
44.33476        MSG_UDP              iDivisorNMEA    $GPRMC,122004.053,A,2254.599925,S,04309.547191,W,4.7,6.5,190323,,,*22
$IIVHW,6.5,T,6.5,M,4.7,N,8.6,K*58
$GPVTG,6.5,T,6.5,M,4.7,N,8.6,K*43
$IIHDT,6.5,T*21
$GPGLL,2254.599925,S,04309.547191,W,122004.053,A*33
$GPGGA,122004.053,2254.599925,S,04309.547191,W,1,4,1.2,2.0,M,,,,*3D
$GPGSA,A,3,8,11,15,22,,,,,,,,,1.2,1.2,0.8*06
$GPZDA,122004.053,19,03,2023,-04,00*74
$IIVBW,3.8,3.8,A,4.1,4.1,A,3.9,A,4.6,A*4B
!AIVDO,1,1,,A,17PaewhP0ftrKfSjq0d@@@<80000,0*1C
!AIVDM,1,1,,A,17PaewhP0ftrKfSjq0d@@@<80000,0*1E
$WIMWD,246.2,T,246.2,M,6.4,N,3.3,M*58
$WIMWV,284.8,R,5.7,N,A*27
$IIMTW,8.0,C*2B
$SDDPT,4.7,0.3*57
$SDDBT,15.3,f,4.7,M,2.6,F*36
!AIVDO,2,1,9,A,57Paewh00001<To7;?@plD5<Tl0000000000000U1@:550qdD2TnA3QF,0*59
!AIVDO,2,2,9,A,@00000000000002,2*5D
!AIVDM,2,1,9,A,57Paewh00001<To7;?@plD5<Tl0000000000000U1@:550qdD2TnA3QF,0*5B
!AIVDM,2,2,9,A,@00000000000002,2*5F
$IIRPM,E,1,0,10.5,A*7C
$IIRPM,E,2,0,10.5,A*7F
 
44.33496        NAV_LAT              iDivisorNMEA    -22.91000    
44.33497        NAV_LONG             iDivisorNMEA    -43.15912    
44.33497        NAV_SPEED            iDivisorNMEA    4.00000      
44.33497        NAV_HEADING          iDivisorNMEA    0.00000      
44.33497        GPS_HEADING          iDivisorNMEA    6.50000      
45.33571        MSG_UDP              iDivisorNMEA    $GPRMC,122005.058,A,2254.598619,S,04309.547020,W,4.7,6.9,190323,,,*2E
$IIVHW,6.9,T,6.9,M,4.7,N,8.7,K*59
$GPVTG,6.9,T,6.9,M,4.7,N,8.7,K*42
$IIHDT,6.9,T*2D
$GPGLL,2254.598619,S,04309.547020,W,122005.058,A*33
$GPGGA,122005.058,2254.598619,S,04309.547020,W,1,4,1.3,2.0,M,,,,*3C
$GPGSA,A,3,8,11,15,22,,,,,,,,,1.3,1.3,0.9*07
$GPZDA,122005.058,19,03,2023,-04,00*7E
