%%%%%%%%%%%%%%%%%%%%%%%%%%%%%%%%%%%%%%%%%%%%%%%%%%%%%%%%%%%
%% LOG FILE:       /home/moos-ivp-douglas/log/teste_6_3_2023_____08_07_53/teste_6_3_2023_____08_07_53.alog
%% FILE OPENED ON  Wed Dec 31 21:00:00 1969
%% LOGSTART           1678100872.492544
%%%%%%%%%%%%%%%%%%%%%%%%%%%%%%%%%%%%%%%%%%%%%%%%%%%%%%%%%%%
-0.03951        MOOS_DEBUG           pHelmIvP        pHelmIvP AllStop: ManualOverride 
-0.03949        DESIRED_SPEED        pHelmIvP        0.00000      
-0.03949        DESIRED_HEADING      pHelmIvP        0.00000      
0.16769         DESIRED_RUDDER       pMarinePIDV22   0.00000      
0.16769         DESIRED_THRUST       pMarinePIDV22   0.00000      
0.67320         ANGULO_LEME          iDivisorNMEA    4.32000      
0.74449         MSG_UDP              iDivisorNMEA    $MXPGN,00FF28,3808,FF08FFFDFC059F41*19
 
0.75468         MSG_UDP              iDivisorNMEA    $MXPGN,01FF1A,782B,FF010B049F410520*64
 
0.76481         MSG_UDP              iDivisorNMEA    $MXPGN,01F803,281C,000000000000C8CD*18
 
0.77499         MSG_UDP              iDivisorNMEA    $MXPGN,01F804,281C,000000E7CBC1C8CD*1E
 
0.78514         MSG_UDP              iDivisorNMEA    $AGRSA,4.32,A,,V*4A
 
0.78516         ANGULO_LEME          iDivisorNMEA    4.32000      
0.79525         MSG_UDP              iDivisorNMEA    $MXPGN,00FF00,280B,0002000005049913*19
 
0.82322         MSG_UDP              iDivisorNMEA    $HCHDG,284.4,0.0,E,23.3,W*68
 
0.82412         MSG_UDP              iDivisorNMEA    $GPHDT,261.13,T*02
 
0.83425         MSG_UDP              iDivisorNMEA    $TIROT,1.49,A*07
 
0.84440         MSG_UDP              iDivisorNMEA    $MXPGN,01FF2C,7808,FFFFFFFF9F411700*6B
 
0.85453         MSG_UDP              iDivisorNMEA    $MXPGN,01FF2C,7808,FFFF7FFFFFFF7F01*16
 
0.86466         MSG_UDP              iDivisorNMEA    $MXPGN,01FF2C,7808,FF7FFFFFFFFFFF02*64
 
0.96523         MSG_UDP              iDivisorNMEA    $GPGSA,A,3,08,16,18,27,28,31,32,65,85,86,72,,2.30,1.40,1.80*00
 
0.96725         MSG_UDP              iDivisorNMEA    $GPGSV,3,1,12,08,45,255,44,16,05,326,39,18,11,060,34,27,56,311,39*7B
 
0.97636         MSG_UDP              iDivisorNMEA    $GPGSV,3,2,12,28,27,037,42,31,21,027,38,32,67,137,46,65,26,298,38*71
 
0.98650         MSG_UDP              iDivisorNMEA    $GPGSV,3,3,12,85,27,037,45,86,71,075,42,72,61,232,37,87,37,200,*77
 
0.99670         MSG_UDP              iDivisorNMEA    $AGRSA,4.32,A,,V*4A
 
0.99675         ANGULO_LEME          iDivisorNMEA    4.32000      
1.02325         MSG_UDP              iDivisorNMEA    $HCHDG,284.4,0.0,E,23.3,W*68
 
1.02413         MSG_UDP              iDivisorNMEA    $GPHDT,261.11,T*00
 
1.03429         MSG_UDP              iDivisorNMEA    $TIROT,1.59,A*06
 
1.04441         MSG_UDP              iDivisorNMEA    !AIVDO,1,1,,,B:UOH3P017>Vt0Lf>aD4cwrUoP06,0*39
 
1.05454         MSG_UDP              iDivisorNMEA    $MXPGN,00FF16,7808,FF0000002B0A9F41*1B
 
1.06467         MSG_UDP              iDivisorNMEA    $MXPGN,00FF00,280B,0002000005049913*19
 
1.07501         MSG_UDP              iDivisorNMEA    $MXPGN,01F803,281C,00000000000014D0*15
 
1.08514         MSG_UDP              iDivisorNMEA    $MXPGN,01F804,281C,0000002A33C114D0*13
 
1.09525         MSG_UDP              iDivisorNMEA    $MXPGN,00FF19,7808,0000000202009F41*15
 
1.10538         MSG_UDP              iDivisorNMEA    $AGRSA,4.32,A,,V*4A
 
1.10542         ANGULO_LEME          iDivisorNMEA    4.32000      
1.11552         MSG_UDP              iDivisorNMEA    $MXPGN,00FF19,7808,0080000A0A009F41*1D
 
1.12569         MSG_UDP              iDivisorNMEA    $HCHDG,284.4,0.0,E,23.3,W*68
 
1.13581         MSG_UDP              iDivisorNMEA    $GPHDT,261.12,T*03
 
1.14598         MSG_UDP              iDivisorNMEA    $TIROT,1.59,A*06
 
1.15609         MSG_UDP              iDivisorNMEA    $MXPGN,00FF8C,6808,FFF10695FA149F41*18
 
1.16624         MSG_UDP              iDivisorNMEA    $MXPGN,01F803,281C,00000000000028D1*1B
 
1.17641         MSG_UDP              iDivisorNMEA    $MXPGN,01F804,281C,00000041EDC128D1*6A
 
1.18660         MSG_UDP              iDivisorNMEA    $MXPGN,01FF0D,780B,FF03000098900500*66
 
1.19679         MSG_UDP              iDivisorNMEA    $GPGGA,,2254.75629,S,04309.54249,W,1,,,,M,,M,,*5D
 
1.20694         MSG_UDP              iDivisorNMEA    $GPGLL,2254.75629,S,04309.54249,W,,A,A*46
 
1.21711         MSG_UDP              iDivisorNMEA    $GPVTG,7.40,T,,M,0.40,N,0.74,K,A*39
 
1.22731         MSG_UDP              iDivisorNMEA    $AGRSA,4.32,A,,V*4A
 
1.22733         ANGULO_LEME          iDivisorNMEA    4.32000      
1.23743         MSG_UDP              iDivisorNMEA    $HCHDG,284.4,0.0,E,23.3,W*68
 
1.24753         MSG_UDP              iDivisorNMEA    $GPHDT,261.12,T*03
 
1.25767         MSG_UDP              iDivisorNMEA    $TIROT,1.69,A*05
 
1.26782         MSG_UDP              iDivisorNMEA    $MXPGN,01F803,281C,0000000000003CD2*62
 
1.27797         MSG_UDP              iDivisorNMEA    $MXPGN,01F804,281C,00000041EDC13CD2*13
 
1.28812         MSG_UDP              iDivisorNMEA    $AGRSA,4.32,A,,V*4A
 
1.28817         ANGULO_LEME          iDivisorNMEA    4.32000      
1.29828         MSG_UDP              iDivisorNMEA    $GPZDA,140752.820,06,03,2023,,*5F
 
1.30841         MSG_UDP              iDivisorNMEA    $MXPGN,00FF00,280B,0002000005049913*19
 
1.32346         MSG_UDP              iDivisorNMEA    $HCHDG,284.4,0.0,E,23.3,W*68
 
1.32956         MSG_UDP              iDivisorNMEA    $GPHDT,261.12,T*03
 
1.33972         MSG_UDP              iDivisorNMEA    $TIROT,1.69,A*05
 
1.34987         MSG_UDP              iDivisorNMEA    $MXPGN,01F803,281C,00000000000050D3*16
 
1.36002         MSG_UDP              iDivisorNMEA    $MXPGN,01F804,281C,00000064ECC150D3*67
 
1.37301         MSG_UDP              iDivisorNMEA    $AGRSA,4.32,A,,V*4A
 
1.37306         ANGULO_LEME          iDivisorNMEA    4.32000      
1.42321         MSG_UDP              iDivisorNMEA    $HCHDG,284.4,0.0,E,23.3,W*68
 
1.42410         MSG_UDP              iDivisorNMEA    $GPHDT,261.13,T*02
 
1.43426         MSG_UDP              iDivisorNMEA    $TIROT,1.59,A*06
 
1.44444         MSG_UDP              iDivisorNMEA    $MXPGN,01F803,281C,00000000000064D4*16
 
1.45459         MSG_UDP              iDivisorNMEA    $MXPGN,01F804,281C,00000064ECC164D4*67
 
1.47325         MSG_UDP              iDivisorNMEA    $AGRSA,4.32,A,,V*4A
 
1.47332         ANGULO_LEME          iDivisorNMEA    4.32000      
1.47545         MSG_UDP              iDivisorNMEA    $SDDPT,1.76,0.00,*7B
 
1.52328         MSG_UDP              iDivisorNMEA    $HCHDG,284.4,0.0,E,23.3,W*68
 
1.52404         MSG_UDP              iDivisorNMEA    $GPHDT,261.13,T*02
 
1.53417         MSG_UDP              iDivisorNMEA    $TIROT,1.59,A*06
 
1.54433         MSG_UDP              iDivisorNMEA    $MXPGN,00FF00,280B,0002000005049913*19
 
1.55448         MSG_UDP              iDivisorNMEA    $MXPGN,01F803,281C,00000000000078D5*1A
 
1.56464         MSG_UDP              iDivisorNMEA    $MXPGN,01F804,281C,00000064ECC178D5*6B
 
1.57480         MSG_UDP              iDivisorNMEA    $AGRSA,4.32,A,,V*4A
 
1.57485         ANGULO_LEME          iDivisorNMEA    4.32000      
1.62322         MSG_UDP              iDivisorNMEA    $HCHDG,284.4,0.0,E,23.3,W*68
 
1.62414         MSG_UDP              iDivisorNMEA    $GPHDT,261.13,T*02
 
1.63433         MSG_UDP              iDivisorNMEA    $TIROT,1.49,A*07
 
1.64452         MSG_UDP              iDivisorNMEA    $MXPGN,01F803,281C,0000000000008CD6*6D
 
1.65471         MSG_UDP              iDivisorNMEA    $MXPGN,01F804,281C,0000005C5DC18CD6*1F
 
1.67313         MSG_UDP              iDivisorNMEA    $AGRSA,4.32,A,,V*4A
 
1.67318         ANGULO_LEME          iDivisorNMEA    4.32000      
1.72322         MSG_UDP              iDivisorNMEA    $HCHDG,284.4,0.0,E,23.3,W*68
 
1.72413         MSG_UDP              iDivisorNMEA    $GPHDT,261.14,T*05
 
1.73438         MSG_UDP              iDivisorNMEA    $TIROT,1.49,A*07
 
1.87313         MSG_UDP              iDivisorNMEA    $AGRSA,4.32,A,,V*4A
 
1.87317         ANGULO_LEME          iDivisorNMEA    4.32000      
1.92565         MSG_UDP              iDivisorNMEA    $GPGGA,140754.000,2254.75132,S,04309.54048,W,1,12,1.40,11.86,M,-5.60,M,,*46
 
1.92625         MSG_UDP              iDivisorNMEA    $GPGLL,2254.75132,S,04309.54048,W,140754.000,A,A*55
 
1.93673         MSG_UDP              iDivisorNMEA    $GPRMC,140754.000,A,2254.75132,S,04309.54048,W,0.09,0.00,060323,23.30,W,A*14
 
1.94698         MSG_UDP              iDivisorNMEA    $GPVTG,0.00,T,,M,0.09,N,0.16,K,A*33
 
1.95714         MSG_UDP              iDivisorNMEA    $GPGGA,140754.300,2254.75279,S,04309.53850,W,1,07,2.00,-0.98,M,-5.00,M,,*58
 
1.96740         MSG_UDP              iDivisorNMEA    $GPGLL,2254.75279,S,04309.53850,W,140754.300,A,A*5C
 
1.97761         MSG_UDP              iDivisorNMEA    $GPRMC,140754.300,A,2254.75279,S,04309.53850,W,0.01,32.69,060323,23.39,W,A*22
 
1.98783         MSG_UDP              iDivisorNMEA    $GPVTG,32.69,T,,M,0.01,N,0.01,K,A*03
 
1.99807         MSG_UDP              iDivisorNMEA    $HCHDG,284.4,0.0,E,23.3,W*68
 
2.00834         MSG_UDP              iDivisorNMEA    $GPHDT,261.14,T*05
 
2.01918         MSG_UDP              iDivisorNMEA    $TIROT,1.79,A*04
 
2.02945         MSG_UDP              iDivisorNMEA    $MXPGN,00FF3C,3808,8000F8FE00009F41*1C
 
2.03974         MSG_UDP              iDivisorNMEA    $GPGSA,A,3,01,08,10,16,18,21,23,,,,,,2.56,2.00,2.00*07
 
2.05010         MSG_UDP              iDivisorNMEA    $GPGSV,2,1,07,01,01,224,00,08,45,254,48,10,32,141,00,16,04,325,42*7A
 
2.06040         MSG_UDP              iDivisorNMEA    $GPGSV,2,2,07,18,11,061,42,21,19,217,00,23,09,117,00*46
 
2.07071         MSG_UDP              iDivisorNMEA    $MXPGN,01FA06,681C,8B012300C8D90F60*10
 
2.08092         MSG_UDP              iDivisorNMEA    $MXPGN,01FA06,681C,008B0123F3990061*14
 
2.09119         MSG_UDP              iDivisorNMEA    $MXPGN,01FA06,681C,FFFFFFFFFF01A362*6B
 
2.10151         MSG_UDP              iDivisorNMEA    $MXPGN,01F803,281C,00000000000000D9*19
 
2.11179         MSG_UDP              iDivisorNMEA    $MXPGN,01F804,281C,000000164BC100D9*1D
 
2.12204         MSG_UDP              iDivisorNMEA    $GPGSA,A,3,08,16,18,27,28,31,32,65,85,86,72,,2.30,1.40,1.80*00
 
2.13231         MSG_UDP              iDivisorNMEA    $GPGSV,3,1,12,08,45,255,44,16,05,326,39,18,11,060,34,27,56,311,39*7B
 
2.14260         MSG_UDP              iDivisorNMEA    $GPGSV,3,2,12,28,27,037,42,31,21,027,38,32,67,137,46,65,26,298,38*71
 
2.15284         MSG_UDP              iDivisorNMEA    $GPGSV,3,3,12,85,27,037,46,86,71,075,42,72,61,232,37,87,37,200,*74
 
2.16313         MSG_UDP              iDivisorNMEA    $AGRSA,4.32,A,,V*4A
 
2.16322         ANGULO_LEME          iDivisorNMEA    4.32000      
2.17341         MSG_UDP              iDivisorNMEA    $HCHDG,284.4,0.0,E,23.3,W*68
 
2.18371         MSG_UDP              iDivisorNMEA    $GPHDT,261.14,T*05
 
2.19395         MSG_UDP              iDivisorNMEA    $TIROT,1.79,A*04
 
2.20422         MSG_UDP              iDivisorNMEA    $MXPGN,00FF16,7808,FF0000002B0A9F41*1B
 
2.21448         MSG_UDP              iDivisorNMEA    $MXPGN,00FF00,280B,0002000005049913*19
 
2.22470         MSG_UDP              iDivisorNMEA    $MXPGN,01F803,281C,00000000000014DA*64
 
2.23495         MSG_UDP              iDivisorNMEA    $MXPGN,01F804,281C,000000164BC114DA*60
 
2.24533         MSG_UDP              iDivisorNMEA    $MXPGN,00FF19,7808,0000000202009F41*15
 
2.25561         MSG_UDP              iDivisorNMEA    $AGRSA,4.32,A,,V*4A
 
2.25571         ANGULO_LEME          iDivisorNMEA    4.32000      
2.26589         MSG_UDP              iDivisorNMEA    $MXPGN,00FF19,7808,0080000A0A009F41*1D
 
2.27622         MSG_UDP              iDivisorNMEA    $HCHDG,284.4,0.0,E,23.3,W*68
 
2.28647         MSG_UDP              iDivisorNMEA    $GPHDT,261.13,T*02
 
2.29666         MSG_UDP              iDivisorNMEA    $TIROT,1.79,A*04
 
2.30687         MSG_UDP              iDivisorNMEA    $MXPGN,00FF8C,6808,FFF10695FA149F41*18
 
2.31710         MSG_UDP              iDivisorNMEA    $MXPGN,01F803,281C,00000000000028DB*68
 
2.32737         MSG_UDP              iDivisorNMEA    $MXPGN,01F804,281C,000000743AC128DB*6C
 
2.33773         MSG_UDP              iDivisorNMEA    $MXPGN,01FF0D,780B,FF03000098900520*64
 
2.34800         MSG_UDP              iDivisorNMEA    $GPGGA,,2254.75629,S,04309.54249,W,1,,,,M,,M,,*5D
 
2.35850         MSG_UDP              iDivisorNMEA    $GPGLL,2254.75629,S,04309.54249,W,,A,A*46
 
2.36882         MSG_UDP              iDivisorNMEA    $GPVTG,7.40,T,,M,0.40,N,0.74,K,A*39
 
2.37909         MSG_UDP              iDivisorNMEA    $AGRSA,4.32,A,,V*4A
 
2.37918         ANGULO_LEME          iDivisorNMEA    4.32000      
2.38935         MSG_UDP              iDivisorNMEA    $HCHDG,284.4,0.0,E,23.3,W*68
 
2.39962         MSG_UDP              iDivisorNMEA    $GPHDT,261.13,T*02
 
2.40999         MSG_UDP              iDivisorNMEA    $TIROT,1.79,A*04
 
2.42025         MSG_UDP              iDivisorNMEA    $MXPGN,01F803,281C,0000000000003CDC*13
 
2.43051         MSG_UDP              iDivisorNMEA    $MXPGN,01F804,281C,000000743AC13CDC*17
 
2.44124         MSG_UDP              iDivisorNMEA    $AGRSA,4.32,A,,V*4A
 
2.44129         ANGULO_LEME          iDivisorNMEA    4.32000      
2.45154         MSG_UDP              iDivisorNMEA    $GPZDA,140753.820,06,03,2023,,*5E
 
2.46199         MSG_UDP              iDivisorNMEA    $MXPGN,00FF00,280B,0002000005049913*19
 
2.47246         MSG_UDP              iDivisorNMEA    !AIVDM,1,1,,B,1:U=<5wP31trMFqjq8VE<?wd2<2T,0*5E
 
2.48272         MSG_UDP              iDivisorNMEA    $HCHDG,284.4,0.0,E,23.3,W*68
 
2.49296         MSG_UDP              iDivisorNMEA    $GPHDT,261.13,T*02
 
2.50325         MSG_UDP              iDivisorNMEA    $TIROT,1.79,A*04
 
2.51348         MSG_UDP              iDivisorNMEA    $MXPGN,01F803,281C,00000000000050DD*61
 
2.52375         MSG_UDP              iDivisorNMEA    $MXPGN,01F804,281C,000000503EC150DD*67
 
2.53397         MSG_UDP              iDivisorNMEA    $AGRSA,4.32,A,,V*4A
 
2.53406         ANGULO_LEME          iDivisorNMEA    4.32000      
2.54430         MSG_UDP              iDivisorNMEA    $HCHDG,284.4,0.0,E,23.3,W*68
 
2.55460         MSG_UDP              iDivisorNMEA    $GPHDT,261.14,T*05
 
2.77326         MSG_UDP              iDivisorNMEA    $AGRSA,4.32,A,,V*4A
 
2.77333         ANGULO_LEME          iDivisorNMEA    4.32000      
2.78533         MSG_UDP              iDivisorNMEA    $MXPGN,00FF00,280B,0002000005049913*19
 
2.82333         MSG_UDP              iDivisorNMEA    $HCHDG,284.5,0.0,E,23.3,W*69
 
2.82416         MSG_UDP              iDivisorNMEA    $GPHDT,261.15,T*04
 
2.83455         MSG_UDP              iDivisorNMEA    $TIROT,1.79,A*04
 
2.84483         MSG_UDP              iDivisorNMEA    $MXPGN,01FF2C,7808,FFFFFFFF9F411740*6F
 
2.85525         MSG_UDP              iDivisorNMEA    $MXPGN,01FF2C,7808,FFFF7FFFFFFF7F41*12
 
2.86552         MSG_UDP              iDivisorNMEA    $MXPGN,01FF2C,7808,FF7FFFFFFFFFFF42*60
 
2.87579         MSG_UDP              iDivisorNMEA    $MXPGN,01FF2C,7808,FFFFFFFF7FFFFF43*61
 
2.88627         MSG_UDP              iDivisorNMEA    $MXPGN,01F803,281C,000000000000A0E1*61
 
2.89652         MSG_UDP              iDivisorNMEA    $MXPGN,01F804,281C,00000085B1C1A0E1*6A
 
2.90693         MSG_UDP              iDivisorNMEA    $MXPGN,00FF3D,6808,7FFFFF0DFFFF9F41*6E
 
2.91721         MSG_UDP              iDivisorNMEA    $AGRSA,4.32,A,,V*4A
 
2.91731         ANGULO_LEME          iDivisorNMEA    4.32000      
2.92755         MSG_UDP              iDivisorNMEA    $MXPGN,01FF1A,782B,FFFAFF859F410580*13
 
2.93790         MSG_UDP              iDivisorNMEA    $GPGGA,140755.000,2254.75144,S,04309.54039,W,1,12,1.40,11.92,M,-5.60,M,,*45
 
2.94901         MSG_UDP              iDivisorNMEA    $GPGLL,2254.75144,S,04309.54039,W,140755.000,A,A*53
 
2.95926         MSG_UDP              iDivisorNMEA    $GPRMC,140755.000,A,2254.75144,S,04309.54039,W,0.09,0.00,060323,23.30,W,A*12
 
2.96953         MSG_UDP              iDivisorNMEA    $GPVTG,0.00,T,,M,0.09,N,0.16,K,A*33
 
2.97978         MSG_UDP              iDivisorNMEA    $GPGGA,140755.200,2254.75279,S,04309.53850,W,1,07,2.00,-0.98,M,-5.00,M,,*58
 
2.99007         MSG_UDP              iDivisorNMEA    $GPGLL,2254.75279,S,04309.53850,W,140755.200,A,A*5C
 
3.00031         MSG_UDP              iDivisorNMEA    $GPRMC,140755.200,A,2254.75279,S,04309.53850,W,0.01,196.09,060323,23.39,W,A*1B
 
3.01065         MSG_UDP              iDivisorNMEA    $GPVTG,196.09,T,,M,0.01,N,0.01,K,A*3A
 
3.02093         MSG_UDP              iDivisorNMEA    $HCHDG,284.5,0.0,E,23.3,W*69
 
3.03118         MSG_UDP              iDivisorNMEA    $GPHDT,261.15,T*04
 
3.04143         MSG_UDP              iDivisorNMEA    $TIROT,1.79,A*04
 
3.05174         MSG_UDP              iDivisorNMEA    $MXPGN,00FF3C,3808,8000F8FE00009F41*1C
 
3.06203         MSG_UDP              iDivisorNMEA    $GPGSA,A,3,01,08,10,16,18,21,23,,,,,,2.56,2.00,2.00*07
 
3.07235         MSG_UDP              iDivisorNMEA    $GPGSV,2,1,07,01,01,224,00,08,45,254,48,10,32,141,00,16,04,325,42*7A
 
3.08271         MSG_UDP              iDivisorNMEA    $GPGSV,2,2,07,18,11,061,41,21,19,217,00,23,09,117,00*45
 
3.09302         MSG_UDP              iDivisorNMEA    $MXPGN,01FA06,681C,8B012300C8E20F80*14
 
3.10326         MSG_UDP              iDivisorNMEA    $MXPGN,01FA06,681C,008B0123F39C0081*60
 
3.11351         MSG_UDP              iDivisorNMEA    $MXPGN,01FA06,681C,FFFFFFFFFF01A382*65
 
3.12376         MSG_UDP              iDivisorNMEA    $MXPGN,01F803,281C,00000000000014E3*17
 
3.13400         MSG_UDP              iDivisorNMEA    $MXPGN,01F804,281C,000000805EC114E3*1A
 
3.14437         MSG_UDP              iDivisorNMEA    $GPGSA,A,3,08,16,18,27,28,31,32,65,85,86,72,,2.30,1.40,1.80*00
 
3.15466         MSG_UDP              iDivisorNMEA    $GPGSV,3,1,12,08,45,255,44,16,05,326,39,18,11,060,34,27,56,311,39*7B
 
3.16494         MSG_UDP              iDivisorNMEA    $GPGSV,3,2,12,28,27,037,42,31,21,027,38,32,67,137,46,65,26,298,38*71
 
3.17529         MSG_UDP              iDivisorNMEA    $GPGSV,3,3,12,85,27,037,45,86,71,075,42,72,61,232,37,87,37,200,*77
 
3.18555         MSG_UDP              iDivisorNMEA    $AGRSA,4.32,A,,V*4A
 
3.18560         ANGULO_LEME          iDivisorNMEA    4.32000      
3.19573         MSG_UDP              iDivisorNMEA    $HCHDG,284.5,0.0,E,23.3,W*69
 
3.20592         MSG_UDP              iDivisorNMEA    $GPHDT,261.17,T*06
 
3.21616         MSG_UDP              iDivisorNMEA    $TIROT,1.79,A*04
 
3.22642         MSG_UDP              iDivisorNMEA    $MXPGN,00FF16,7808,FF0000002B0A9F41*1B
 
3.23667         MSG_UDP              iDivisorNMEA    $MXPGN,00FF00,280B,0002000005049913*19
 
3.24689         MSG_UDP              iDivisorNMEA    $MXPGN,01F803,281C,00000000000028E4*1F
 
3.25711         MSG_UDP              iDivisorNMEA    $MXPGN,01F804,281C,000000805EC128E4*12
 
3.26735         MSG_UDP              iDivisorNMEA    $MXPGN,00FF19,7808,0000000202009F41*15
 
3.27765         MSG_UDP              iDivisorNMEA    !AIVDO,1,1,,,B:UOH3P00G>Vt0Lf>a@4cwsUoP06,0*4D
 
3.28791         MSG_UDP              iDivisorNMEA    $AGRSA,4.32,A,,V*4A
 
3.28808         ANGULO_LEME          iDivisorNMEA    4.32000      
3.29826         MSG_UDP              iDivisorNMEA    $MXPGN,00FF19,7808,0080000A0A009F41*1D
 
3.30850         MSG_UDP              iDivisorNMEA    $HCHDG,284.5,0.0,E,23.3,W*69
 
3.31874         MSG_UDP              iDivisorNMEA    $GPHDT,261.17,T*06
 
3.32897         MSG_UDP              iDivisorNMEA    $TIROT,1.59,A*06
 
3.33922         MSG_UDP              iDivisorNMEA    $MXPGN,00FF8C,6808,FFF10695FA149F41*18
 
3.34947         MSG_UDP              iDivisorNMEA    $MXPGN,01F803,281C,0000000000003CE5*64
 
3.35972         MSG_UDP              iDivisorNMEA    $MXPGN,01F804,281C,00000040F0C13CE5*63
 
3.36998         MSG_UDP              iDivisorNMEA    $MXPGN,01FF0D,780B,FF03000098900540*62
 
3.38021         MSG_UDP              iDivisorNMEA    $GPGGA,,2254.75639,S,04309.54239,W,1,,,,M,,M,,*5B
 
3.39052         MSG_UDP              iDivisorNMEA    $GPGLL,2254.75639,S,04309.54239,W,,A,A*40
 
3.40077         MSG_UDP              iDivisorNMEA    $GPVTG,7.40,T,,M,0.10,N,0.18,K,A*36
 
3.41102         MSG_UDP              iDivisorNMEA    $AGRSA,4.32,A,,V*4A
 
3.41112         ANGULO_LEME          iDivisorNMEA    4.32000      
3.42132         MSG_UDP              iDivisorNMEA    $HCHDG,284.5,0.0,E,23.3,W*69
 
3.43151         MSG_UDP              iDivisorNMEA    $GPHDT,261.18,T*09
 
3.44181         MSG_UDP              iDivisorNMEA    $TIROT,1.59,A*06
 
3.67328         MSG_UDP              iDivisorNMEA    $AGRSA,4.32,A,,V*4A
 
3.67339         ANGULO_LEME          iDivisorNMEA    4.32000      
3.72330         MSG_UDP              iDivisorNMEA    $HCHDG,284.5,0.0,E,23.3,W*69
 
3.72418         MSG_UDP              iDivisorNMEA    $GPHDT,261.17,T*06
 
3.73445         MSG_UDP              iDivisorNMEA    $TIROT,1.29,A*01
 
3.74474         MSG_UDP              iDivisorNMEA    $MXPGN,00FF28,3808,FF08FFFDFC059F41*19
 
3.75500         MSG_UDP              iDivisorNMEA    $MXPGN,01F803,281C,000000000000B4EB*15
 
3.76527         MSG_UDP              iDivisorNMEA    $MXPGN,01F804,281C,0000001DC4C1B4EB*62
 
3.77559         MSG_UDP              iDivisorNMEA    $MXPGN,01FF1A,680B,FF022B849F4105E0*19
 
3.78587         MSG_UDP              iDivisorNMEA    $AGRSA,4.32,A,,V*4A
 
3.78598         ANGULO_LEME          iDivisorNMEA    4.32000      
3.79614         MSG_UDP              iDivisorNMEA    $MXPGN,01FF1A,782B,FF010B049F410580*6E
 
3.80646         MSG_UDP              iDivisorNMEA    $MXPGN,00FF00,280B,0002000005049913*19
 
3.82329         MSG_UDP              iDivisorNMEA    $HCHDG,284.5,0.0,E,23.3,W*69
 
3.82759         MSG_UDP              iDivisorNMEA    $GPHDT,261.17,T*06
 
3.83788         MSG_UDP              iDivisorNMEA    $TIROT,1.29,A*01
 
3.84814         MSG_UDP              iDivisorNMEA    $MXPGN,01FF2C,7808,FFFFFFFF9F411760*6D
 
3.85833         MSG_UDP              iDivisorNMEA    $MXPGN,01FF2C,7808,FFFF7FFFFFFF7F61*10
 
3.86853         MSG_UDP              iDivisorNMEA    $MXPGN,01FF2C,7808,FF7FFFFFFFFFFF62*62
 
3.87873         MSG_UDP              iDivisorNMEA    $MXPGN,01FF2C,7808,FFFFFFFF7FFFFF63*63
 
3.88894         MSG_UDP              iDivisorNMEA    $MXPGN,01F803,281C,000000000000C8EC*19
 
3.89913         MSG_UDP              iDivisorNMEA    $MXPGN,01F804,281C,0000001DC4C1C8EC*6E
 
3.90936         MSG_UDP              iDivisorNMEA    $MXPGN,00FF3D,6808,7FFFFF0DFFFF9F41*6E
 
3.91962         MSG_UDP              iDivisorNMEA    $AGRSA,4.32,A,,V*4A
 
3.91975         ANGULO_LEME          iDivisorNMEA    4.32000      
3.92993         MSG_UDP              iDivisorNMEA    $GPGGA,140756.000,2254.75159,S,04309.54039,W,1,12,1.40,12.05,M,-5.60,M,,*47
 
3.94018         MSG_UDP              iDivisorNMEA    $GPGLL,2254.75159,S,04309.54039,W,140756.000,A,A*5C
 
3.95043         MSG_UDP              iDivisorNMEA    $GPRMC,140756.000,A,2254.75159,S,04309.54039,W,0.29,314.29,060323,23.30,W,A*12
 
3.96137         MSG_UDP              iDivisorNMEA    $GPVTG,314.29,T,,M,0.29,N,0.53,K,A*3D
 
3.97175         MSG_UDP              iDivisorNMEA    $GPGGA,140756.200,2254.75279,S,04309.53850,W,1,07,2.00,-0.98,M,-5.00,M,,*5B
 
3.98197         MSG_UDP              iDivisorNMEA    $GPGLL,2254.75279,S,04309.53850,W,140756.200,A,A*5F
 
3.99217         MSG_UDP              iDivisorNMEA    $GPRMC,140756.200,A,2254.75279,S,04309.53850,W,0.01,43.65,060323,23.39,W,A*2B
 
4.00239         MSG_UDP              iDivisorNMEA    $GPVTG,43.65,T,,M,0.01,N,0.01,K,A*09
 
4.01261         MSG_UDP              iDivisorNMEA    $HCHDG,284.5,0.0,E,23.3,W*69
 
4.02285         MSG_UDP              iDivisorNMEA    $GPHDT,261.18,T*09
 
4.03304         MSG_UDP              iDivisorNMEA    $TIROT,1.39,A*00
 
4.04312         MSG_UDP              iDivisorNMEA    $MXPGN,00FF3C,3808,8000F8FE00009F41*1C
 
4.05328         MSG_UDP              iDivisorNMEA    $GPGSA,A,3,01,08,10,16,18,21,23,,,,,,2.56,2.00,2.00*07
 
4.06344         MSG_UDP              iDivisorNMEA    $GPGSV,2,1,07,01,01,224,00,08,45,254,48,10,32,141,00,16,04,325,42*7A
 
4.07359         MSG_UDP              iDivisorNMEA    $GPGSV,2,2,07,18,11,061,42,21,19,217,00,23,09,117,00*46
 
4.08375         MSG_UDP              iDivisorNMEA    $MXPGN,01FA06,681C,8B012300C8EC0FA0*1C
 
4.09391         MSG_UDP              iDivisorNMEA    $MXPGN,01FA06,681C,008B0123F39C00A1*19
 
4.10408         MSG_UDP              iDivisorNMEA    $MXPGN,01FA06,681C,FFFFFFFFFF01A3A2*1C
 
4.11423         MSG_UDP              iDivisorNMEA    $MXPGN,01F803,281C,00000000000000EC*62
 
4.12440         MSG_UDP              iDivisorNMEA    $MXPGN,01F804,281C,000000257FC100EC*61
 
4.13455         MSG_UDP              iDivisorNMEA    $GPGSA,A,3,08,16,18,27,28,31,32,65,85,86,72,,2.30,1.40,1.80*00
 
4.14470         MSG_UDP              iDivisorNMEA    $GPGSV,3,1,12,08,45,255,44,16,05,326,39,18,11,060,34,27,56,311,39*7B
 
4.15487         MSG_UDP              iDivisorNMEA    $GPGSV,3,2,12,28,27,037,41,31,21,027,37,32,67,137,46,65,26,298,38*7D
 
4.16501         MSG_UDP              iDivisorNMEA    $GPGSV,3,3,12,85,27,037,46,86,71,075,42,72,61,232,36,87,37,200,*75
 
4.17520         MSG_UDP              iDivisorNMEA    $AGRSA,4.32,A,,V*4A
 
4.17524         ANGULO_LEME          iDivisorNMEA    4.32000      
4.18535         MSG_UDP              iDivisorNMEA    $HCHDG,284.5,0.0,E,23.3,W*69
 
4.19549         MSG_UDP              iDivisorNMEA    $GPHDT,261.18,T*09
 
4.20564         MSG_UDP              iDivisorNMEA    $TIROT,1.39,A*00
 
4.21580         MSG_UDP              iDivisorNMEA    $MXPGN,00FF16,7808,FF0000002B0A9F41*1B
 
4.22596         MSG_UDP              iDivisorNMEA    $MXPGN,00FF00,280B,0002000005049913*19
 
4.23610         MSG_UDP              iDivisorNMEA    $MXPGN,01F803,281C,00000000000014ED*60
 
4.24624         MSG_UDP              iDivisorNMEA    $MXPGN,01F804,281C,000000257FC114ED*63
 
4.25640         MSG_UDP              iDivisorNMEA    $MXPGN,00FF19,7808,0000000202009F41*15
 
4.26656         MSG_UDP              iDivisorNMEA    $AGRSA,4.32,A,,V*4A
 
4.26661         ANGULO_LEME          iDivisorNMEA    4.32000      
4.27674         MSG_UDP              iDivisorNMEA    $MXPGN,00FF19,7808,0080000A0A009F41*1D
 
4.28697         MSG_UDP              iDivisorNMEA    $HCHDG,284.5,0.0,E,23.3,W*69
 
4.29709         MSG_UDP              iDivisorNMEA    $GPHDT,261.18,T*09
 
4.30728         MSG_UDP              iDivisorNMEA    $TIROT,1.39,A*00
 
4.31743         MSG_UDP              iDivisorNMEA    $MXPGN,00FF8C,6808,FFF10695FA149F41*18
 
4.32756         MSG_UDP              iDivisorNMEA    $MXPGN,01F803,281C,00000000000028EE*6E
 
4.33776         MSG_UDP              iDivisorNMEA    $MXPGN,01F804,281C,000000257FC128EE*6D
 
4.34790         MSG_UDP              iDivisorNMEA    $GPGGA,,2254.75639,S,04309.54239,W,1,,,,M,,M,,*5B
 
4.54454         MSG_UDP              iDivisorNMEA    $MXPGN,01F803,281C,0000000000008CF3*6A
 
4.54506         MSG_UDP              iDivisorNMEA    $MXPGN,01F804,281C,000000601BC18CF3*6A
 
4.57322         MSG_UDP              iDivisorNMEA    $AGRSA,4.32,A,,V*4A
 
4.57332         ANGULO_LEME          iDivisorNMEA    4.32000      
4.62322         MSG_UDP              iDivisorNMEA    $HCHDG,284.5,0.0,E,23.3,W*69
 
4.62431         MSG_UDP              iDivisorNMEA    $GPHDT,261.22,T*00
 
4.63354         MSG_UDP              iDivisorNMEA    $TIROT,1.89,A*0B
 
4.64388         MSG_UDP              iDivisorNMEA    $MXPGN,00FF00,280B,0002000005049913*19
 
4.65414         MSG_UDP              iDivisorNMEA    $MXPGN,01F803,281C,000000000000A0F4*67
 
4.66444         MSG_UDP              iDivisorNMEA    $MXPGN,01F804,281C,0000006651C1A0F4*16
 
4.67467         MSG_UDP              iDivisorNMEA    $AGRSA,4.32,A,,V*4A
 
4.67473         ANGULO_LEME          iDivisorNMEA    4.32000      
4.70015         MSG_UDP              iDivisorNMEA    $MXPGN,01FF1A,680B,FF022B849F410500*6C
 
4.71629         MSG_UDP              iDivisorNMEA    $MXPGN,01FF1A,782B,FF010B049F4105A0*17
 
4.72330         MSG_UDP              iDivisorNMEA    $HCHDG,284.5,0.0,E,23.3,W*69
 
4.72651         MSG_UDP              iDivisorNMEA    $GPHDT,261.24,T*06
 
4.73677         MSG_UDP              iDivisorNMEA    $TIROT,1.89,A*0B
 
4.74705         MSG_UDP              iDivisorNMEA    $MXPGN,00FF28,3808,FF08FFFDFC059F41*19
 
4.75726         MSG_UDP              iDivisorNMEA    $MXPGN,01F803,281C,000000000000B4F5*61
 
4.76753         MSG_UDP              iDivisorNMEA    $MXPGN,01F804,281C,0000006651C1B4F5*10
 
4.77778         MSG_UDP              iDivisorNMEA    $AGRSA,4.32,A,,V*4A
 
4.77786         ANGULO_LEME          iDivisorNMEA    4.32000      
4.82315         MSG_UDP              iDivisorNMEA    $HCHDG,284.5,0.0,E,23.3,W*69
 
4.82412         MSG_UDP              iDivisorNMEA    $GPHDT,261.24,T*06
 
4.83429         MSG_UDP              iDivisorNMEA    $TIROT,1.89,A*0B
 
4.84445         MSG_UDP              iDivisorNMEA    $MXPGN,01FF2C,7808,FFFFFFFF9F411780*63
 
4.85459         MSG_UDP              iDivisorNMEA    $MXPGN,01FF2C,7808,FFFF7FFFFFFF7F81*1E
 
4.86476         MSG_UDP              iDivisorNMEA    $MXPGN,01FF2C,7808,FF7FFFFFFFFFFF82*6C
 
4.87492         MSG_UDP              iDivisorNMEA    $MXPGN,01FF2C,7808,FFFFFFFF7FFFFF83*6D
 
4.88513         MSG_UDP              iDivisorNMEA    $MXPGN,01F803,281C,000000000000C8F6*6F
 
4.89529         MSG_UDP              iDivisorNMEA    $MXPGN,01F804,281C,000000ACABC1C8F6*1B
 
4.90551         MSG_UDP              iDivisorNMEA    $MXPGN,00FF3D,6808,7FFFFF0DFFFF9F41*6E
 
4.91568         MSG_UDP              iDivisorNMEA    $AGRSA,4.32,A,,V*4A
 
4.91571         ANGULO_LEME          iDivisorNMEA    4.32000      
4.92578         MSG_UDP              iDivisorNMEA    $MXPGN,00FF00,280B,0002000005049913*19
 
4.93591         MSG_UDP              iDivisorNMEA    $MXPGN,00FF3D,6808,0000FF0BFFFF9F41*19
 
4.94605         MSG_UDP              iDivisorNMEA    $MXPGN,00FF3D,6808,FFFFFF0CFFFF9F41*18
 
4.95624         MSG_UDP              iDivisorNMEA    $GPGGA,140757.300,2254.75279,S,04309.53850,W,1,07,2.00,-0.98,M,-5.00,M,,*5B
 
4.96642         MSG_UDP              iDivisorNMEA    $GPGLL,2254.75279,S,04309.53850,W,140757.300,A,A*5F
 
4.97661         MSG_UDP              iDivisorNMEA    $GPRMC,140757.300,A,2254.75279,S,04309.53850,W,0.01,253.26,060323,23.39,W,A*1F
 
4.98678         MSG_UDP              iDivisorNMEA    $GPVTG,253.26,T,,M,0.01,N,0.01,K,A*3D
 
4.99692         MSG_UDP              iDivisorNMEA    $HCHDG,284.6,0.0,E,23.3,W*6A
 
5.00713         MSG_UDP              iDivisorNMEA    $GPHDT,261.25,T*07
 
5.01729         MSG_UDP              iDivisorNMEA    $TIROT,1.69,A*05
 
5.02747         MSG_UDP              iDivisorNMEA    $MXPGN,00FF3D,6808,FFFFFF03FFFF9F41*68
 
5.03759         MSG_UDP              iDivisorNMEA    $MXPGN,00FF3C,3808,8000F8FE00009F41*1C
 
5.04775         MSG_UDP              iDivisorNMEA    $GPGSA,A,3,01,08,10,16,18,21,23,,,,,,2.56,2.00,2.00*07
 
5.05818         MSG_UDP              iDivisorNMEA    $GPGSV,2,1,07,01,01,224,00,08,45,254,48,10,32,141,00,16,04,325,42*7A
 
5.06837         MSG_UDP              iDivisorNMEA    $GPGSV,2,2,07,18,11,061,41,21,19,217,00,23,09,117,00*45
 
5.07859         MSG_UDP              iDivisorNMEA    $MXPGN,01FA06,681C,8B012300C8F70FC0*69
 
5.08874         MSG_UDP              iDivisorNMEA    $MXPGN,01FA06,681C,008B0123F39C00C1*1B
 
5.09894         MSG_UDP              iDivisorNMEA    $MXPGN,01FA06,681C,FFFFFFFFFF01A3C2*1E
 
5.10911         MSG_UDP              iDivisorNMEA    $MXPGN,01F803,281C,00000000000000F7*15
 
5.11927         MSG_UDP              iDivisorNMEA    $MXPGN,01F804,281C,000000ACABC100F7*61
 
5.12946         MSG_UDP              iDivisorNMEA    $MXPGN,00FF3D,6808,FFFFFF02FFFF9F41*69
 
5.13974         MSG_UDP              iDivisorNMEA    $GPGGA,140757.000,2254.75186,S,04309.54037,W,1,12,1.40,12.05,M,-5.60,M,,*4A
 
5.14989         MSG_UDP              iDivisorNMEA    $GPGLL,2254.75186,S,04309.54037,W,140757.000,A,A*51
 
5.16006         MSG_UDP              iDivisorNMEA    $GPRMC,140757.000,A,2254.75186,S,04309.54037,W,0.09,0.00,060323,23.30,W,A*10
 
5.17027         MSG_UDP              iDivisorNMEA    $GPVTG,0.00,T,,M,0.09,N,0.16,K,A*33
 
5.18047         MSG_UDP              iDivisorNMEA    $AGRSA,4.32,A,,V*4A
 
5.18050         ANGULO_LEME          iDivisorNMEA    4.32000      
5.19066         MSG_UDP              iDivisorNMEA    $GPGSA,A,3,08,16,18,27,28,31,32,65,85,86,72,,2.30,1.40,1.80*00
 
5.20083         MSG_UDP              iDivisorNMEA    $GPGSV,3,1,12,08,45,255,44,16,05,326,39,18,11,060,34,27,56,311,39*7B
 
5.21100         MSG_UDP              iDivisorNMEA    $GPGSV,3,2,12,28,27,037,41,31,21,027,37,32,67,137,46,65,26,298,38*7D
 
5.22120         MSG_UDP              iDivisorNMEA    $GPGSV,3,3,12,85,27,037,46,86,71,075,42,72,61,232,36,87,37,200,*75
 
5.23140         MSG_UDP              iDivisorNMEA    $HCHDG,284.6,0.0,E,23.3,W*6A
 
5.24156         MSG_UDP              iDivisorNMEA    $GPHDT,261.26,T*04
 
5.25171         MSG_UDP              iDivisorNMEA    $TIROT,1.59,A*06
 
5.26191         MSG_UDP              iDivisorNMEA    $MXPGN,00FF16,7808,FF0000002B0A9F41*1B
 
5.44429         MSG_UDP              iDivisorNMEA    $MXPGN,01F803,281C,0000000000006401*67
 
5.44511         MSG_UDP              iDivisorNMEA    $MXPGN,01F804,281C,000000341DC16401*60
 
5.47321         MSG_UDP              iDivisorNMEA    $AGRSA,4.32,A,,V*4A
 
5.47326         ANGULO_LEME          iDivisorNMEA    4.32000      
5.47343         MSG_UDP              iDivisorNMEA    $SDDPT,1.76,0.00,*7B
 
5.52318         MSG_UDP              iDivisorNMEA    $HCHDG,284.6,0.0,E,23.3,W*6A
 
5.52420         MSG_UDP              iDivisorNMEA    $GPHDT,261.28,T*0A
 
5.53439         MSG_UDP              iDivisorNMEA    $TIROT,1.19,A*02
 
5.54458         MSG_UDP              iDivisorNMEA    $MXPGN,01F803,281C,0000000000007802*69
 
5.55475         MSG_UDP              iDivisorNMEA    $MXPGN,01F804,281C,000000341DC17802*6E
 
5.57320         MSG_UDP              iDivisorNMEA    $AGRSA,4.32,A,,V*4A
 
5.57327         ANGULO_LEME          iDivisorNMEA    4.32000      
5.62340         MSG_UDP              iDivisorNMEA    $HCHDG,284.6,0.0,E,23.3,W*6A
 
5.62418         MSG_UDP              iDivisorNMEA    $GPHDT,261.28,T*0A
 
5.63441         MSG_UDP              iDivisorNMEA    $TIROT,0.99,A*0B
 
5.64461         MSG_UDP              iDivisorNMEA    $MXPGN,00FF00,280B,0002000005049913*19
 
5.65480         MSG_UDP              iDivisorNMEA    $MXPGN,01F803,281C,0000000000008C03*1C
 
5.66494         MSG_UDP              iDivisorNMEA    $MXPGN,01F804,281C,0000005833C18C03*64
 
5.67510         MSG_UDP              iDivisorNMEA    $AGRSA,4.32,A,,V*4A
 
5.67514         ANGULO_LEME          iDivisorNMEA    4.32000      
5.72327         MSG_UDP              iDivisorNMEA    $HCHDG,284.6,0.0,E,23.3,W*6A
 
5.72415         MSG_UDP              iDivisorNMEA    $GPHDT,261.30,T*03
 
5.73447         MSG_UDP              iDivisorNMEA    $TIROT,0.99,A*0B
 
5.74463         MSG_UDP              iDivisorNMEA    $MXPGN,00FF28,3808,FF08FFFDFC059F41*19
 
5.75480         MSG_UDP              iDivisorNMEA    $MXPGN,01F803,281C,000000000000A004*11
 
5.76495         MSG_UDP              iDivisorNMEA    $MXPGN,01F804,281C,0000005833C1A004*69
 
5.77512         MSG_UDP              iDivisorNMEA    $AGRSA,4.32,A,,V*4A
 
5.77514         ANGULO_LEME          iDivisorNMEA    4.32000      
5.78529         MSG_UDP              iDivisorNMEA    $MXPGN,01FF1A,680B,FF022B849F410520*6E
 
5.79543         MSG_UDP              iDivisorNMEA    $MXPGN,01FF1A,782B,FF010B049F4105C0*15
 
5.82323         MSG_UDP              iDivisorNMEA    $HCHDG,284.6,0.0,E,23.3,W*6A
 
5.82417         MSG_UDP              iDivisorNMEA    $GPHDT,261.33,T*00
 
5.83431         MSG_UDP              iDivisorNMEA    $TIROT,0.99,A*0B
 
5.84445         MSG_UDP              iDivisorNMEA    $MXPGN,01FF2C,7808,FFFFFFFF9F4117A0*1A
 
5.85459         MSG_UDP              iDivisorNMEA    $MXPGN,01FF2C,7808,FFFF7FFFFFFF7FA1*67
 
5.86477         MSG_UDP              iDivisorNMEA    $MXPGN,01FF2C,7808,FF7FFFFFFFFFFFA2*15
 
5.87487         MSG_UDP              iDivisorNMEA    $MXPGN,01FF2C,7808,FFFFFFFF7FFFFFA3*14
 
5.88502         MSG_UDP              iDivisorNMEA    $MXPGN,01F803,281C,000000000000A004*11
 
5.89522         MSG_UDP              iDivisorNMEA    $MXPGN,01F804,281C,0000005833C1A004*69
 
5.90539         MSG_UDP              iDivisorNMEA    $MXPGN,00FF3D,6808,7FFFFF0DFFFF9F41*6E
 
5.91552         MSG_UDP              iDivisorNMEA    $AGRSA,4.32,A,,V*4A
 
5.91555         ANGULO_LEME          iDivisorNMEA    4.32000      
5.92570         MSG_UDP              iDivisorNMEA    $MXPGN,00FF00,280B,0002000005049913*19
 
5.93582         MSG_UDP              iDivisorNMEA    $MXPGN,01FF1A,782B,FFFAFF859F4105E0*6E
 
5.94596         MSG_UDP              iDivisorNMEA    $GPGGA,140758.100,2254.75279,S,04309.53850,W,1,07,2.00,-0.98,M,-5.00,M,,*56
 
5.95615         MSG_UDP              iDivisorNMEA    $GPGLL,2254.75279,S,04309.53850,W,140758.100,A,A*52
 
5.96629         MSG_UDP              iDivisorNMEA    $GPRMC,140758.100,A,2254.75279,S,04309.53850,W,0.03,129.36,060323,23.39,W,A*1F
 
5.97651         MSG_UDP              iDivisorNMEA    $GPVTG,129.36,T,,M,0.03,N,0.05,K,A*34
 
5.98674         MSG_UDP              iDivisorNMEA    $HCHDG,284.6,0.0,E,23.3,W*6A
 
5.99689         MSG_UDP              iDivisorNMEA    $GPHDT,261.33,T*00
 
6.00700         MSG_UDP              iDivisorNMEA    $TIROT,0.99,A*0B
 
6.01718         MSG_UDP              iDivisorNMEA    $MXPGN,00FF3C,3808,8000F8FE00009F41*1C
 
6.02734         MSG_UDP              iDivisorNMEA    $GPGSA,A,3,01,08,10,16,18,21,23,,,,,,2.56,2.00,2.00*07
 
6.03749         MSG_UDP              iDivisorNMEA    $GPGSV,2,1,07,01,01,224,00,08,45,254,48,10,32,141,00,16,04,325,42*7A
 
6.04763         MSG_UDP              iDivisorNMEA    $GPGSV,2,2,07,18,11,061,42,21,19,217,00,23,09,117,00*46
 
6.05783         MSG_UDP              iDivisorNMEA    $MXPGN,01FA06,681C,8B012300C8040FE0*1A
 
6.06817         MSG_UDP              iDivisorNMEA    $MXPGN,01FA06,681C,008B0123F39E00E1*1B
 
6.07837         MSG_UDP              iDivisorNMEA    $MXPGN,01FA06,681C,FFFFFFFFFF01A3E2*18
 
6.08857         MSG_UDP              iDivisorNMEA    $MXPGN,01F803,281C,0000000000001405*64
 
6.09875         MSG_UDP              iDivisorNMEA    $MXPGN,01F804,281C,000000F0F3C11405*12
 
6.10894         MSG_UDP              iDivisorNMEA    $GPGGA,140758.000,2254.75187,S,04309.54024,W,1,12,1.40,12.25,M,-5.60,M,,*44
 
6.11913         MSG_UDP              iDivisorNMEA    $GPGLL,2254.75187,S,04309.54024,W,140758.000,A,A*5D
 
6.12934         MSG_UDP              iDivisorNMEA    $GPRMC,140758.000,A,2254.75187,S,04309.54024,W,0.19,20.99,060323,23.30,W,A*2F
 
6.13951         MSG_UDP              iDivisorNMEA    $GPVTG,20.99,T,,M,0.19,N,0.35,K,A*01
 
6.14971         MSG_UDP              iDivisorNMEA    $AGRSA,4.32,A,,V*4A
 
6.14976         ANGULO_LEME          iDivisorNMEA    4.32000      
6.15988         MSG_UDP              iDivisorNMEA    $GPGSA,A,3,08,16,18,27,28,31,32,65,85,86,72,,2.30,1.40,1.80*00
 
6.17006         MSG_UDP              iDivisorNMEA    $GPGSV,3,1,12,08,45,255,44,16,05,326,39,18,11,060,34,27,56,311,39*7B
 
6.18023         MSG_UDP              iDivisorNMEA    $GPGSV,3,2,12,28,27,037,41,31,21,027,37,32,67,137,46,65,26,297,38*72
 
6.19043         MSG_UDP              iDivisorNMEA    $GPGSV,3,3,12,85,27,037,46,86,71,075,42,72,61,232,36,87,37,200,*75
 
6.34425         MSG_UDP              iDivisorNMEA    $MXPGN,01F803,281C,000000000000780A*1A
 
6.34509         MSG_UDP              iDivisorNMEA    $MXPGN,01F804,281C,000000369DC1780A*17
 
6.37332         MSG_UDP              iDivisorNMEA    $AGRSA,4.32,A,,V*4A
 
6.37336         ANGULO_LEME          iDivisorNMEA    4.32000      
6.37523         MSG_UDP              iDivisorNMEA    $MXPGN,00FF00,280B,0002000005049913*19
 
6.42423         MSG_UDP              iDivisorNMEA    $HCHDG,284.7,0.0,E,23.3,W*6B
 
6.42428         MSG_UDP              iDivisorNMEA    $GPHDT,261.41,T*05
 
6.43451         MSG_UDP              iDivisorNMEA    $TIROT,0.99,A*0B
 
6.44482         MSG_UDP              iDivisorNMEA    $MXPGN,01F803,281C,0000000000008C0B*6D
 
6.45516         MSG_UDP              iDivisorNMEA    $MXPGN,01F804,281C,000000369DC18C0B*60
 
6.47332         MSG_UDP              iDivisorNMEA    $AGRSA,4.32,A,,V*4A
 
6.47343         ANGULO_LEME          iDivisorNMEA    4.32000      
6.47568         MSG_UDP              iDivisorNMEA    $SDDPT,1.76,0.00,*7B
 
6.52419         MSG_UDP              iDivisorNMEA    $HCHDG,284.7,0.0,E,23.3,W*6B
 
6.52449         MSG_UDP              iDivisorNMEA    $GPHDT,261.41,T*05
 
6.53476         MSG_UDP              iDivisorNMEA    $TIROT,0.99,A*0B
 
6.54508         MSG_UDP              iDivisorNMEA    $MXPGN,01F803,281C,0000000000009F0C*68
 
6.55572         MSG_UDP              iDivisorNMEA    $MXPGN,01F804,281C,000000369DC19F0C*65
 
6.57319         MSG_UDP              iDivisorNMEA    $AGRSA,4.32,A,,V*4A
 
6.57332         ANGULO_LEME          iDivisorNMEA    4.32000      
6.58735         MSG_UDP              iDivisorNMEA    !AIVDM,1,1,,A,3:U8:OPP00trH8ejqAfpT?wj20IC,0*16
 
6.62430         MSG_UDP              iDivisorNMEA    $HCHDG,284.7,0.0,E,23.3,W*6B
 
6.62445         MSG_UDP              iDivisorNMEA    $GPHDT,261.41,T*05
 
6.63474         MSG_UDP              iDivisorNMEA    $TIROT,1.19,A*02
 
6.64496         MSG_UDP              iDivisorNMEA    $MXPGN,00FF00,280B,0002000005049913*19
 
6.65519         MSG_UDP              iDivisorNMEA    $MXPGN,01F803,281C,000000000000B40D*66
 
6.66544         MSG_UDP              iDivisorNMEA    $MXPGN,01F804,281C,0000009528C1B40D*15
 
6.67571         MSG_UDP              iDivisorNMEA    $AGRSA,4.32,A,,V*4A
 
6.67578         ANGULO_LEME          iDivisorNMEA    4.32000      
6.70037         MSG_UDP              iDivisorNMEA    $MXPGN,01FF1A,680B,FF022B849F410540*68
 
6.72431         MSG_UDP              iDivisorNMEA    $HCHDG,284.7,0.0,E,23.3,W*6B
 
6.72445         MSG_UDP              iDivisorNMEA    $GPHDT,261.42,T*06
 
6.73471         MSG_UDP              iDivisorNMEA    $TIROT,1.19,A*02
 
6.74493         MSG_UDP              iDivisorNMEA    $MXPGN,00FF28,3808,FF08FFFDFC059F41*19
 
6.75523         MSG_UDP              iDivisorNMEA    $MXPGN,01F803,281C,000000000000C80E*6A
 
6.76557         MSG_UDP              iDivisorNMEA    $MXPGN,01F804,281C,0000009528C1C80E*19
 
6.77585         MSG_UDP              iDivisorNMEA    !AIVDM,1,1,,B,13a0JR0000LrT3ijrVRE?qMn0L2I,0*6D
 
6.78604         MSG_UDP              iDivisorNMEA    $MXPGN,01FF1A,782B,FF010B049F4105E0*13
 
6.79617         MSG_UDP              iDivisorNMEA    $AGRSA,4.32,A,,V*4A
 
6.79620         ANGULO_LEME          iDivisorNMEA    4.32000      
6.82410         MSG_UDP              iDivisorNMEA    $HCHDG,284.7,0.0,E,23.3,W*6B
 
6.82459         MSG_UDP              iDivisorNMEA    $GPHDT,261.43,T*07
 
6.83476         MSG_UDP              iDivisorNMEA    $TIROT,1.29,A*01
 
6.84507         MSG_UDP              iDivisorNMEA    $MXPGN,01FF2C,7808,FFFFFFFF9F4117C0*18
 
6.85531         MSG_UDP              iDivisorNMEA    $MXPGN,01FF2C,7808,FFFF7FFFFFFF7FC1*65
 
6.86558         MSG_UDP              iDivisorNMEA    $MXPGN,01FF2C,7808,FF7FFFFFFFFFFFC2*17
 
6.87588         MSG_UDP              iDivisorNMEA    $MXPGN,01FF2C,7808,FFFFFFFF7FFFFFC3*16
 
6.88616         MSG_UDP              iDivisorNMEA    $MXPGN,01F803,281C,000000000000DC0F*15
 
6.89647         MSG_UDP              iDivisorNMEA    $MXPGN,01F804,281C,000000340FC1DC0F*11
 
6.90672         MSG_UDP              iDivisorNMEA    $MXPGN,00FF3D,6808,7FFFFF0DFFFF9F41*6E
 
6.91691         MSG_UDP              iDivisorNMEA    $AGRSA,4.32,A,,V*4A
 
6.91697         ANGULO_LEME          iDivisorNMEA    4.32000      
6.92719         MSG_UDP              iDivisorNMEA    $MXPGN,00FF00,280B,0002000005049913*19
 
6.93746         MSG_UDP              iDivisorNMEA    $GPGGA,140759.300,2254.75279,S,04309.53850,W,1,07,2.00,-0.98,M,-5.00,M,,*55
 
6.94777         MSG_UDP              iDivisorNMEA    $GPGLL,2254.75279,S,04309.53850,W,140759.300,A,A*51
 
6.95799         MSG_UDP              iDivisorNMEA    $GPRMC,140759.300,A,2254.75279,S,04309.53850,W,0.00,76.35,060323,23.39,W,A*27
 
6.96834         MSG_UDP              iDivisorNMEA    $GPVTG,76.35,T,,M,0.00,N,0.00,K,A*0A
 
6.97859         MSG_UDP              iDivisorNMEA    $HCHDG,284.7,0.0,E,23.3,W*6B
 
6.98885         MSG_UDP              iDivisorNMEA    $GPHDT,261.44,T*00
 
6.99908         MSG_UDP              iDivisorNMEA    $TIROT,1.29,A*01
 
7.00930         MSG_UDP              iDivisorNMEA    $MXPGN,00FF3C,3808,8000F8FE00009F41*1C
 
7.01950         MSG_UDP              iDivisorNMEA    $GPGSA,A,3,01,08,10,16,18,21,23,,,,,,2.56,2.00,2.00*07
 
7.02981         MSG_UDP              iDivisorNMEA    $GPGSV,2,1,07,01,01,224,00,08,45,254,48,10,32,141,00,16,04,325,42*7A
 
7.04016         MSG_UDP              iDivisorNMEA    $GPGSV,2,2,07,18,11,061,42,21,19,217,00,23,09,117,00*46
 
7.05047         MSG_UDP              iDivisorNMEA    $MXPGN,01FA06,681C,8B012300C8100F00*6A
 
7.06074         MSG_UDP              iDivisorNMEA    $MXPGN,01FA06,681C,008B0123F39E0001*6E
 
7.07103         MSG_UDP              iDivisorNMEA    $MXPGN,01FA06,681C,FFFFFFFFFF01A302*6D
 
7.08128         MSG_UDP              iDivisorNMEA    $MXPGN,01F803,281C,0000000000000010*65
 
7.09161         MSG_UDP              iDivisorNMEA    $MXPGN,01F804,281C,000000340FC10010*61
 
7.10198         MSG_UDP              iDivisorNMEA    $GPGGA,140759.000,2254.75193,S,04309.54006,W,1,12,1.40,12.45,M,-5.60,M,,*46
 
7.24530         MSG_UDP              iDivisorNMEA    $MXPGN,01F803,281C,0000000000003C13*16
 
7.24632         MSG_UDP              iDivisorNMEA    $MXPGN,01F804,281C,0000009D19C13C13*16
 
7.27330         MSG_UDP              iDivisorNMEA    $AGRSA,4.32,A,,V*4A
 
7.27339         ANGULO_LEME          iDivisorNMEA    4.32000      
7.27430         MSG_UDP              iDivisorNMEA    $GPZDA,140758.750,06,03,2023,,*5D
 
7.28458         MSG_UDP              iDivisorNMEA    $MXPGN,01FF0D,780B,FF030000989005C0*15
 
7.32423         MSG_UDP              iDivisorNMEA    $HCHDG,284.8,0.0,E,23.3,W*64
 
7.32439         MSG_UDP              iDivisorNMEA    $GPHDT,261.46,T*02
 
7.33463         MSG_UDP              iDivisorNMEA    $TIROT,1.49,A*07
 
7.34487         MSG_UDP              iDivisorNMEA    $MXPGN,01F803,281C,0000000000005014*64
 
7.35514         MSG_UDP              iDivisorNMEA    $MXPGN,01F804,281C,0000007026C15014*12
 
7.37325         MSG_UDP              iDivisorNMEA    $AGRSA,4.32,A,,V*4A
 
7.37333         ANGULO_LEME          iDivisorNMEA    4.32000      
7.37653         MSG_UDP              iDivisorNMEA    $MXPGN,00FF00,280B,0002000005049913*19
 
7.38725         MSG_UDP              iDivisorNMEA    !AIVDM,1,1,,B,3:U7oI0sA2trFE9jqfub5own20u0,0*0A
 
7.42437         MSG_UDP              iDivisorNMEA    $HCHDG,284.8,0.0,E,23.3,W*64
 
7.42447         MSG_UDP              iDivisorNMEA    $GPHDT,261.47,T*03
 
7.43473         MSG_UDP              iDivisorNMEA    $TIROT,1.59,A*06
 
7.44497         MSG_UDP              iDivisorNMEA    $MXPGN,01F803,281C,0000000000006415*62
 
7.45521         MSG_UDP              iDivisorNMEA    $MXPGN,01F804,281C,0000007026C16415*14
 
7.47318         MSG_UDP              iDivisorNMEA    $AGRSA,4.32,A,,V*4A
 
7.47327         ANGULO_LEME          iDivisorNMEA    4.32000      
7.47651         MSG_UDP              iDivisorNMEA    $SDDPT,1.76,0.00,*7B
 
7.52429         MSG_UDP              iDivisorNMEA    $HCHDG,284.8,0.0,E,23.3,W*64
 
7.52439         MSG_UDP              iDivisorNMEA    $GPHDT,261.47,T*03
 
7.53464         MSG_UDP              iDivisorNMEA    $TIROT,1.59,A*06
 
7.54489         MSG_UDP              iDivisorNMEA    $MXPGN,01F803,281C,0000000000007816*6C
 
7.55513         MSG_UDP              iDivisorNMEA    $MXPGN,01F804,281C,0000007026C17816*1A
 
7.57323         MSG_UDP              iDivisorNMEA    $AGRSA,4.32,A,,V*4A
 
7.57331         ANGULO_LEME          iDivisorNMEA    4.32000      
7.62429         MSG_UDP              iDivisorNMEA    $HCHDG,284.8,0.0,E,23.3,W*64
 
7.62443         MSG_UDP              iDivisorNMEA    $GPHDT,261.47,T*03
 
7.63465         MSG_UDP              iDivisorNMEA    $TIROT,1.39,A*00
 
7.64487         MSG_UDP              iDivisorNMEA    $MXPGN,00FF00,280B,0002000005049913*19
 
7.65507         MSG_UDP              iDivisorNMEA    $MXPGN,01F803,281C,0000000000008C17*19
 
7.66526         MSG_UDP              iDivisorNMEA    $MXPGN,01F804,281C,00000068B4C18C17*14
 
7.67545         MSG_UDP              iDivisorNMEA    $AGRSA,4.32,A,,V*4A
 
7.67550         ANGULO_LEME          iDivisorNMEA    4.32000      
7.72436         MSG_UDP              iDivisorNMEA    $HCHDG,284.8,0.0,E,23.3,W*64
 
7.72448         MSG_UDP              iDivisorNMEA    $GPHDT,261.49,T*0D
 
7.73475         MSG_UDP              iDivisorNMEA    $TIROT,1.39,A*00
 
7.74510         MSG_UDP              iDivisorNMEA    $MXPGN,00FF28,3808,FF08FFFDFC059F41*19
 
7.75538         MSG_UDP              iDivisorNMEA    $MXPGN,01F803,281C,000000000000A018*1C
 
7.76627         MSG_UDP              iDivisorNMEA    $MXPGN,01F804,281C,00000068B4C1A018*11
 
7.77650         MSG_UDP              iDivisorNMEA    $AGRSA,4.32,A,,V*4A
 
7.77660         ANGULO_LEME          iDivisorNMEA    4.32000      
7.78678         MSG_UDP              iDivisorNMEA    $MXPGN,01FF1A,680B,FF022B849F410560*6A
 
7.79704         MSG_UDP              iDivisorNMEA    $MXPGN,01FF1A,782B,FF010B049F410500*66
 
7.82424         MSG_UDP              iDivisorNMEA    $HCHDG,284.9,0.0,E,23.3,W*65
 
7.82439         MSG_UDP              iDivisorNMEA    $GPHDT,261.55,T*00
 
7.83461         MSG_UDP              iDivisorNMEA    $TIROT,1.59,A*06
 
7.84490         MSG_UDP              iDivisorNMEA    $MXPGN,01FF2C,7808,FFFFFFFF9F4117E0*1E
 
7.85518         MSG_UDP              iDivisorNMEA    $MXPGN,01FF2C,7808,FFFF7FFFFFFF7FE1*63
 
7.86544         MSG_UDP              iDivisorNMEA    $MXPGN,01FF2C,7808,FF7FFFFFFFFFFFE2*11
 
7.87572         MSG_UDP              iDivisorNMEA    $MXPGN,01FF2C,7808,FFFFFFFF7FFFFFE3*10
 
7.88599         MSG_UDP              iDivisorNMEA    $MXPGN,01F803,281C,000000000000B419*1A
 
7.89619         MSG_UDP              iDivisorNMEA    $MXPGN,01F804,281C,0000008093C1B419*6D
 
7.90639         MSG_UDP              iDivisorNMEA    $MXPGN,00FF3D,6808,7FFFFF0DFFFF9F41*6E
 
7.91659         MSG_UDP              iDivisorNMEA    $AGRSA,4.32,A,,V*4A
 
7.91665         ANGULO_LEME          iDivisorNMEA    4.32000      
7.92680         MSG_UDP              iDivisorNMEA    $MXPGN,00FF00,280B,0002000005049913*19
 
7.93701         MSG_UDP              iDivisorNMEA    $GPGGA,140800.300,2254.75279,S,04309.53850,W,1,07,2.00,-0.98,M,-5.00,M,,*56
 
7.94723         MSG_UDP              iDivisorNMEA    $GPGLL,2254.75279,S,04309.53850,W,140800.300,A,A*52
 
7.95743         MSG_UDP              iDivisorNMEA    $GPRMC,140800.300,A,2254.75279,S,04309.53850,W,0.01,188.58,060323,23.39,W,A*1E
 
7.96769         MSG_UDP              iDivisorNMEA    $GPVTG,188.58,T,,M,0.01,N,0.01,K,A*31
 
7.97789         MSG_UDP              iDivisorNMEA    $HCHDG,284.9,0.0,E,23.3,W*65
 
7.98809         MSG_UDP              iDivisorNMEA    $GPHDT,261.55,T*00
 
7.99834         MSG_UDP              iDivisorNMEA    $TIROT,1.59,A*06
 
8.00855         MSG_UDP              iDivisorNMEA    $MXPGN,00FF3C,3808,8000F8FE00009F41*1C
 
8.01876         MSG_UDP              iDivisorNMEA    $GPGSA,A,3,01,08,10,16,18,21,23,,,,,,2.56,2.00,2.00*07
 
8.02901         MSG_UDP              iDivisorNMEA    $GPGSV,2,1,07,01,01,224,00,08,45,254,48,10,32,141,00,16,04,325,42*7A
 
8.12434         MSG_UDP              iDivisorNMEA    $HCHDG,284.9,0.0,E,23.3,W*65
 
8.12444         MSG_UDP              iDivisorNMEA    $GPHDT,261.58,T*0D
 
8.13469         MSG_UDP              iDivisorNMEA    $TIROT,1.49,A*07
 
8.14497         MSG_UDP              iDivisorNMEA    $MXPGN,00FF00,280B,0002000005049913*19
 
8.15543         MSG_UDP              iDivisorNMEA    $MXPGN,00FF8C,6808,FFF10695FA149F41*18
 
8.16575         MSG_UDP              iDivisorNMEA    $MXPGN,01F803,281C,000000000000281C*1C
 
8.17595         MSG_UDP              iDivisorNMEA    $MXPGN,01F804,281C,00000023D7C1281C*1B
 
8.18617         MSG_UDP              iDivisorNMEA    $GPGGA,,2254.75629,S,04309.54269,W,1,,,,M,,M,,*5F
 
8.19642         MSG_UDP              iDivisorNMEA    $GPGLL,2254.75629,S,04309.54269,W,,A,A*44
 
8.20671         MSG_UDP              iDivisorNMEA    $GPVTG,7.40,T,,M,0.30,N,0.55,K,A*3D
 
8.21691         MSG_UDP              iDivisorNMEA    $AGRSA,4.32,A,,V*4A
 
8.21696         ANGULO_LEME          iDivisorNMEA    4.32000      
8.22716         MSG_UDP              iDivisorNMEA    !AIVDM,1,1,,A,1:U=<5wP31trMNqjq7fm:wv02@0G,0*34
 
8.23741         MSG_UDP              iDivisorNMEA    $HCHDG,284.9,0.0,E,23.3,W*65
 
8.24774         MSG_UDP              iDivisorNMEA    $GPHDT,261.60,T*06
 
8.25800         MSG_UDP              iDivisorNMEA    $TIROT,1.69,A*05
 
8.26870         MSG_UDP              iDivisorNMEA    $MXPGN,01F803,281C,0000000000003C1D*61
 
8.27892         MSG_UDP              iDivisorNMEA    $MXPGN,01F804,281C,00000023D7C13C1D*66
 
8.28920         MSG_UDP              iDivisorNMEA    $AGRSA,4.32,A,,V*4A
 
8.28931         ANGULO_LEME          iDivisorNMEA    4.32000      
8.29949         MSG_UDP              iDivisorNMEA    $GPZDA,140759.750,06,03,2023,,*5C
 
8.30969         MSG_UDP              iDivisorNMEA    $MXPGN,01FF0D,780B,FF030000989005E0*13
 
8.32422         MSG_UDP              iDivisorNMEA    $HCHDG,284.9,0.0,E,23.3,W*65
 
8.33051         MSG_UDP              iDivisorNMEA    $GPHDT,261.61,T*07
 
8.34074         MSG_UDP              iDivisorNMEA    $TIROT,1.69,A*05
 
8.35099         MSG_UDP              iDivisorNMEA    $MXPGN,01F803,281C,000000000000501E*15
 
8.36127         MSG_UDP              iDivisorNMEA    $MXPGN,01F804,281C,0000005149C1501E*69
 
8.37323         MSG_UDP              iDivisorNMEA    $AGRSA,4.32,A,,V*4A
 
8.37331         ANGULO_LEME          iDivisorNMEA    4.32000      
8.38248         MSG_UDP              iDivisorNMEA    $MXPGN,00FF00,280B,0002000005049913*19
 
8.42446         MSG_UDP              iDivisorNMEA    $HCHDG,284.9,0.0,E,23.3,W*65
 
8.42459         MSG_UDP              iDivisorNMEA    $GPHDT,261.61,T*07
 
8.43486         MSG_UDP              iDivisorNMEA    $TIROT,1.59,A*06
 
8.44932         MSG_UDP              iDivisorNMEA    $MXPGN,01F803,281C,000000000000641F*11
 
8.45560         MSG_UDP              iDivisorNMEA    $MXPGN,01F804,281C,0000005149C1641F*6D
 
8.47330         MSG_UDP              iDivisorNMEA    $AGRSA,4.32,A,,V*4A
 
8.47340         ANGULO_LEME          iDivisorNMEA    4.32000      
8.47666         MSG_UDP              iDivisorNMEA    $SDDPT,1.76,0.00,*7B
 
8.50724         MSG_UDP              iDivisorNMEA    !AIVDM,1,1,,A,1:U8?H0P1ItrK3EjqOM`@wv0280R,0*74
 
8.52433         MSG_UDP              iDivisorNMEA    $HCHDG,284.9,0.0,E,23.3,W*65
 
8.52452         MSG_UDP              iDivisorNMEA    $GPHDT,261.62,T*04
 
8.53484         MSG_UDP              iDivisorNMEA    $TIROT,1.59,A*06
 
8.54519         MSG_UDP              iDivisorNMEA    $MXPGN,01F803,281C,0000000000007820*69
 
8.55548         MSG_UDP              iDivisorNMEA    $MXPGN,01F804,281C,0000005149C17820*15
 
8.57324         MSG_UDP              iDivisorNMEA    $AGRSA,4.32,A,,V*4A
 
8.57332         ANGULO_LEME          iDivisorNMEA    4.32000      
8.62421         MSG_UDP              iDivisorNMEA    $HCHDG,284.9,0.0,E,23.3,W*65
 
8.62436         MSG_UDP              iDivisorNMEA    $GPHDT,261.62,T*04
 
8.63456         MSG_UDP              iDivisorNMEA    $TIROT,1.49,A*07
 
8.64485         MSG_UDP              iDivisorNMEA    $MXPGN,00FF00,280B,0002000005049913*19
 
8.65513         MSG_UDP              iDivisorNMEA    $MXPGN,01F803,281C,0000000000008C21*1C
 
8.66537         MSG_UDP              iDivisorNMEA    $MXPGN,01F804,281C,0000006251C18C21*69
 
8.67558         MSG_UDP              iDivisorNMEA    $AGRSA,4.32,A,,V*4A
 
8.67569         ANGULO_LEME          iDivisorNMEA    4.32000      
8.69720         MSG_UDP              iDivisorNMEA    !AIVDM,1,1,,A,1:U6uRCP00tr>s1jrFB;6wv225hP,0*1D
 
8.72426         MSG_UDP              iDivisorNMEA    $HCHDG,284.9,0.0,E,23.3,W*65
 
8.72449         MSG_UDP              iDivisorNMEA    $GPHDT,261.61,T*07
 
8.73474         MSG_UDP              iDivisorNMEA    $TIROT,1.49,A*07
 
8.74499         MSG_UDP              iDivisorNMEA    $MXPGN,01FF1A,680B,FF022B849F410580*64
 
8.75529         MSG_UDP              iDivisorNMEA    $MXPGN,00FF28,3808,FF08FFFDFC059F41*19
 
8.76560         MSG_UDP              iDivisorNMEA    $MXPGN,01F803,281C,000000000000A022*15
 
8.77631         MSG_UDP              iDivisorNMEA    $MXPGN,01F804,281C,0000006251C1A022*60
 
8.78659         MSG_UDP              iDivisorNMEA    $MXPGN,01FF1A,782B,FF010B049F410520*64
 
8.79690         MSG_UDP              iDivisorNMEA    $AGRSA,4.32,A,,V*4A
 
8.79700         ANGULO_LEME          iDivisorNMEA    4.32000      
8.82417         MSG_UDP              iDivisorNMEA    $HCHDG,284.9,0.0,E,23.3,W*65
 
8.82438         MSG_UDP              iDivisorNMEA    $GPHDT,261.61,T*07
 
8.83466         MSG_UDP              iDivisorNMEA    $TIROT,1.49,A*07
 
8.84487         MSG_UDP              iDivisorNMEA    $MXPGN,01FF2C,7808,FFFFFFFF9F411700*6B
 
8.85508         MSG_UDP              iDivisorNMEA    $MXPGN,01FF2C,7808,FFFF7FFFFFFF7F01*16
 
8.86528         MSG_UDP              iDivisorNMEA    $MXPGN,01FF2C,7808,FF7FFFFFFFFFFF02*64
 
9.02431         MSG_UDP              iDivisorNMEA    $HCHDG,284.9,0.0,E,23.3,W*65
 
9.02442         MSG_UDP              iDivisorNMEA    $GPHDT,261.62,T*04
 
9.03471         MSG_UDP              iDivisorNMEA    $TIROT,1.29,A*01
 
9.04498         MSG_UDP              iDivisorNMEA    $MXPGN,00FF16,7808,FF0000002B0A9F41*1B
 
9.05528         MSG_UDP              iDivisorNMEA    $MXPGN,00FF19,7808,0000000202009F41*15
 
9.06554         MSG_UDP              iDivisorNMEA    $MXPGN,01F803,281C,0000000000002825*69
 
9.07580         MSG_UDP              iDivisorNMEA    $MXPGN,01F804,281C,000000803DC12825*63
 
9.08606         MSG_UDP              iDivisorNMEA    !AIVDM,1,1,,A,1:U7uhP01BLrN4ajqSFn@E4400SL,0*1E
 
9.09626         MSG_UDP              iDivisorNMEA    $AGRSA,4.32,A,,V*4A
 
9.09632         ANGULO_LEME          iDivisorNMEA    4.32000      
9.10652         MSG_UDP              iDivisorNMEA    $MXPGN,00FF19,7808,0080000A0A009F41*1D
 
9.12435         MSG_UDP              iDivisorNMEA    $HCHDG,284.9,0.0,E,23.3,W*65
 
9.12758         MSG_UDP              iDivisorNMEA    $GPHDT,261.62,T*04
 
9.13791         MSG_UDP              iDivisorNMEA    $TIROT,0.99,A*0B
 
9.14814         MSG_UDP              iDivisorNMEA    $MXPGN,00FF00,280B,0002000005049913*19
 
9.15838         MSG_UDP              iDivisorNMEA    $MXPGN,00FF8C,6808,FFF10695FA149F41*18
 
