%%%%%%%%%%%%%%%%%%%%%%%%%%%%%%%%%%%%%%%%%%%%%%%%%%%%%%%%%%%
%% LOG FILE:       /home/moos-ivp-douglas/log/teste_7_3_2023_____10_32_55/teste_7_3_2023_____10_32_55.alog
%% FILE OPENED ON  Wed Dec 31 21:00:00 1969
%% LOGSTART           1678195975.072499
%%%%%%%%%%%%%%%%%%%%%%%%%%%%%%%%%%%%%%%%%%%%%%%%%%%%%%%%%%%
-0.04204        MOOS_DEBUG           pHelmIvP        pHelmIvP AllStop: ManualOverride 
-0.04203        DESIRED_SPEED        pHelmIvP        0.00000      
-0.04203        DESIRED_HEADING      pHelmIvP        0.00000      
0.16718         DESIRED_RUDDER       pMarinePIDV22   0.00000      
0.16718         DESIRED_THRUST       pMarinePIDV22   0.00000      
0.75215         MSG_UDP              iDivisorNMEA    $AGRSA,-0.90,A,,V*6B
 
0.75218         ANGULO_LEME          iDivisorNMEA    -0.90000     
0.79980         MSG_UDP              iDivisorNMEA    $HCHDG,284.1,0.0,E,23.3,W*6D
 
0.80016         MSG_UDP              iDivisorNMEA    $GPHDT,260.78,T*0E
 
0.81035         MSG_UDP              iDivisorNMEA    $TIROT,-0.99,A*26
 
0.82055         MSG_UDP              iDivisorNMEA    $MXPGN,01FF0D,780B,FF03000098900580*6E
 
0.83073         MSG_UDP              iDivisorNMEA    $MXPGN,01FF1A,680B,FF022B849F410540*68
 
0.84093         MSG_UDP              iDivisorNMEA    $MXPGN,01FF1A,782B,FF010B049F4105C0*15
 
0.85111         MSG_UDP              iDivisorNMEA    $MXPGN,01F803,281C,000000000000B442*14
 
0.86129         MSG_UDP              iDivisorNMEA    $MXPGN,01F804,281C,00000080A2C1B442*1A
 
0.87148         MSG_UDP              iDivisorNMEA    $GPGGA,133255.000,2254.75589,S,04309.53875,W,1,12,0.90,3.67,M,-5.60,M,,*73
 
0.88164         MSG_UDP              iDivisorNMEA    $GPGLL,2254.75589,S,04309.53875,W,133255.000,A,A*50
 
0.89182         MSG_UDP              iDivisorNMEA    $GPRMC,133255.000,A,2254.75589,S,04309.53875,W,0.19,0.00,070323,23.30,W,A*11
 
0.90205         MSG_UDP              iDivisorNMEA    $GPVTG,0.00,T,,M,0.19,N,0.35,K,A*33
 
0.91225         MSG_UDP              iDivisorNMEA    $AGRSA,-0.90,A,,V*6B
 
0.91230         ANGULO_LEME          iDivisorNMEA    -0.90000     
0.92245         MSG_UDP              iDivisorNMEA    $SDDPT,1.79,0.00,*74
 
0.93263         MSG_UDP              iDivisorNMEA    $HCHDG,284.1,0.0,E,23.3,W*6D
 
0.94284         MSG_UDP              iDivisorNMEA    $GPHDT,260.79,T*0F
 
0.95300         MSG_UDP              iDivisorNMEA    $TIROT,-0.99,A*26
 
0.96321         MSG_UDP              iDivisorNMEA    $MXPGN,01F803,281C,000000000000C843*18
 
0.97336         MSG_UDP              iDivisorNMEA    $MXPGN,01F804,281C,00000080A2C1C843*16
 
0.98355         MSG_UDP              iDivisorNMEA    $AGRSA,-0.90,A,,V*6B
 
0.98359         ANGULO_LEME          iDivisorNMEA    -0.90000     
0.99376         MSG_UDP              iDivisorNMEA    $MXPGN,00FF00,280B,0002000005049913*19
 
1.00395         MSG_UDP              iDivisorNMEA    $HCHDG,284.1,0.0,E,23.3,W*6D
 
1.01412         MSG_UDP              iDivisorNMEA    $GPHDT,260.79,T*0F
 
1.02431         MSG_UDP              iDivisorNMEA    $TIROT,-0.79,A*28
 
1.03450         MSG_UDP              iDivisorNMEA    $GPGSA,A,3,08,10,16,18,21,23,26,,,,,,2.28,1.79,1.79*0B
 
1.04465         MSG_UDP              iDivisorNMEA    $GPGSV,2,1,07,08,38,235,45,10,40,155,00,16,11,313,41,18,19,073,36*7C
 
1.05487         MSG_UDP              iDivisorNMEA    $GPGSV,2,2,07,21,08,224,00,23,16,128,00,26,02,348,41*40
 
1.06505         MSG_UDP              iDivisorNMEA    $MXPGN,01FA06,681C,88010100C8430F80*1E
 
1.07534         MSG_UDP              iDivisorNMEA    $MXPGN,01FA06,681C,008E00FEEDAB0081*69
 
1.08545         MSG_UDP              iDivisorNMEA    $MXPGN,01FA06,681C,FFFFFFFFFF017A82*61
 
1.09563         MSG_UDP              iDivisorNMEA    $MXPGN,01F803,281C,0000000000000043*63
 
1.10577         MSG_UDP              iDivisorNMEA    $MXPGN,01F804,281C,0000002E34C10043*66
 
1.11595         MSG_UDP              iDivisorNMEA    $GPGGA,133256.000,2254.75330,S,04309.53829,W,1,07,1.79,0.78,M,-5.00,M,,*74
 
1.12612         MSG_UDP              iDivisorNMEA    $GPGLL,2254.75330,S,04309.53829,W,133256.000,A,A*5E
 
1.13626         MSG_UDP              iDivisorNMEA    $GPRMC,133256.000,A,2254.75330,S,04309.53829,W,0.01,188.67,070323,23.39,W,A*1F
 
1.14643         MSG_UDP              iDivisorNMEA    $GPVTG,188.67,T,,M,0.01,N,0.01,K,A*3D
 
1.15662         MSG_UDP              iDivisorNMEA    $AGRSA,-0.90,A,,V*6B
 
1.15666         ANGULO_LEME          iDivisorNMEA    -0.90000     
1.16681         MSG_UDP              iDivisorNMEA    $HCHDG,284.1,0.0,E,23.3,W*6D
 
1.17697         MSG_UDP              iDivisorNMEA    $GPHDT,260.79,T*0F
 
1.18718         MSG_UDP              iDivisorNMEA    $TIROT,-0.79,A*28
 
1.19734         MSG_UDP              iDivisorNMEA    $MXPGN,01F803,281C,0000000000002845*6F
 
1.20755         MSG_UDP              iDivisorNMEA    $MXPGN,01F804,281C,0000002E34C12845*6A
 
1.43741         MSG_UDP              iDivisorNMEA    $MXPGN,01F803,281C,0000000000006448*6A
 
1.43749         MSG_UDP              iDivisorNMEA    $MXPGN,01F804,281C,0000008B8BC16448*1F
 
1.44936         MSG_UDP              iDivisorNMEA    $AGRSA,-0.90,A,,V*6B
 
1.44941         ANGULO_LEME          iDivisorNMEA    -0.90000     
1.47133         MSG_UDP              iDivisorNMEA    $MXPGN,00FF00,280B,0002000005049913*19
 
1.47422         MSG_UDP              iDivisorNMEA    $MXPGN,00FF16,7808,FF0000002B0A9F41*1B
 
1.49528         MSG_UDP              iDivisorNMEA    $MXPGN,00FF19,7808,0000000202009F41*15
 
1.50037         MSG_UDP              iDivisorNMEA    $HCHDG,284.1,0.0,E,23.3,W*6D
 
1.50556         MSG_UDP              iDivisorNMEA    $GPHDT,260.81,T*08
 
1.51571         MSG_UDP              iDivisorNMEA    $TIROT,-0.49,A*2B
 
1.52584         MSG_UDP              iDivisorNMEA    $MXPGN,00FF19,7808,0080000A0A009F41*1D
 
1.53738         MSG_UDP              iDivisorNMEA    $MXPGN,01F803,281C,0000000000007849*66
 
1.54653         MSG_UDP              iDivisorNMEA    $MXPGN,01F804,281C,0000008B8BC17849*13
 
1.55665         MSG_UDP              iDivisorNMEA    $GPGGA,,2254.77709,S,04309.53799,W,1,,,,M,,M,,*53
 
1.56681         MSG_UDP              iDivisorNMEA    $GPGLL,2254.77709,S,04309.53799,W,,A,A*48
 
1.57716         MSG_UDP              iDivisorNMEA    $GPVTG,355.60,T,,M,1.40,N,2.59,K,A*33
 
1.58728         MSG_UDP              iDivisorNMEA    $AGRSA,-0.90,A,,V*6B
 
1.58732         ANGULO_LEME          iDivisorNMEA    -0.90000     
1.59745         MSG_UDP              iDivisorNMEA    $MXPGN,00FF8C,6808,FFF10695C9409F41*64
 
1.60758         MSG_UDP              iDivisorNMEA    $HCHDG,284.1,0.0,E,23.3,W*6D
 
1.61771         MSG_UDP              iDivisorNMEA    $GPHDT,260.83,T*0A
 
1.62788         MSG_UDP              iDivisorNMEA    $TIROT,-0.29,A*2D
 
1.63801         MSG_UDP              iDivisorNMEA    $MXPGN,01F803,281C,0000000000008C4A*6A
 
1.64814         MSG_UDP              iDivisorNMEA    $MXPGN,01F804,281C,0000008B8BC18C4A*1F
 
1.65822         MSG_UDP              iDivisorNMEA    $AGRSA,-0.90,A,,V*6B
 
1.65825         ANGULO_LEME          iDivisorNMEA    -0.90000     
1.66837         MSG_UDP              iDivisorNMEA    $GPZDA,133256.560,07,03,2023,,*52
 
1.70083         MSG_UDP              iDivisorNMEA    $HCHDG,284.1,0.0,E,23.3,W*6D
 
1.70086         MSG_UDP              iDivisorNMEA    $GPHDT,260.83,T*0A
 
1.71102         MSG_UDP              iDivisorNMEA    $TIROT,-0.29,A*2D
 
1.72164         MSG_UDP              iDivisorNMEA    $MXPGN,00FF00,280B,0002000005049913*19
 
1.73786         MSG_UDP              iDivisorNMEA    $MXPGN,01F803,281C,000000000000A04B*63
 
1.74210         MSG_UDP              iDivisorNMEA    $MXPGN,01F804,281C,000000AD90C1A04B*1A
 
1.75227         MSG_UDP              iDivisorNMEA    $AGRSA,-0.96,A,,V*6D
 
1.75230         ANGULO_LEME          iDivisorNMEA    -0.96000     
1.80069         MSG_UDP              iDivisorNMEA    $HCHDG,284.1,0.0,E,23.3,W*6D
 
1.80085         MSG_UDP              iDivisorNMEA    $GPHDT,260.83,T*0A
 
1.81111         MSG_UDP              iDivisorNMEA    $TIROT,0.00,A*0B
 
1.82132         MSG_UDP              iDivisorNMEA    $MXPGN,01FF0D,780B,FF030000989005A0*17
 
1.83150         MSG_UDP              iDivisorNMEA    $MXPGN,01FF1A,680B,FF022B849F410560*6A
 
1.84168         MSG_UDP              iDivisorNMEA    $MXPGN,01FF1A,782B,FF010B049F4105E0*13
 
1.85187         MSG_UDP              iDivisorNMEA    $MXPGN,01F803,281C,000000000000B44C*65
 
1.86206         MSG_UDP              iDivisorNMEA    $MXPGN,01F804,281C,000000AD90C1B44C*1C
 
1.87226         MSG_UDP              iDivisorNMEA    $GPGGA,133256.000,2254.75602,S,04309.53875,W,1,12,0.90,3.80,M,-5.60,M,,*79
 
1.88248         MSG_UDP              iDivisorNMEA    $GPGLL,2254.75602,S,04309.53875,W,133256.000,A,A*53
 
1.89266         MSG_UDP              iDivisorNMEA    $GPRMC,133256.000,A,2254.75602,S,04309.53875,W,0.19,0.00,070323,23.30,W,A*12
 
1.90286         MSG_UDP              iDivisorNMEA    $GPVTG,0.00,T,,M,0.19,N,0.35,K,A*33
 
1.91304         MSG_UDP              iDivisorNMEA    $AGRSA,-0.96,A,,V*6D
 
1.91309         ANGULO_LEME          iDivisorNMEA    -0.96000     
1.92324         MSG_UDP              iDivisorNMEA    $SDDPT,1.81,0.00,*73
 
1.93338         MSG_UDP              iDivisorNMEA    !AIVDM,1,1,,B,1:U8JFPP0ULrUGIjq`@ki?wj25b0,0*01
 
1.94351         MSG_UDP              iDivisorNMEA    $HCHDG,284.1,0.0,E,23.3,W*6D
 
1.95372         MSG_UDP              iDivisorNMEA    $GPHDT,260.83,T*0A
 
1.96389         MSG_UDP              iDivisorNMEA    $TIROT,0.00,A*0B
 
1.97408         MSG_UDP              iDivisorNMEA    $MXPGN,01F803,281C,000000000000C84D*6F
 
1.98432         MSG_UDP              iDivisorNMEA    $MXPGN,01F804,281C,000000AD90C1C84D*16
 
1.99477         MSG_UDP              iDivisorNMEA    $AGRSA,-0.90,A,,V*6B
 
1.99482         ANGULO_LEME          iDivisorNMEA    -0.90000     
2.00500         MSG_UDP              iDivisorNMEA    $MXPGN,00FF00,280B,0002000005049913*19
 
2.01514         MSG_UDP              iDivisorNMEA    $HCHDG,284.1,0.0,E,23.3,W*6D
 
2.02543         MSG_UDP              iDivisorNMEA    $GPHDT,260.84,T*0D
 
2.03561         MSG_UDP              iDivisorNMEA    $TIROT,0.00,A*0B
 
2.04596         MSG_UDP              iDivisorNMEA    !AIVDO,1,1,,,B:UOH3P037>VtELf>KoNCwt5oP06,0*73
 
2.05610         MSG_UDP              iDivisorNMEA    $GPGSA,A,3,08,10,16,18,21,23,26,,,,,,2.28,1.79,1.79*0B
 
2.06621         MSG_UDP              iDivisorNMEA    $GPGSV,2,1,07,08,38,235,45,10,40,155,00,16,11,313,41,18,19,073,36*7C
 
2.07653         MSG_UDP              iDivisorNMEA    $GPGSV,2,2,07,21,08,224,00,23,16,128,00,26,02,348,41*40
 
2.08676         MSG_UDP              iDivisorNMEA    $MXPGN,01FA06,681C,88010100C84D0FA0*10
 
2.09701         MSG_UDP              iDivisorNMEA    $MXPGN,01FA06,681C,008E00FEEDAB00A1*10
 
2.10732         MSG_UDP              iDivisorNMEA    $MXPGN,01FA06,681C,FFFFFFFFFF017AA2*18
 
2.11765         MSG_UDP              iDivisorNMEA    $MXPGN,01F803,281C,000000000000004D*14
 
2.30120         MSG_UDP              iDivisorNMEA    $HCHDG,284.1,0.0,E,23.3,W*6D
 
2.30141         MSG_UDP              iDivisorNMEA    $GPHDT,260.83,T*0A
 
2.31171         MSG_UDP              iDivisorNMEA    $TIROT,-0.19,A*2E
 
2.33834         MSG_UDP              iDivisorNMEA    $MXPGN,01F803,281C,0000000000005051*65
 
2.33920         MSG_UDP              iDivisorNMEA    $MXPGN,01F804,281C,000000E8EBC15051*6A
 
2.35017         MSG_UDP              iDivisorNMEA    $AGRSA,-0.96,A,,V*6D
 
2.35032         ANGULO_LEME          iDivisorNMEA    -0.96000     
2.36057         MSG_UDP              iDivisorNMEA    $GPGSA,A,3,08,16,18,21,27,28,31,32,66,65,86,87,1.40,0.90,1.10*05
 
2.37083         MSG_UDP              iDivisorNMEA    $GPGSV,3,1,12,08,39,236,34,16,12,314,44,18,19,073,26,21,09,224,21*74
 
2.38116         MSG_UDP              iDivisorNMEA    $GPGSV,3,2,12,27,63,281,37,28,17,026,43,31,12,017,39,32,78,092,44*73
 
2.39145         MSG_UDP              iDivisorNMEA    $GPGSV,3,3,12,66,14,314,42,65,61,271,36,86,32,051,43,87,67,149,44*74
 
2.40177         MSG_UDP              iDivisorNMEA    $MXPGN,00FF3C,3808,8000F8FE00009F41*1C
 
2.41198         MSG_UDP              iDivisorNMEA    $HCHDG,284.1,0.0,E,23.3,W*6D
 
2.42223         MSG_UDP              iDivisorNMEA    $GPHDT,260.83,T*0A
 
2.43251         MSG_UDP              iDivisorNMEA    $TIROT,0.09,A*02
 
2.44276         MSG_UDP              iDivisorNMEA    $MXPGN,01F803,281C,0000000000006452*61
 
2.45303         MSG_UDP              iDivisorNMEA    $MXPGN,01F804,281C,000000A9B2C16452*1C
 
2.46332         MSG_UDP              iDivisorNMEA    $AGRSA,-0.96,A,,V*6D
 
2.46343         ANGULO_LEME          iDivisorNMEA    -0.96000     
2.47545         MSG_UDP              iDivisorNMEA    $MXPGN,00FF16,7808,FF0000002B0A9F41*1B
 
2.49633         MSG_UDP              iDivisorNMEA    $MXPGN,00FF19,7808,0000000202009F41*15
 
2.50135         MSG_UDP              iDivisorNMEA    $HCHDG,284.1,0.0,E,23.3,W*6D
 
2.50766         MSG_UDP              iDivisorNMEA    $GPHDT,260.84,T*0D
 
2.51794         MSG_UDP              iDivisorNMEA    $TIROT,0.09,A*02
 
2.52819         MSG_UDP              iDivisorNMEA    $MXPGN,00FF19,7808,0080000A0A009F41*1D
 
2.53840         MSG_UDP              iDivisorNMEA    $MXPGN,00FF00,280B,0002000005049913*19
 
2.54867         MSG_UDP              iDivisorNMEA    $MXPGN,01F803,281C,0000000000007853*6D
 
2.55897         MSG_UDP              iDivisorNMEA    $MXPGN,01F804,281C,000000A9B2C17853*10
 
2.56931         MSG_UDP              iDivisorNMEA    $GPGGA,,2254.77789,S,04309.53809,W,1,,,,M,,M,,*5D
 
2.57959         MSG_UDP              iDivisorNMEA    $GPGLL,2254.77789,S,04309.53809,W,,A,A*46
 
2.58983         MSG_UDP              iDivisorNMEA    $GPVTG,355.60,T,,M,1.20,N,2.22,K,A*39
 
2.60009         MSG_UDP              iDivisorNMEA    $AGRSA,-0.90,A,,V*6B
 
2.60018         ANGULO_LEME          iDivisorNMEA    -0.90000     
2.61038         MSG_UDP              iDivisorNMEA    $MXPGN,00FF8C,6808,FFF10695C9409F41*64
 
2.62064         MSG_UDP              iDivisorNMEA    $HCHDG,284.1,0.0,E,23.3,W*6D
 
2.63093         MSG_UDP              iDivisorNMEA    $GPHDT,260.84,T*0D
 
2.64129         MSG_UDP              iDivisorNMEA    $TIROT,0.19,A*03
 
2.65155         MSG_UDP              iDivisorNMEA    $MXPGN,01F803,281C,0000000000008C54*1E
 
2.66182         MSG_UDP              iDivisorNMEA    $MXPGN,01F804,281C,000000A9B2C18C54*63
 
2.67207         MSG_UDP              iDivisorNMEA    $AGRSA,-0.90,A,,V*6B
 
2.67215         ANGULO_LEME          iDivisorNMEA    -0.90000     
2.68237         MSG_UDP              iDivisorNMEA    $GPZDA,133257.560,07,03,2023,,*53
 
2.70161         MSG_UDP              iDivisorNMEA    $HCHDG,284.1,0.0,E,23.3,W*6D
 
2.70286         MSG_UDP              iDivisorNMEA    $GPHDT,260.83,T*0A
 
2.71314         MSG_UDP              iDivisorNMEA    $TIROT,0.19,A*03
 
2.73974         MSG_UDP              iDivisorNMEA    $MXPGN,01F803,281C,0000000000008C54*1E
 
2.74058         MSG_UDP              iDivisorNMEA    $MXPGN,01F804,281C,000000C859C18C54*1C
 
2.75081         MSG_UDP              iDivisorNMEA    $AGRSA,-0.90,A,,V*6B
 
2.75091         ANGULO_LEME          iDivisorNMEA    -0.90000     
2.77173         MSG_UDP              iDivisorNMEA    $MXPGN,01FF22,2808,FF01FFFF9F410C40*6F
 
2.77259         MSG_UDP              iDivisorNMEA    $MXPGN,01FF22,2808,FFFF00000A003941*1D
 
2.78291         MSG_UDP              iDivisorNMEA    $MXPGN,00FF00,280B,0002000005049913*19
 
2.80164         MSG_UDP              iDivisorNMEA    $HCHDG,284.1,0.0,E,23.3,W*6D
 
2.80391         MSG_UDP              iDivisorNMEA    $GPHDT,260.83,T*0A
 
2.81422         MSG_UDP              iDivisorNMEA    $TIROT,0.19,A*03
 
2.82447         MSG_UDP              iDivisorNMEA    $MXPGN,01FF0D,780B,FF030000989005C0*15
 
2.83477         MSG_UDP              iDivisorNMEA    $MXPGN,01FF1A,680B,FF022B849F410580*64
 
2.84498         MSG_UDP              iDivisorNMEA    $MXPGN,01FF1A,782B,FF010B049F410500*66
 
2.85525         MSG_UDP              iDivisorNMEA    $MXPGN,01F803,281C,000000000000A055*15
 
2.86553         MSG_UDP              iDivisorNMEA    $MXPGN,01F804,281C,000000C859C1A055*17
 
2.87584         MSG_UDP              iDivisorNMEA    $GPGGA,133257.000,2254.75615,S,04309.53877,W,1,12,0.90,3.86,M,-5.60,M,,*7A
 
2.88623         MSG_UDP              iDivisorNMEA    $GPGLL,2254.75615,S,04309.53877,W,133257.000,A,A*56
 
2.89652         MSG_UDP              iDivisorNMEA    $GPRMC,133257.000,A,2254.75615,S,04309.53877,W,0.19,0.00,070323,23.30,W,A*17
 
2.90685         MSG_UDP              iDivisorNMEA    $GPVTG,0.00,T,,M,0.19,N,0.35,K,A*33
 
2.91713         MSG_UDP              iDivisorNMEA    $AGRSA,-0.90,A,,V*6B
 
2.91722         ANGULO_LEME          iDivisorNMEA    -0.90000     
2.92751         MSG_UDP              iDivisorNMEA    $SDDPT,1.81,0.00,*73
 
2.93780         MSG_UDP              iDivisorNMEA    $MXPGN,01FF1A,782B,FFFAFF859F410520*19
 
2.94808         MSG_UDP              iDivisorNMEA    $HCHDG,284.1,0.0,E,23.3,W*6D
 
2.95830         MSG_UDP              iDivisorNMEA    $GPHDT,260.83,T*0A
 
3.20198         MSG_UDP              iDivisorNMEA    $HCHDG,284.1,0.0,E,23.3,W*6D
 
3.20202         MSG_UDP              iDivisorNMEA    $GPHDT,260.84,T*0D
 
3.21237         MSG_UDP              iDivisorNMEA    $TIROT,0.09,A*02
 
3.23898         MSG_UDP              iDivisorNMEA    $MXPGN,01F803,281C,0000000000003C5A*60
 
3.23927         MSG_UDP              iDivisorNMEA    $MXPGN,01F804,281C,000000A5E6C13C5A*12
 
3.25097         MSG_UDP              iDivisorNMEA    $AGRSA,-0.90,A,,V*6B
 
3.25110         ANGULO_LEME          iDivisorNMEA    -0.90000     
3.27222         MSG_UDP              iDivisorNMEA    $MXPGN,01FF2C,7808,FFFFFFFF9F4117C0*18
 
3.27302         MSG_UDP              iDivisorNMEA    $MXPGN,01FF2C,7808,FFFF7FFFFFFF7FC1*65
 
3.28330         MSG_UDP              iDivisorNMEA    $MXPGN,01FF2C,7808,FF7FFFFFFFFFFFC2*17
 
3.29361         MSG_UDP              iDivisorNMEA    $MXPGN,00FF00,280B,0002000005049913*19
 
3.30399         MSG_UDP              iDivisorNMEA    $MXPGN,01FF2C,7808,FFFFFFFF7FFFFFC3*16
 
3.31427         MSG_UDP              iDivisorNMEA    $MXPGN,00FF3D,6808,7FFFFF0DFFFF9F41*6E
 
3.32453         MSG_UDP              iDivisorNMEA    $HCHDG,284.1,0.0,E,23.3,W*6D
 
3.33478         MSG_UDP              iDivisorNMEA    $GPHDT,260.84,T*0D
 
3.34504         MSG_UDP              iDivisorNMEA    $TIROT,0.09,A*02
 
3.35528         MSG_UDP              iDivisorNMEA    $MXPGN,01F803,281C,000000000000505B*16
 
3.36552         MSG_UDP              iDivisorNMEA    $MXPGN,01F804,281C,000000A5E6C1505B*64
 
3.37579         MSG_UDP              iDivisorNMEA    $AGRSA,-0.90,A,,V*6B
 
3.37587         ANGULO_LEME          iDivisorNMEA    -0.90000     
3.38609         MSG_UDP              iDivisorNMEA    $MXPGN,00FF3C,3808,8000F8FE00009F41*1C
 
3.40221         MSG_UDP              iDivisorNMEA    $HCHDG,284.2,0.0,E,23.3,W*6E
 
3.40645         MSG_UDP              iDivisorNMEA    $GPHDT,260.85,T*0C
 
3.41672         MSG_UDP              iDivisorNMEA    $TIROT,0.19,A*03
 
3.42702         MSG_UDP              iDivisorNMEA    $GPGSA,A,3,08,16,18,21,27,28,31,32,66,65,86,87,1.40,0.90,1.10*05
 
3.43736         MSG_UDP              iDivisorNMEA    $GPGSV,3,1,12,08,39,236,34,16,12,314,44,18,19,073,25,21,09,224,21*77
 
3.44767         MSG_UDP              iDivisorNMEA    $GPGSV,3,2,12,27,63,281,37,28,17,026,44,31,12,017,39,32,78,092,44*74
 
3.45797         MSG_UDP              iDivisorNMEA    $GPGSV,3,3,12,66,14,314,42,65,61,271,36,86,32,051,43,87,67,149,44*74
 
3.46825         MSG_UDP              iDivisorNMEA    $MXPGN,01F803,281C,000000000000645C*10
 
3.47858         MSG_UDP              iDivisorNMEA    $MXPGN,01F804,281C,00000066E2C1645C*12
 
3.48881         MSG_UDP              iDivisorNMEA    $AGRSA,-0.90,A,,V*6B
 
3.48888         ANGULO_LEME          iDivisorNMEA    -0.90000     
3.49903         MSG_UDP              iDivisorNMEA    $MXPGN,00FF16,7808,FF0000002B0A9F41*1B
 
3.50933         MSG_UDP              iDivisorNMEA    $MXPGN,00FF19,7808,0000000202009F41*15
 
3.51957         MSG_UDP              iDivisorNMEA    $HCHDG,284.2,0.0,E,23.3,W*6E
 
3.52983         MSG_UDP              iDivisorNMEA    $GPHDT,260.85,T*0C
 
3.54007         MSG_UDP              iDivisorNMEA    $TIROT,0.19,A*03
 
3.55031         MSG_UDP              iDivisorNMEA    $MXPGN,00FF19,7808,0080000A0A009F41*1D
 
3.56060         MSG_UDP              iDivisorNMEA    $MXPGN,00FF00,280B,0002000005049913*19
 
3.57088         MSG_UDP              iDivisorNMEA    $MXPGN,01F803,281C,000000000000785D*1A
 
3.58119         MSG_UDP              iDivisorNMEA    $MXPGN,01F804,281C,00000066E2C1785D*18
 
3.59141         MSG_UDP              iDivisorNMEA    $GPGGA,,2254.77789,S,04309.53809,W,1,,,,M,,M,,*5D
 
3.60164         MSG_UDP              iDivisorNMEA    $GPGLL,2254.77789,S,04309.53809,W,,A,A*46
 
3.61187         MSG_UDP              iDivisorNMEA    $GPVTG,355.60,T,,M,1.20,N,2.22,K,A*39
 
3.62213         MSG_UDP              iDivisorNMEA    $AGRSA,-0.96,A,,V*6D
 
3.62219         ANGULO_LEME          iDivisorNMEA    -0.96000     
3.63235         MSG_UDP              iDivisorNMEA    $MXPGN,00FF8C,6808,FFF10695C9409F41*64
 
3.64259         MSG_UDP              iDivisorNMEA    $HCHDG,284.2,0.0,E,23.3,W*6E
 
3.65286         MSG_UDP              iDivisorNMEA    $GPHDT,260.85,T*0C
 
3.66317         MSG_UDP              iDivisorNMEA    $TIROT,0.49,A*06
 
3.67345         MSG_UDP              iDivisorNMEA    !AIVDM,1,1,,B,1:U7?1@P2:trJmqjqF>:jgwj2D2V,0*51
 
3.68368         MSG_UDP              iDivisorNMEA    $MXPGN,01F803,281C,0000000000008C5E*6F
 
3.69393         MSG_UDP              iDivisorNMEA    $MXPGN,01F804,281C,00000066E2C18C5E*6D
 
3.70422         MSG_UDP              iDivisorNMEA    $AGRSA,-0.96,A,,V*6D
 
3.70431         ANGULO_LEME          iDivisorNMEA    -0.96000     
3.71505         MSG_UDP              iDivisorNMEA    $GPZDA,133258.560,07,03,2023,,*5C
 
3.72534         MSG_UDP              iDivisorNMEA    $HCHDG,284.1,0.0,E,23.3,W*6D
 
3.73560         MSG_UDP              iDivisorNMEA    $GPHDT,260.84,T*0D
 
3.74585         MSG_UDP              iDivisorNMEA    $TIROT,0.49,A*06
 
3.75605         MSG_UDP              iDivisorNMEA    $MXPGN,01F803,281C,0000000000008C5E*6F
 
3.76627         MSG_UDP              iDivisorNMEA    $MXPGN,01F804,281C,0000007431C18C5E*1B
 
3.77654         MSG_UDP              iDivisorNMEA    $AGRSA,-0.90,A,,V*6B
 
3.77662         ANGULO_LEME          iDivisorNMEA    -0.90000     
3.78685         MSG_UDP              iDivisorNMEA    $MXPGN,00FF00,280B,0002000005049913*19
 
3.80254         MSG_UDP              iDivisorNMEA    $HCHDG,284.1,0.0,E,23.3,W*6D
 
3.80784         MSG_UDP              iDivisorNMEA    $GPHDT,260.84,T*0D
 
3.81811         MSG_UDP              iDivisorNMEA    $TIROT,0.49,A*06
 
3.82832         MSG_UDP              iDivisorNMEA    $MXPGN,01FF1A,680B,FF022B849F4105A0*1D
 
3.83861         MSG_UDP              iDivisorNMEA    $MXPGN,01FF1A,782B,FF010B049F410520*64
 
3.84888         MSG_UDP              iDivisorNMEA    $MXPGN,01F803,281C,000000000000A05F*66
 
4.09771         MSG_UDP              iDivisorNMEA    !AIVDM,1,1,,A,3539a0000CtrQ=QjrikF@E?l2P<C,0*24
 
4.10269         MSG_UDP              iDivisorNMEA    $HCHDG,284.1,0.0,E,23.3,W*6D
 
4.10886         MSG_UDP              iDivisorNMEA    $GPHDT,260.83,T*0A
 
4.11901         MSG_UDP              iDivisorNMEA    $TIROT,0.19,A*03
 
4.13999         MSG_UDP              iDivisorNMEA    $MXPGN,01F803,281C,0000000000001461*66
 
4.14066         MSG_UDP              iDivisorNMEA    $MXPGN,01F804,281C,0000636394C11461*1E
 
4.15165         MSG_UDP              iDivisorNMEA    $AGRSA,-0.96,A,,V*6D
 
4.15168         ANGULO_LEME          iDivisorNMEA    -0.96000     
4.17273         MSG_UDP              iDivisorNMEA    $MXPGN,00FF28,3808,FF08FFFDFC059F41*19
 
4.20277         MSG_UDP              iDivisorNMEA    $HCHDG,284.1,0.0,E,23.3,W*6D
 
4.20301         MSG_UDP              iDivisorNMEA    $GPHDT,260.81,T*08
 
4.21318         MSG_UDP              iDivisorNMEA    $TIROT,-0.19,A*2E
 
4.23985         MSG_UDP              iDivisorNMEA    $MXPGN,01F803,281C,0000000000001461*66
 
4.24107         MSG_UDP              iDivisorNMEA    $MXPGN,01F804,281C,0000636394C11461*1E
 
4.25193         MSG_UDP              iDivisorNMEA    $AGRSA,-0.96,A,,V*6D
 
4.25199         ANGULO_LEME          iDivisorNMEA    -0.96000     
4.27285         MSG_UDP              iDivisorNMEA    $MXPGN,01FF2C,7808,FFFFFFFF9F4117E0*1E
 
4.27375         MSG_UDP              iDivisorNMEA    $MXPGN,01FF2C,7808,FFFF7FFFFFFF7FE1*63
 
4.28390         MSG_UDP              iDivisorNMEA    $MXPGN,01FF2C,7808,FF7FFFFFFFFFFFE2*11
 
4.29402         MSG_UDP              iDivisorNMEA    $MXPGN,00FF00,280B,0002000005049913*19
 
4.30424         MSG_UDP              iDivisorNMEA    $MXPGN,01FF2C,7808,FFFFFFFF7FFFFFE3*10
 
4.31439         MSG_UDP              iDivisorNMEA    $MXPGN,00FF3D,6808,7FFFFF0DFFFF9F41*6E
 
4.32453         MSG_UDP              iDivisorNMEA    $HCHDG,284.1,0.0,E,23.3,W*6D
 
4.33472         MSG_UDP              iDivisorNMEA    $GPHDT,260.82,T*0B
 
4.34485         MSG_UDP              iDivisorNMEA    $TIROT,-0.19,A*2E
 
4.35504         MSG_UDP              iDivisorNMEA    $MXPGN,01F803,281C,0000000000005064*63
 
4.36520         MSG_UDP              iDivisorNMEA    $MXPGN,01F804,281C,0000630F06C15064*63
 
4.37534         MSG_UDP              iDivisorNMEA    $AGRSA,-0.90,A,,V*6B
 
4.37535         ANGULO_LEME          iDivisorNMEA    -0.90000     
4.38565         MSG_UDP              iDivisorNMEA    $MXPGN,00FF3C,3808,8000F8FE00009F41*1C
 
4.40293         MSG_UDP              iDivisorNMEA    $HCHDG,284.1,0.0,E,23.3,W*6D
 
4.40606         MSG_UDP              iDivisorNMEA    $GPHDT,260.84,T*0D
 
4.41630         MSG_UDP              iDivisorNMEA    $TIROT,-0.19,A*2E
 
4.42677         MSG_UDP              iDivisorNMEA    $GPGSA,A,3,08,16,18,21,27,28,31,32,66,65,86,87,1.40,0.90,1.10*05
 
4.43712         MSG_UDP              iDivisorNMEA    $GPGSV,3,1,12,08,39,236,34,16,12,314,44,18,19,073,27,21,09,224,21*75
 
4.44739         MSG_UDP              iDivisorNMEA    $GPGSV,3,2,12,27,63,281,37,28,17,026,44,31,12,017,39,32,78,092,44*74
 
4.45763         MSG_UDP              iDivisorNMEA    $GPGSV,3,3,12,66,14,314,42,65,61,271,36,86,32,051,43,87,67,149,44*74
 
4.46792         MSG_UDP              iDivisorNMEA    $MXPGN,01F803,281C,0000000000007866*6B
 
4.47818         MSG_UDP              iDivisorNMEA    $MXPGN,01F804,281C,000063231CC17866*68
 
4.48844         MSG_UDP              iDivisorNMEA    $AGRSA,-0.90,A,,V*6B
 
4.48851         ANGULO_LEME          iDivisorNMEA    -0.90000     
4.49874         MSG_UDP              iDivisorNMEA    $MXPGN,00FF16,7808,FF0000002B0A9F41*1B
 
4.50902         MSG_UDP              iDivisorNMEA    $MXPGN,00FF19,7808,0000000202009F41*15
 
4.51948         MSG_UDP              iDivisorNMEA    $HCHDG,284.1,0.0,E,23.3,W*6D
 
4.52975         MSG_UDP              iDivisorNMEA    $GPHDT,260.83,T*0A
 
4.54003         MSG_UDP              iDivisorNMEA    $TIROT,0.09,A*02
 
4.55033         MSG_UDP              iDivisorNMEA    $MXPGN,00FF19,7808,0080000A0A009F41*1D
 
4.56059         MSG_UDP              iDivisorNMEA    $MXPGN,00FF00,280B,0002000005049913*19
 
4.57097         MSG_UDP              iDivisorNMEA    $MXPGN,01F803,281C,0000000000008D67*19
 
4.58130         MSG_UDP              iDivisorNMEA    $MXPGN,01F804,281C,000063231CC18D67*1A
 
4.59155         MSG_UDP              iDivisorNMEA    $GPGGA,,2254.77829,S,04309.53809,W,1,,,,M,,M,,*58
 
4.60185         MSG_UDP              iDivisorNMEA    $GPGLL,2254.77829,S,04309.53809,W,,A,A*43
 
4.61212         MSG_UDP              iDivisorNMEA    $GPVTG,355.60,T,,M,1.00,N,1.85,K,A*35
 
4.62238         MSG_UDP              iDivisorNMEA    $AGRSA,-0.96,A,,V*6D
 
4.62243         ANGULO_LEME          iDivisorNMEA    -0.96000     
4.63266         MSG_UDP              iDivisorNMEA    $MXPGN,00FF8C,6808,FFF10695C9409F41*64
 
4.64297         MSG_UDP              iDivisorNMEA    $HCHDG,284.1,0.0,E,23.3,W*6D
 
4.65316         MSG_UDP              iDivisorNMEA    $GPHDT,260.84,T*0D
 
4.66332         MSG_UDP              iDivisorNMEA    $TIROT,-0.29,A*2D
 
4.67345         MSG_UDP              iDivisorNMEA    $MXPGN,01F803,281C,000000000000A068*1B
 
4.68365         MSG_UDP              iDivisorNMEA    $MXPGN,01F804,281C,000063231CC1A068*18
 
4.69384         MSG_UDP              iDivisorNMEA    $AGRSA,-0.96,A,,V*6D
 
4.69388         ANGULO_LEME          iDivisorNMEA    -0.96000     
4.70403         MSG_UDP              iDivisorNMEA    $GPZDA,133259.560,07,03,2023,,*5D
 
4.71422         MSG_UDP              iDivisorNMEA    $HCHDG,284.1,0.0,E,23.3,W*6D
 
4.72461         MSG_UDP              iDivisorNMEA    $GPHDT,260.84,T*0D
 
4.73480         MSG_UDP              iDivisorNMEA    $TIROT,-0.29,A*2D
 
4.74497         MSG_UDP              iDivisorNMEA    $MXPGN,01F803,281C,000000000000B469*1D
 
4.75517         MSG_UDP              iDivisorNMEA    $MXPGN,01F804,281C,0000638B0DC1B469*63
 
4.76533         MSG_UDP              iDivisorNMEA    $AGRSA,-0.96,A,,V*6D
 
4.76537         ANGULO_LEME          iDivisorNMEA    -0.96000     
5.00348         MSG_UDP              iDivisorNMEA    $HCHDG,284.2,0.0,E,23.3,W*6E
 
5.00379         MSG_UDP              iDivisorNMEA    $GPHDT,260.87,T*0E
 
5.01398         MSG_UDP              iDivisorNMEA    $TIROT,-0.19,A*2E
 
5.02646         MSG_UDP              iDivisorNMEA    $MXPGN,00FF00,280B,0002000005049913*19
 
5.03457         MSG_UDP              iDivisorNMEA    $GPGSA,A,3,08,10,16,18,21,23,26,,,,,,2.28,1.79,1.79*0B
 
5.04471         MSG_UDP              iDivisorNMEA    $GPGSV,2,1,07,08,38,235,45,10,40,155,00,16,11,313,41,18,19,073,35*7F
 
5.05485         MSG_UDP              iDivisorNMEA    $GPGSV,2,2,07,21,08,224,00,23,16,128,00,26,02,348,40*41
 
5.06502         MSG_UDP              iDivisorNMEA    $MXPGN,01FA06,681C,88010200C86B0F00*66
 
5.07511         MSG_UDP              iDivisorNMEA    $MXPGN,01FA06,681C,008E00FEEDAE0001*66
 
5.08525         MSG_UDP              iDivisorNMEA    $MXPGN,01FA06,681C,FFFFFFFFFF017A02*69
 
5.09538         MSG_UDP              iDivisorNMEA    !AIVDM,2,1,2,B,5:U7sM42BtWM10dj220Lpj37336222222222221J21>::4ci0?44RCp88888,0*2A
 
5.10554         MSG_UDP              iDivisorNMEA    !AIVDM,2,2,2,B,88888888880,2*25
 
5.11569         MSG_UDP              iDivisorNMEA    $MXPGN,01F803,281C,000000000000006B*10
 
5.12588         MSG_UDP              iDivisorNMEA    $MXPGN,01F804,281C,0000006305C1006B*65
 
5.13607         MSG_UDP              iDivisorNMEA    $GPGGA,133300.000,2254.75330,S,04309.53829,W,1,07,1.79,0.85,M,-5.00,M,,*74
 
5.14623         MSG_UDP              iDivisorNMEA    $GPGLL,2254.75330,S,04309.53829,W,133300.000,A,A*5C
 
5.15641         MSG_UDP              iDivisorNMEA    $GPRMC,133300.000,A,2254.75330,S,04309.53829,W,0.03,203.95,070323,23.39,W,A*12
 
5.16662         MSG_UDP              iDivisorNMEA    $GPVTG,203.95,T,,M,0.03,N,0.05,K,A*36
 
5.17675         MSG_UDP              iDivisorNMEA    $AGRSA,-0.90,A,,V*6B
 
5.17677         ANGULO_LEME          iDivisorNMEA    -0.90000     
5.18688         MSG_UDP              iDivisorNMEA    $HCHDG,284.2,0.0,E,23.3,W*6E
 
5.19704         MSG_UDP              iDivisorNMEA    $GPHDT,260.87,T*0E
 
5.20721         MSG_UDP              iDivisorNMEA    $TIROT,-0.19,A*2E
 
5.21738         MSG_UDP              iDivisorNMEA    !AIVDM,1,1,,B,1:U7@T0000LrNl9jsR;lVBv00<2Q,0*5C
 
5.22789         MSG_UDP              iDivisorNMEA    $MXPGN,01F803,281C,000000000000286D*1C
 
5.23804         MSG_UDP              iDivisorNMEA    $MXPGN,01F804,281C,0000006305C1286D*69
 
5.24818         MSG_UDP              iDivisorNMEA    $AGRSA,-0.90,A,,V*6B
 
5.24821         ANGULO_LEME          iDivisorNMEA    -0.90000     
5.25831         MSG_UDP              iDivisorNMEA    $MXPGN,00FF28,3808,FF08FFFDFC059F41*19
 
5.26847         MSG_UDP              iDivisorNMEA    $HCHDG,284.2,0.0,E,23.3,W*6E
 
5.27860         MSG_UDP              iDivisorNMEA    $GPHDT,260.87,T*0E
 
5.28871         MSG_UDP              iDivisorNMEA    $TIROT,-0.09,A*2F
 
5.29888         MSG_UDP              iDivisorNMEA    $MXPGN,01F803,281C,0000000000003C6E*67
 
5.30902         MSG_UDP              iDivisorNMEA    $MXPGN,01F804,281C,0000006326C13C6E*13
 
5.31923         MSG_UDP              iDivisorNMEA    $AGRSA,-0.90,A,,V*6B
 
5.31926         ANGULO_LEME          iDivisorNMEA    -0.90000     
5.32941         MSG_UDP              iDivisorNMEA    $MXPGN,01FF2C,7808,FFFFFFFF9F411700*6B
 
5.33962         MSG_UDP              iDivisorNMEA    $MXPGN,01FF2C,7808,FFFF7FFFFFFF7F01*16
 
5.34975         MSG_UDP              iDivisorNMEA    $MXPGN,01FF2C,7808,FF7FFFFFFFFFFF02*64
 
5.35990         MSG_UDP              iDivisorNMEA    $MXPGN,00FF00,280B,0002000005049913*19
 
5.37005         MSG_UDP              iDivisorNMEA    $MXPGN,01FF2C,7808,FFFFFFFF7FFFFF03*65
 
5.38020         MSG_UDP              iDivisorNMEA    $MXPGN,00FF3D,6808,7FFFFF0DFFFF9F41*6E
 
5.39042         MSG_UDP              iDivisorNMEA    $HCHDG,284.2,0.0,E,23.3,W*6E
 
5.40056         MSG_UDP              iDivisorNMEA    $GPHDT,260.87,T*0E
 
5.41082         MSG_UDP              iDivisorNMEA    $TIROT,-0.09,A*2F
 
5.42099         MSG_UDP              iDivisorNMEA    $MXPGN,01F803,281C,000000000000506F*11
 
5.43117         MSG_UDP              iDivisorNMEA    $MXPGN,01F804,281C,0000006326C1506F*65
 
5.44135         MSG_UDP              iDivisorNMEA    $AGRSA,-0.96,A,,V*6D
 
5.44140         ANGULO_LEME          iDivisorNMEA    -0.96000     
5.45150         MSG_UDP              iDivisorNMEA    $MXPGN,00FF3C,3808,8000F8FE00009F41*1C
 
5.46166         MSG_UDP              iDivisorNMEA    $HCHDG,284.2,0.0,E,23.3,W*6E
 
5.47180         MSG_UDP              iDivisorNMEA    $GPHDT,260.88,T*01
 
5.48197         MSG_UDP              iDivisorNMEA    $TIROT,-0.19,A*2E
 
5.49211         MSG_UDP              iDivisorNMEA    $GPGSA,A,3,08,16,18,21,27,28,31,32,66,65,86,87,1.40,0.80,1.10*04
 
5.50227         MSG_UDP              iDivisorNMEA    $GPGSV,3,1,12,08,39,236,34,16,12,314,44,18,19,073,27,21,09,224,21*75
 
5.51243         MSG_UDP              iDivisorNMEA    $GPGSV,3,2,12,27,63,281,37,28,17,026,44,31,12,017,39,32,78,092,44*74
 
5.52263         MSG_UDP              iDivisorNMEA    $GPGSV,3,3,12,66,14,314,41,65,61,271,36,86,32,051,43,87,67,149,44*77
 
5.53280         MSG_UDP              iDivisorNMEA    $MXPGN,01F803,281C,0000000000006470*61
 
5.54295         MSG_UDP              iDivisorNMEA    $MXPGN,01F804,281C,000000B047C16470*65
 
5.55313         MSG_UDP              iDivisorNMEA    $AGRSA,-0.96,A,,V*6D
 
5.55318         ANGULO_LEME          iDivisorNMEA    -0.96000     
5.56331         MSG_UDP              iDivisorNMEA    $MXPGN,00FF16,7808,FF0000002B0A9F41*1B
 
5.57578         MSG_UDP              iDivisorNMEA    !AIVDM,2,1,3,A,5539a08MKkADq=@t000<N1=@tpD000000000000o5qM0B6w00A@000000000,0*4F
 
5.58599         MSG_UDP              iDivisorNMEA    !AIVDM,2,2,3,A,00000000000,2*27
 
5.59641         MSG_UDP              iDivisorNMEA    $MXPGN,00FF19,7808,0000000202009F41*15
 
5.60654         MSG_UDP              iDivisorNMEA    $HCHDG,284.2,0.0,E,23.3,W*6E
 
5.61669         MSG_UDP              iDivisorNMEA    $GPHDT,260.89,T*00
 
5.62685         MSG_UDP              iDivisorNMEA    $TIROT,-0.19,A*2E
 
5.63704         MSG_UDP              iDivisorNMEA    $MXPGN,00FF19,7808,0080000A0A009F41*1D
 
5.90442         MSG_UDP              iDivisorNMEA    $HCHDG,284.2,0.0,E,23.3,W*6E
 
5.90455         MSG_UDP              iDivisorNMEA    $GPHDT,260.89,T*00
 
5.91483         MSG_UDP              iDivisorNMEA    $TIROT,0.19,A*03
 
5.94142         MSG_UDP              iDivisorNMEA    $MXPGN,01F803,281C,000000000000C875*1D
 
5.94147         MSG_UDP              iDivisorNMEA    $MXPGN,01F804,281C,0000002621C1C875*6F
 
5.95323         MSG_UDP              iDivisorNMEA    $AGRSA,-0.96,A,,V*6D
 
5.95327         ANGULO_LEME          iDivisorNMEA    -0.96000     
6.00440         MSG_UDP              iDivisorNMEA    $HCHDG,284.2,0.0,E,23.3,W*6E
 
6.00471         MSG_UDP              iDivisorNMEA    $GPHDT,260.87,T*0E
 
6.01495         MSG_UDP              iDivisorNMEA    $TIROT,0.09,A*02
 
6.02730         MSG_UDP              iDivisorNMEA    $MXPGN,00FF00,280B,0002000005049913*19
 
6.03547         MSG_UDP              iDivisorNMEA    $GPGSA,A,3,08,10,16,18,21,23,26,,,,,,2.28,1.79,1.79*0B
 
6.04567         MSG_UDP              iDivisorNMEA    $GPGSV,2,1,07,08,38,235,45,10,40,155,00,16,11,313,41,18,19,073,35*7F
 
6.05583         MSG_UDP              iDivisorNMEA    $GPGSV,2,2,07,21,08,224,00,23,16,128,00,26,02,348,41*40
 
6.06603         MSG_UDP              iDivisorNMEA    $MXPGN,01FA06,681C,88010200C8750F20*12
 
6.07619         MSG_UDP              iDivisorNMEA    $MXPGN,01FA06,681C,008E00FEEDB00021*12
 
6.08638         MSG_UDP              iDivisorNMEA    $MXPGN,01FA06,681C,FFFFFFFFFF017A22*6B
 
6.09658         MSG_UDP              iDivisorNMEA    $MXPGN,01F803,281C,0000000000000075*66
 
6.10674         MSG_UDP              iDivisorNMEA    $MXPGN,01F804,281C,0000007CA0C10075*16
 
6.11686         MSG_UDP              iDivisorNMEA    $GPGGA,133301.000,2254.75330,S,04309.53829,W,1,07,1.79,0.85,M,-5.00,M,,*75
 
6.12703         MSG_UDP              iDivisorNMEA    $GPGLL,2254.75330,S,04309.53829,W,133301.000,A,A*5D
 
6.13722         MSG_UDP              iDivisorNMEA    $GPRMC,133301.000,A,2254.75330,S,04309.53829,W,0.00,55.92,070323,23.39,W,A*26
 
6.14745         MSG_UDP              iDivisorNMEA    $GPVTG,55.92,T,,M,0.00,N,0.00,K,A*06
 
6.15761         MSG_UDP              iDivisorNMEA    $AGRSA,-0.96,A,,V*6D
 
6.15766         ANGULO_LEME          iDivisorNMEA    -0.96000     
6.16780         MSG_UDP              iDivisorNMEA    !AIVDO,1,1,,,B:UOH3P017>VtFLf>KgNCwP5oP06,0*5E
 
6.17799         MSG_UDP              iDivisorNMEA    $HCHDG,284.2,0.0,E,23.3,W*6E
 
6.18817         MSG_UDP              iDivisorNMEA    $GPHDT,260.87,T*0E
 
6.19837         MSG_UDP              iDivisorNMEA    $TIROT,0.09,A*02
 
6.20858         MSG_UDP              iDivisorNMEA    $MXPGN,01F803,281C,0000000000002877*6E
 
6.21898         MSG_UDP              iDivisorNMEA    $MXPGN,01F804,281C,0000007CA0C12877*1E
 
6.22939         MSG_UDP              iDivisorNMEA    $AGRSA,-0.96,A,,V*6D
 
6.22942         ANGULO_LEME          iDivisorNMEA    -0.96000     
6.23960         MSG_UDP              iDivisorNMEA    $MXPGN,00FF28,3808,FF08FFFDFC059F41*19
 
6.24980         MSG_UDP              iDivisorNMEA    !AIVDM,1,1,,A,1:U8RjPP00trUeejqUcCIwwn2@0e,0*45
 
6.25996         MSG_UDP              iDivisorNMEA    $HCHDG,284.2,0.0,E,23.3,W*6E
 
6.27012         MSG_UDP              iDivisorNMEA    $GPHDT,260.85,T*0C
 
6.28028         MSG_UDP              iDivisorNMEA    $TIROT,-0.09,A*2F
 
6.29047         MSG_UDP              iDivisorNMEA    $MXPGN,01F803,281C,0000000000003C78*1B
 
6.30067         MSG_UDP              iDivisorNMEA    $MXPGN,01F804,281C,0000003197C13C78*62
 
6.31083         MSG_UDP              iDivisorNMEA    $AGRSA,-0.96,A,,V*6D
 
6.31084         ANGULO_LEME          iDivisorNMEA    -0.96000     
6.32099         MSG_UDP              iDivisorNMEA    $MXPGN,01FF2C,7808,FFFFFFFF9F411720*69
 
6.33116         MSG_UDP              iDivisorNMEA    $MXPGN,01FF2C,7808,FFFF7FFFFFFF7F21*14
 
6.34136         MSG_UDP              iDivisorNMEA    $MXPGN,01FF2C,7808,FF7FFFFFFFFFFF22*66
 
6.35152         MSG_UDP              iDivisorNMEA    $MXPGN,00FF00,280B,0002000005049913*19
 
6.36168         MSG_UDP              iDivisorNMEA    $MXPGN,01FF2C,7808,FFFFFFFF7FFFFF23*67
 
6.37185         MSG_UDP              iDivisorNMEA    $MXPGN,00FF3D,6808,7FFFFF0DFFFF9F41*6E
 
6.38197         MSG_UDP              iDivisorNMEA    $HCHDG,284.2,0.0,E,23.3,W*6E
 
6.39231         MSG_UDP              iDivisorNMEA    $GPHDT,260.86,T*0F
 
6.40249         MSG_UDP              iDivisorNMEA    $TIROT,-0.09,A*2F
 
6.41277         MSG_UDP              iDivisorNMEA    $MXPGN,00FF3D,6808,0000FF0BFFFF9F41*19
 
6.42328         MSG_UDP              iDivisorNMEA    $MXPGN,01F803,281C,0000000000005079*6F
 
6.43358         MSG_UDP              iDivisorNMEA    $MXPGN,01F804,281C,0000003197C15079*16
 
6.44389         MSG_UDP              iDivisorNMEA    $MXPGN,00FF3D,6808,FFFFFF0CFFFF9F41*18
 
6.45418         MSG_UDP              iDivisorNMEA    $AGRSA,-0.90,A,,V*6B
 
6.45427         ANGULO_LEME          iDivisorNMEA    -0.90000     
6.46447         MSG_UDP              iDivisorNMEA    $MXPGN,00FF3D,6808,FFFFFF03FFFF9F41*68
 
6.47480         MSG_UDP              iDivisorNMEA    $MXPGN,00FF3C,3808,8000F8FE00009F41*1C
 
6.48509         MSG_UDP              iDivisorNMEA    $MXPGN,00FF3D,6808,FFFFFF02FFFF9F41*69
 
6.49538         MSG_UDP              iDivisorNMEA    $HCHDG,284.2,0.0,E,23.3,W*6E
 
6.50560         MSG_UDP              iDivisorNMEA    $GPHDT,260.86,T*0F
 
6.51587         MSG_UDP              iDivisorNMEA    $TIROT,0.09,A*02
 
6.52633         MSG_UDP              iDivisorNMEA    $GPGSA,A,3,08,16,18,21,27,28,31,32,66,65,86,87,1.40,0.90,1.10*05
 
6.53666         MSG_UDP              iDivisorNMEA    $GPGSV,3,1,12,08,39,236,34,16,12,314,44,18,19,073,28,21,09,224,21*7A
 
6.54694         MSG_UDP              iDivisorNMEA    $GPGSV,3,2,12,27,63,281,36,28,17,026,44,31,12,017,39,32,78,092,44*75
 
6.55726         MSG_UDP              iDivisorNMEA    $GPGSV,3,3,12,66,14,314,41,65,61,271,36,86,32,051,43,87,67,149,44*77
 
6.56753         MSG_UDP              iDivisorNMEA    $MXPGN,01F803,281C,000000000000647A*10
 
6.57784         MSG_UDP              iDivisorNMEA    $MXPGN,01F804,281C,000000600FC1647A*15
 
6.80514         MSG_UDP              iDivisorNMEA    $HCHDG,284.1,0.0,E,23.3,W*6D
 
6.80537         MSG_UDP              iDivisorNMEA    $GPHDT,260.83,T*0A
 
6.81560         MSG_UDP              iDivisorNMEA    $TIROT,0.29,A*00
 
6.82727         MSG_UDP              iDivisorNMEA    $MXPGN,01FF1A,680B,FF022B849F410500*6C
 
6.84021         MSG_UDP              iDivisorNMEA    $MXPGN,01FF1A,782B,FF010B049F410580*6E
 
6.84743         MSG_UDP              iDivisorNMEA    $MXPGN,01F803,281C,000000000000B47E*60
 
6.85764         MSG_UDP              iDivisorNMEA    $MXPGN,01F804,281C,00000073EFC1B47E*12
 
6.86790         MSG_UDP              iDivisorNMEA    $MXPGN,01FF0D,780B,FF03000098900540*62
 
6.87823         MSG_UDP              iDivisorNMEA    $GPGGA,133301.000,2254.75651,S,04309.53953,W,1,12,0.90,3.80,M,-5.60,M,,*79
 
6.88852         MSG_UDP              iDivisorNMEA    $GPGLL,2254.75651,S,04309.53953,W,133301.000,A,A*53
 
6.89874         MSG_UDP              iDivisorNMEA    $GPRMC,133301.000,A,2254.75651,S,04309.53953,W,0.00,0.00,070323,23.30,W,A*1A
 
6.90905         MSG_UDP              iDivisorNMEA    $GPVTG,0.00,T,,M,0.00,N,0.00,K,A*3D
 
6.91928         MSG_UDP              iDivisorNMEA    $AGRSA,-0.96,A,,V*6D
 
6.91934         ANGULO_LEME          iDivisorNMEA    -0.96000     
6.92984         MSG_UDP              iDivisorNMEA    $SDDPT,1.80,0.00,*72
 
6.94016         MSG_UDP              iDivisorNMEA    !AIVDM,1,1,,A,3:U85d000oLrM8mjreP0BhDF0VsS,0*19
 
6.95042         MSG_UDP              iDivisorNMEA    $HCHDG,284.1,0.0,E,23.3,W*6D
 
6.96066         MSG_UDP              iDivisorNMEA    $GPHDT,260.82,T*0B
 
6.97096         MSG_UDP              iDivisorNMEA    $TIROT,0.29,A*00
 
6.98132         MSG_UDP              iDivisorNMEA    $MXPGN,01F803,281C,000000000000C87F*6E
 
6.99156         MSG_UDP              iDivisorNMEA    $MXPGN,01F804,281C,00000073EFC1C87F*1C
 
7.00185         MSG_UDP              iDivisorNMEA    $AGRSA,-0.96,A,,V*6D
 
7.00191         ANGULO_LEME          iDivisorNMEA    -0.96000     
7.01212         MSG_UDP              iDivisorNMEA    $HCHDG,284.1,0.0,E,23.3,W*6D
 
7.02238         MSG_UDP              iDivisorNMEA    $GPHDT,260.82,T*0B
 
7.03267         MSG_UDP              iDivisorNMEA    $TIROT,0.19,A*03
 
7.04293         MSG_UDP              iDivisorNMEA    $MXPGN,00FF00,280B,0002000005049913*19
 
7.05323         MSG_UDP              iDivisorNMEA    $GPGSA,A,3,08,10,16,18,21,23,26,,,,,,2.28,1.79,1.79*0B
 
7.06352         MSG_UDP              iDivisorNMEA    $GPGSV,2,1,07,08,38,235,45,10,40,155,00,16,11,313,42,18,19,073,36*7F
 
7.07385         MSG_UDP              iDivisorNMEA    $GPGSV,2,2,07,21,08,224,00,23,16,128,00,26,02,348,40*41
 
7.08425         MSG_UDP              iDivisorNMEA    $MXPGN,01FA06,681C,88010200C87F0F40*67
 
7.09456         MSG_UDP              iDivisorNMEA    $MXPGN,01FA06,681C,008E00FEEDB00041*14
 
7.10483         MSG_UDP              iDivisorNMEA    $MXPGN,01FA06,681C,FFFFFFFFFF017A42*6D
 
7.11511         MSG_UDP              iDivisorNMEA    $MXPGN,01F803,281C,000000000000007F*15
 
7.12534         MSG_UDP              iDivisorNMEA    $MXPGN,01F804,281C,00000080C2C1007F*19
 
7.13564         MSG_UDP              iDivisorNMEA    $GPGGA,133302.000,2254.75330,S,04309.53829,W,1,07,1.79,0.85,M,-5.00,M,,*76
 
7.14599         MSG_UDP              iDivisorNMEA    $GPGLL,2254.75330,S,04309.53829,W,133302.000,A,A*5E
 
7.15625         MSG_UDP              iDivisorNMEA    $GPRMC,133302.000,A,2254.75330,S,04309.53829,W,0.00,170.04,070323,23.39,W,A*1C
 
7.16653         MSG_UDP              iDivisorNMEA    $GPVTG,170.04,T,,M,0.00,N,0.00,K,A*3F
 
7.17684         MSG_UDP              iDivisorNMEA    $AGRSA,-0.96,A,,V*6D
 
7.17691         ANGULO_LEME          iDivisorNMEA    -0.96000     
7.18711         MSG_UDP              iDivisorNMEA    $HCHDG,284.1,0.0,E,23.3,W*6D
 
7.19740         MSG_UDP              iDivisorNMEA    $GPHDT,260.82,T*0B
 
7.20766         MSG_UDP              iDivisorNMEA    $TIROT,0.19,A*03
 
7.21797         MSG_UDP              iDivisorNMEA    $MXPGN,01F803,281C,0000000000001480*69
 
7.22830         MSG_UDP              iDivisorNMEA    $MXPGN,01F804,281C,00000080C2C11480*65
 
7.23859         MSG_UDP              iDivisorNMEA    $AGRSA,-0.96,A,,V*6D
 
7.23865         ANGULO_LEME          iDivisorNMEA    -0.96000     
7.24889         MSG_UDP              iDivisorNMEA    $MXPGN,00FF28,3808,FF08FFFDFC059F41*19
 
7.25927         MSG_UDP              iDivisorNMEA    $HCHDG,284.1,0.0,E,23.3,W*6D
 
7.26955         MSG_UDP              iDivisorNMEA    $GPHDT,260.81,T*08
 
7.27981         MSG_UDP              iDivisorNMEA    $TIROT,0.29,A*00
 
7.29011         MSG_UDP              iDivisorNMEA    $MXPGN,01F803,281C,0000000000003C82*1E
 
7.30037         MSG_UDP              iDivisorNMEA    $MXPGN,01F804,281C,000000EF07C13C82*6F
 
7.31060         MSG_UDP              iDivisorNMEA    $AGRSA,-0.96,A,,V*6D
 
7.31066         ANGULO_LEME          iDivisorNMEA    -0.96000     
7.32090         MSG_UDP              iDivisorNMEA    $MXPGN,01FF2C,7808,FFFFFFFF9F411740*6F
 
7.33121         MSG_UDP              iDivisorNMEA    $MXPGN,01FF2C,7808,FFFF7FFFFFFF7F41*12
 
7.34150         MSG_UDP              iDivisorNMEA    $MXPGN,01FF2C,7808,FF7FFFFFFFFFFF42*60
 
7.35182         MSG_UDP              iDivisorNMEA    $MXPGN,01FF2C,7808,FFFFFFFF7FFFFF43*61
 
7.36208         MSG_UDP              iDivisorNMEA    $MXPGN,00FF3D,6808,7FFFFF0DFFFF9F41*6E
 
7.37239         MSG_UDP              iDivisorNMEA    $HCHDG,284.1,0.0,E,23.3,W*6D
 
7.38265         MSG_UDP              iDivisorNMEA    $GPHDT,260.82,T*0B
 
7.39292         MSG_UDP              iDivisorNMEA    $TIROT,0.29,A*00
 
7.40315         MSG_UDP              iDivisorNMEA    $MXPGN,00FF00,280B,0002000005049913*19
 
7.41342         MSG_UDP              iDivisorNMEA    $MXPGN,01F803,281C,0000000000005083*6A
 
7.42376         MSG_UDP              iDivisorNMEA    $MXPGN,01F804,281C,000000EF07C15083*1B
 
7.43474         MSG_UDP              iDivisorNMEA    $AGRSA,-0.96,A,,V*6D
 
7.43484         ANGULO_LEME          iDivisorNMEA    -0.96000     
7.44503         MSG_UDP              iDivisorNMEA    $MXPGN,00FF3C,3808,8000F8FE00009F41*1C
 
7.70587         MSG_UDP              iDivisorNMEA    $HCHDG,284.1,0.0,E,23.3,W*6D
 
7.70604         MSG_UDP              iDivisorNMEA    $GPHDT,260.81,T*08
 
7.71633         MSG_UDP              iDivisorNMEA    $TIROT,0.49,A*06
 
7.74298         MSG_UDP              iDivisorNMEA    $MXPGN,01F803,281C,000000000000A087*1A
 
7.74387         MSG_UDP              iDivisorNMEA    $MXPGN,01F804,281C,0000004F51C1A087*19
 
7.75581         MSG_UDP              iDivisorNMEA    $AGRSA,-0.96,A,,V*6D
 
7.75591         ANGULO_LEME          iDivisorNMEA    -0.96000     
7.80598         MSG_UDP              iDivisorNMEA    $HCHDG,284.1,0.0,E,23.3,W*6D
 
7.80617         MSG_UDP              iDivisorNMEA    $GPHDT,260.81,T*08
 
7.81643         MSG_UDP              iDivisorNMEA    $TIROT,0.39,A*01
 
7.82671         MSG_UDP              iDivisorNMEA    $MXPGN,00FF00,280B,0002000005049913*19
 
7.83700         MSG_UDP              iDivisorNMEA    $MXPGN,01FF1A,680B,FF022B849F410520*6E
 
7.84738         MSG_UDP              iDivisorNMEA    $MXPGN,01F803,281C,000000000000B488*12
 
7.85775         MSG_UDP              iDivisorNMEA    $MXPGN,01F804,281C,0000004F51C1B488*11
 
7.86846         MSG_UDP              iDivisorNMEA    $MXPGN,01FF1A,782B,FF010B049F4105A0*17
 
7.87890         MSG_UDP              iDivisorNMEA    $GPGGA,133302.000,2254.75673,S,04309.53979,W,1,12,0.90,3.93,M,-5.60,M,,*70
 
7.88934         MSG_UDP              iDivisorNMEA    $GPGLL,2254.75673,S,04309.53979,W,133302.000,A,A*58
 
7.89959         MSG_UDP              iDivisorNMEA    $GPRMC,133302.000,A,2254.75673,S,04309.53979,W,0.19,0.00,070323,23.30,W,A*19
 
7.90994         MSG_UDP              iDivisorNMEA    $GPVTG,0.00,T,,M,0.19,N,0.35,K,A*33
 
7.92022         MSG_UDP              iDivisorNMEA    $AGRSA,-0.96,A,,V*6D
 
7.92034         ANGULO_LEME          iDivisorNMEA    -0.96000     
7.93055         MSG_UDP              iDivisorNMEA    $SDDPT,1.78,0.00,*75
 
7.94105         MSG_UDP              iDivisorNMEA    $MXPGN,01FF0D,780B,FF03000098900560*60
 
7.95132         MSG_UDP              iDivisorNMEA    $HCHDG,284.1,0.0,E,23.3,W*6D
 
7.96159         MSG_UDP              iDivisorNMEA    $GPHDT,260.81,T*08
 
7.97190         MSG_UDP              iDivisorNMEA    $TIROT,0.39,A*01
 
7.98217         MSG_UDP              iDivisorNMEA    $MXPGN,01F803,281C,000000000000C889*1E
 
7.99239         MSG_UDP              iDivisorNMEA    $MXPGN,01F804,281C,0000004F51C1C889*1D
 
8.00256         MSG_UDP              iDivisorNMEA    $AGRSA,-0.96,A,,V*6D
 
8.00261         ANGULO_LEME          iDivisorNMEA    -0.96000     
8.01282         MSG_UDP              iDivisorNMEA    !AIVDM,1,1,,B,3:U8l=P00vLrLu1jrDI02P000V03,0*22
 
8.02305         MSG_UDP              iDivisorNMEA    $HCHDG,284.1,0.0,E,23.3,W*6D
 
8.03335         MSG_UDP              iDivisorNMEA    $GPHDT,260.81,T*08
 
8.04358         MSG_UDP              iDivisorNMEA    $TIROT,0.39,A*01
 
8.05376         MSG_UDP              iDivisorNMEA    $GPGSA,A,3,08,10,16,18,21,23,26,,,,,,2.28,1.79,1.79*0B
 
8.06406         MSG_UDP              iDivisorNMEA    $GPGSV,2,1,07,08,38,235,45,10,40,155,00,16,11,313,42,18,19,073,36*7F
 
8.07431         MSG_UDP              iDivisorNMEA    $GPGSV,2,2,07,21,08,224,00,23,16,128,00,26,02,348,40*41
 
8.08456         MSG_UDP              iDivisorNMEA    $MXPGN,01FA06,681C,88010200C8890F60*15
 
8.09477         MSG_UDP              iDivisorNMEA    $MXPGN,01FA06,681C,008E00FEEDB00061*16
 
8.10501         MSG_UDP              iDivisorNMEA    $MXPGN,01FA06,681C,FFFFFFFFFF017A62*6F
 
8.11524         MSG_UDP              iDivisorNMEA    $MXPGN,01F803,281C,0000000000000089*65
 
8.12545         MSG_UDP              iDivisorNMEA    $MXPGN,01F804,281C,0000005CF9C10089*19
 
8.13572         MSG_UDP              iDivisorNMEA    $GPGGA,133303.000,2254.75330,S,04309.53829,W,1,07,1.79,0.85,M,-5.00,M,,*77
 
8.14601         MSG_UDP              iDivisorNMEA    $GPGLL,2254.75330,S,04309.53829,W,133303.000,A,A*5F
 
8.15622         MSG_UDP              iDivisorNMEA    $GPRMC,133303.000,A,2254.75330,S,04309.53829,W,0.01,116.33,070323,23.39,W,A*18
 
8.16646         MSG_UDP              iDivisorNMEA    $GPVTG,116.33,T,,M,0.01,N,0.01,K,A*3B
 
8.17669         MSG_UDP              iDivisorNMEA    $AGRSA,-0.96,A,,V*6D
 
8.17677         ANGULO_LEME          iDivisorNMEA    -0.96000     
8.18698         MSG_UDP              iDivisorNMEA    $MXPGN,00FF00,280B,0002000005049913*19
 
8.19726         MSG_UDP              iDivisorNMEA    !AIVDO,1,1,,,B:UOH3P037>VtDLf>JwNCwQUoP06,0*2E
 
8.20750         MSG_UDP              iDivisorNMEA    $HCHDG,284.1,0.0,E,23.3,W*6D
 
8.21778         MSG_UDP              iDivisorNMEA    $GPHDT,260.81,T*08
 
8.22803         MSG_UDP              iDivisorNMEA    $TIROT,0.39,A*01
 
8.23829         MSG_UDP              iDivisorNMEA    $MXPGN,01F803,281C,000000000000288B*14
 
8.24853         MSG_UDP              iDivisorNMEA    $MXPGN,01F804,281C,0000005CF9C1288B*68
 
8.25878         MSG_UDP              iDivisorNMEA    $AGRSA,-0.96,A,,V*6D
 
8.25884         ANGULO_LEME          iDivisorNMEA    -0.96000     
8.26900         MSG_UDP              iDivisorNMEA    $MXPGN,00FF28,3808,FF08FFFDFC059F41*19
 
8.27925         MSG_UDP              iDivisorNMEA    $HCHDG,284.1,0.0,E,23.3,W*6D
 
8.28955         MSG_UDP              iDivisorNMEA    $GPHDT,260.82,T*0B
 
8.29985         MSG_UDP              iDivisorNMEA    $TIROT,0.49,A*06
 
8.31016         MSG_UDP              iDivisorNMEA    !AIVDM,2,1,4,B,5:U8vhT2CPbM1G;WK21E20<u84j222222222221J1q86=76<0<4RCp11H2PC,0*39
 
8.32038         MSG_UDP              iDivisorNMEA    !AIVDM,2,2,4,B,QBDSp888888,2*67
 
8.33062         MSG_UDP              iDivisorNMEA    $MXPGN,01F803,281C,0000000000003C8C*6F
 
8.34086         MSG_UDP              iDivisorNMEA    $MXPGN,01F804,281C,0000009FBEC13C8C*62
 
8.35118         MSG_UDP              iDivisorNMEA    $AGRSA,-0.96,A,,V*6D
 
8.35124         ANGULO_LEME          iDivisorNMEA    -0.96000     
8.36143         MSG_UDP              iDivisorNMEA    $MXPGN,01FF2C,7808,FFFFFFFF9F411760*6D
 
8.37168         MSG_UDP              iDivisorNMEA    $MXPGN,01FF2C,7808,FFFF7FFFFFFF7F61*10
 
8.38190         MSG_UDP              iDivisorNMEA    $MXPGN,01FF2C,7808,FF7FFFFFFFFFFF62*62
 
8.57659         MSG_UDP              iDivisorNMEA    $MXPGN,00FF8C,6808,FFF10695C9409F41*64
 
8.57671         MSG_UDP              iDivisorNMEA    $MXPGN,00FF00,280B,0002000005049913*19
 
8.60668         MSG_UDP              iDivisorNMEA    $HCHDG,284.2,0.0,E,23.3,W*6E
 
8.60682         MSG_UDP              iDivisorNMEA    $GPHDT,260.85,T*0C
 
8.61709         MSG_UDP              iDivisorNMEA    $TIROT,0.69,A*04
 
8.64374         MSG_UDP              iDivisorNMEA    $MXPGN,01F803,281C,0000000000008C90*16
 
8.64457         MSG_UDP              iDivisorNMEA    $MXPGN,01F804,281C,000000CBB1C18C90*11
 
8.65669         MSG_UDP              iDivisorNMEA    $AGRSA,-0.96,A,,V*6D
 
8.65680         ANGULO_LEME          iDivisorNMEA    -0.96000     
8.66504         MSG_UDP              iDivisorNMEA    $GPZDA,133303.530,07,03,2023,,*56
 
8.70676         MSG_UDP              iDivisorNMEA    $HCHDG,284.2,0.0,E,23.3,W*6E
 
8.70700         MSG_UDP              iDivisorNMEA    $GPHDT,260.86,T*0F
 
8.71728         MSG_UDP              iDivisorNMEA    $TIROT,0.69,A*04
 
8.74375         MSG_UDP              iDivisorNMEA    $MXPGN,01F803,281C,0000000000008C90*16
 
8.74470         MSG_UDP              iDivisorNMEA    $MXPGN,01F804,281C,000000C38DC18C90*6F
 
8.75666         MSG_UDP              iDivisorNMEA    $AGRSA,-0.96,A,,V*6D
 
8.75675         ANGULO_LEME          iDivisorNMEA    -0.96000     
8.80286         MSG_UDP              iDivisorNMEA    !AIVDM,2,1,5,B,5:U8?kT000011;K3G2104v0@F04=D<5:2222220t1I3876wI04SRE1DSjH88,0*30
 
8.80382         MSG_UDP              iDivisorNMEA    !AIVDM,2,2,5,B,88888888880,2*22
 
8.81406         MSG_UDP              iDivisorNMEA    $HCHDG,284.2,0.0,E,23.3,W*6E
 
8.82431         MSG_UDP              iDivisorNMEA    $GPHDT,260.86,T*0F
 
8.83458         MSG_UDP              iDivisorNMEA    $TIROT,0.69,A*04
 
8.84484         MSG_UDP              iDivisorNMEA    $MXPGN,00FF00,280B,0002000005049913*19
 
8.85508         MSG_UDP              iDivisorNMEA    $MXPGN,01FF1A,680B,FF022B849F410540*68
 
8.86538         MSG_UDP              iDivisorNMEA    $MXPGN,01F803,281C,000000000000A091*1D
 
8.87561         MSG_UDP              iDivisorNMEA    $MXPGN,01F804,281C,000000C38DC1A091*64
 
8.88593         MSG_UDP              iDivisorNMEA    $GPGGA,133303.000,2254.75693,S,04309.54045,W,1,12,0.90,4.45,M,-5.60,M,,*72
 
8.89627         MSG_UDP              iDivisorNMEA    $GPGLL,2254.75693,S,04309.54045,W,133303.000,A,A*56
 
8.90653         MSG_UDP              iDivisorNMEA    $GPRMC,133303.000,A,2254.75693,S,04309.54045,W,0.09,0.00,070323,23.30,W,A*16
 
8.91685         MSG_UDP              iDivisorNMEA    $GPVTG,0.00,T,,M,0.09,N,0.16,K,A*33
 
8.92709         MSG_UDP              iDivisorNMEA    $AGRSA,-0.96,A,,V*6D
 
8.92713         ANGULO_LEME          iDivisorNMEA    -0.96000     
8.93724         MSG_UDP              iDivisorNMEA    $SDDPT,1.80,0.00,*72
 
8.94739         MSG_UDP              iDivisorNMEA    !AIVDM,1,1,,A,1:U6vLPP04trHfQjpds:2Ov62<21,0*0E
 
8.95751         MSG_UDP              iDivisorNMEA    $MXPGN,01FF0D,780B,FF03000098900580*6E
 
8.96771         MSG_UDP              iDivisorNMEA    $MXPGN,01FF1A,782B,00010B049F410AC0*61
 
8.97784         MSG_UDP              iDivisorNMEA    $MXPGN,01FF1A,782B,FFFFFF00000000C1*1C
 
8.98795         MSG_UDP              iDivisorNMEA    $HCHDG,284.2,0.0,E,23.3,W*6E
 
8.99808         MSG_UDP              iDivisorNMEA    $GPHDT,260.88,T*01
 
9.00823         MSG_UDP              iDivisorNMEA    $TIROT,0.89,A*0A
 
9.01855         MSG_UDP              iDivisorNMEA    $MXPGN,01F803,281C,000000000000C893*15
 
9.02869         MSG_UDP              iDivisorNMEA    $MXPGN,01F804,281C,000000C38DC1C893*6C
 
9.03880         MSG_UDP              iDivisorNMEA    $AGRSA,-0.96,A,,V*6D
 
9.03883         ANGULO_LEME          iDivisorNMEA    -0.96000     
9.04895         MSG_UDP              iDivisorNMEA    $HCHDG,284.2,0.0,E,23.3,W*6E
 
9.05910         MSG_UDP              iDivisorNMEA    $GPHDT,260.89,T*00
 
9.06921         MSG_UDP              iDivisorNMEA    $TIROT,0.79,A*05
 
9.07935         MSG_UDP              iDivisorNMEA    $GPGSA,A,3,08,10,16,18,21,23,26,,,,,,2.28,1.79,1.79*0B
 
9.08968         MSG_UDP              iDivisorNMEA    $GPGSV,2,1,07,08,38,235,45,10,40,155,00,16,11,313,42,18,19,073,36*7F
 
9.09993         MSG_UDP              iDivisorNMEA    $GPGSV,2,2,07,21,08,224,00,23,16,128,00,26,02,348,39*4F
 
9.11027         MSG_UDP              iDivisorNMEA    $MXPGN,01FA06,681C,88010200C8930F80*10
 
9.12042         MSG_UDP              iDivisorNMEA    $MXPGN,01FA06,681C,008E00FEEDB30081*1B
 
9.13058         MSG_UDP              iDivisorNMEA    $MXPGN,01FA06,681C,FFFFFFFFFF017A82*61
 
9.14076         MSG_UDP              iDivisorNMEA    $MXPGN,01F803,281C,0000000000000093*6E
 
9.15100         MSG_UDP              iDivisorNMEA    $MXPGN,01F804,281C,0000009555C10093*17
 
