%%%%%%%%%%%%%%%%%%%%%%%%%%%%%%%%%%%%%%%%%%%%%%%%%%%%%%%%%%%
%% LOG FILE:       /home/moos-ivp-douglas/log/teste_6_3_2023_____07_57_53/teste_6_3_2023_____07_57_53.alog
%% FILE OPENED ON  Wed Dec 31 21:00:00 1969
%% LOGSTART           1678100272.693462
%%%%%%%%%%%%%%%%%%%%%%%%%%%%%%%%%%%%%%%%%%%%%%%%%%%%%%%%%%%
-0.04011        MOOS_DEBUG           pHelmIvP        pHelmIvP AllStop: ManualOverride 
-0.04011        DESIRED_SPEED        pHelmIvP        0.00000      
-0.04011        DESIRED_HEADING      pHelmIvP        0.00000      
0.15994         DESIRED_RUDDER       pMarinePIDV22   0.00000      
0.15994         DESIRED_THRUST       pMarinePIDV22   0.00000      
0.65114         ANGULO_LEME          iDivisorNMEA    4.32000      
0.74920         MSG_UDP              iDivisorNMEA    $MXPGN,01FA06,681C,8A012400C8E70F40*19
 
0.75937         MSG_UDP              iDivisorNMEA    $MXPGN,01FA06,681C,008C0123F1B50041*62
 
0.76954         MSG_UDP              iDivisorNMEA    $MXPGN,01FA06,681C,FFFFFFFFFF01A142*6B
 
0.77971         MSG_UDP              iDivisorNMEA    $MXPGN,00FF3C,3808,8000F8FE00009F41*1C
 
0.78990         MSG_UDP              iDivisorNMEA    $MXPGN,01F803,281C,00000000000000E7*16
 
0.80003         MSG_UDP              iDivisorNMEA    $MXPGN,01F804,281C,000000D8D4C100E7*6F
 
0.81017         MSG_UDP              iDivisorNMEA    $GPGGA,135753.300,2254.75279,S,04309.53850,W,1,07,2.00,-1.44,M,-5.00,M,,*5D
 
0.82032         MSG_UDP              iDivisorNMEA    $GPGLL,2254.75279,S,04309.53850,W,135753.300,A,A*59
 
0.83045         MSG_UDP              iDivisorNMEA    $GPRMC,135753.300,A,2254.75279,S,04309.53850,W,0.00,318.03,060323,23.39,W,A*11
 
0.84059         MSG_UDP              iDivisorNMEA    $GPVTG,318.03,T,,M,0.00,N,0.00,K,A*34
 
0.85074         MSG_UDP              iDivisorNMEA    $AGRSA,4.32,A,,V*4A
 
0.85076         ANGULO_LEME          iDivisorNMEA    4.32000      
0.86092         MSG_UDP              iDivisorNMEA    $GPGSA,A,3,08,10,16,18,27,28,31,32,65,85,86,72,1.70,1.40,1.40*0A
 
0.87105         MSG_UDP              iDivisorNMEA    $GPGSV,3,1,12,08,44,248,47,10,35,145,27,16,07,322,40,18,14,064,35*70
 
0.88118         MSG_UDP              iDivisorNMEA    $GPGSV,3,2,12,27,59,303,43,28,24,034,41,31,18,024,42,32,72,130,42*70
 
0.89135         MSG_UDP              iDivisorNMEA    $GPGSV,3,3,12,65,23,302,36,85,31,041,43,86,72,096,39,72,62,245,37*79
 
0.90151         MSG_UDP              iDivisorNMEA    $MXPGN,01FF0D,780B,FF03000098900560*60
 
0.91160         MSG_UDP              iDivisorNMEA    $HCHDG,283.5,0.0,E,23.3,W*6E
 
0.92171         MSG_UDP              iDivisorNMEA    $GPHDT,260.24,T*07
 
0.93185         MSG_UDP              iDivisorNMEA    $TIROT,-0.99,A*26
 
0.94197         MSG_UDP              iDivisorNMEA    $MXPGN,00FF00,280B,0002000005049913*19
 
0.95206         MSG_UDP              iDivisorNMEA    $MXPGN,01F803,281C,00000000000014E8*1C
 
0.96217         MSG_UDP              iDivisorNMEA    $MXPGN,01F804,281C,000000D8D4C114E8*65
 
0.97231         MSG_UDP              iDivisorNMEA    $MXPGN,00FF16,7808,FF0000002B0A9F41*1B
 
0.98247         MSG_UDP              iDivisorNMEA    $AGRSA,4.32,A,,V*4A
 
0.98249         ANGULO_LEME          iDivisorNMEA    4.32000      
0.99257         MSG_UDP              iDivisorNMEA    !AIVDM,1,1,,B,1:U7oI0uA0trKsEjqtk9;GEb20Ru,0*66
 
1.00268         MSG_UDP              iDivisorNMEA    $HCHDG,283.5,0.0,E,23.3,W*6E
 
1.01283         MSG_UDP              iDivisorNMEA    $GPHDT,260.23,T*00
 
1.02294         MSG_UDP              iDivisorNMEA    $TIROT,-0.99,A*26
 
1.03304         MSG_UDP              iDivisorNMEA    !AIVDO,1,1,,,B:UOH3P01G>VtGLf>d44cwrUoP06,0*4B
 
1.04318         MSG_UDP              iDivisorNMEA    $MXPGN,01F803,281C,00000000000028E9*12
 
1.28631         MSG_UDP              iDivisorNMEA    $MXPGN,00FF3D,6808,0000FF0BFFFF9F41*19
 
1.29848         MSG_UDP              iDivisorNMEA    $HCHDG,283.5,0.0,E,23.3,W*6E
 
1.29874         MSG_UDP              iDivisorNMEA    $GPHDT,260.22,T*01
 
1.30888         MSG_UDP              iDivisorNMEA    $TIROT,-1.29,A*2C
 
1.31901         MSG_UDP              iDivisorNMEA    $MXPGN,00FF00,280B,0002000005049913*19
 
1.32914         MSG_UDP              iDivisorNMEA    $MXPGN,00FF3D,6808,FFFFFF0CFFFF9F41*18
 
1.33927         MSG_UDP              iDivisorNMEA    $MXPGN,01F803,281C,00000000000078ED*6A
 
1.34941         MSG_UDP              iDivisorNMEA    $MXPGN,01F804,281C,000000462EC178ED*6A
 
1.35954         MSG_UDP              iDivisorNMEA    $MXPGN,00FF3D,6808,FFFFFF03FFFF9F41*68
 
1.36973         MSG_UDP              iDivisorNMEA    $AGRSA,4.32,A,,V*4A
 
1.36976         ANGULO_LEME          iDivisorNMEA    4.32000      
1.37993         MSG_UDP              iDivisorNMEA    $MXPGN,00FF3D,6808,FFFFFF02FFFF9F41*69
 
1.39848         MSG_UDP              iDivisorNMEA    $HCHDG,283.5,0.0,E,23.3,W*6E
 
1.40065         MSG_UDP              iDivisorNMEA    $GPHDT,260.23,T*00
 
1.41082         MSG_UDP              iDivisorNMEA    $TIROT,-1.39,A*2D
 
1.43140         MSG_UDP              iDivisorNMEA    $MXPGN,01F803,281C,0000000000008CEE*1F
 
1.43230         MSG_UDP              iDivisorNMEA    $MXPGN,01F804,281C,0000005CA7C18CEE*6A
 
1.44729         MSG_UDP              iDivisorNMEA    $AGRSA,4.32,A,,V*4A
 
1.44733         ANGULO_LEME          iDivisorNMEA    4.32000      
1.46139         MSG_UDP              iDivisorNMEA    $MXPGN,00FF19,7808,0000000202009F41*15
 
1.48651         MSG_UDP              iDivisorNMEA    $MXPGN,00FF19,7808,0080000A0A009F41*1D
 
1.49953         MSG_UDP              iDivisorNMEA    $GPGGA,135753.000,2254.75209,S,04309.53826,W,1,12,1.00,4.39,M,-5.60,M,,*7B
 
1.50045         MSG_UDP              iDivisorNMEA    $GPGLL,2254.75209,S,04309.53826,W,135753.000,A,A*5C
 
1.51061         MSG_UDP              iDivisorNMEA    $GPRMC,135753.000,A,2254.75209,S,04309.53826,W,0.19,0.00,060323,23.30,W,A*1C
 
1.52081         MSG_UDP              iDivisorNMEA    $GPVTG,0.00,T,,M,0.19,N,0.35,K,A*33
 
1.53095         MSG_UDP              iDivisorNMEA    $HCHDG,283.5,0.0,E,23.3,W*6E
 
1.54114         MSG_UDP              iDivisorNMEA    $GPHDT,260.23,T*00
 
1.55135         MSG_UDP              iDivisorNMEA    $TIROT,-1.39,A*2D
 
1.56151         MSG_UDP              iDivisorNMEA    $MXPGN,01F803,281C,000000000000A0EF*16
 
1.57170         MSG_UDP              iDivisorNMEA    $MXPGN,01F804,281C,0000005CA7C1A0EF*63
 
1.58188         MSG_UDP              iDivisorNMEA    $MXPGN,00FF8C,6808,FFF10695FA149F41*18
 
1.59207         MSG_UDP              iDivisorNMEA    $MXPGN,00FF28,3808,FF08FFFDFC059F41*19
 
1.60229         MSG_UDP              iDivisorNMEA    $AGRSA,4.32,A,,V*4A
 
1.60231         ANGULO_LEME          iDivisorNMEA    4.32000      
1.61241         MSG_UDP              iDivisorNMEA    $MXPGN,00FF00,280B,0002000005049913*19
 
1.62260         MSG_UDP              iDivisorNMEA    $HCHDG,283.5,0.0,E,23.3,W*6E
 
1.63278         MSG_UDP              iDivisorNMEA    $GPHDT,260.24,T*07
 
1.64290         MSG_UDP              iDivisorNMEA    $TIROT,-1.29,A*2C
 
1.65308         MSG_UDP              iDivisorNMEA    $MXPGN,01F803,281C,000000000000B4F0*64
 
1.66325         MSG_UDP              iDivisorNMEA    $MXPGN,01F804,281C,0000008599C1B4F0*1C
 
1.67344         MSG_UDP              iDivisorNMEA    $AGRSA,4.32,A,,V*4A
 
1.67348         ANGULO_LEME          iDivisorNMEA    4.32000      
1.68364         MSG_UDP              iDivisorNMEA    !AIVDM,1,1,,A,1:U6v;g000LrHUqjpgVeJWip0`Oj,0*39
 
1.69851         MSG_UDP              iDivisorNMEA    $HCHDG,283.6,0.0,E,23.3,W*6D
 
1.70470         MSG_UDP              iDivisorNMEA    $GPHDT,260.25,T*06
 
1.71487         MSG_UDP              iDivisorNMEA    $TIROT,-1.29,A*2C
 
1.72505         MSG_UDP              iDivisorNMEA    $GPGSA,A,3,08,10,16,18,21,23,26,,,,,,2.56,2.00,2.00*02
 
1.73523         MSG_UDP              iDivisorNMEA    $GPGSV,2,1,07,08,43,247,47,10,35,145,00,16,06,321,41,18,14,064,42*7B
 
1.74541         MSG_UDP              iDivisorNMEA    $GPGSV,2,2,07,21,16,219,00,23,11,120,00,26,00,355,00*45
 
1.75559         MSG_UDP              iDivisorNMEA    $MXPGN,01FA06,681C,8A012400C8F10F60*1E
 
1.76573         MSG_UDP              iDivisorNMEA    $MXPGN,01FA06,681C,008C0123F1B50061*60
 
1.77592         MSG_UDP              iDivisorNMEA    $MXPGN,01FA06,681C,FFFFFFFFFF01A162*69
 
1.78612         MSG_UDP              iDivisorNMEA    $MXPGN,01F803,281C,00000000000000F1*13
 
1.79631         MSG_UDP              iDivisorNMEA    $MXPGN,01F804,281C,0000008599C100F1*6B
 
1.80665         MSG_UDP              iDivisorNMEA    $MXPGN,00FF3C,3808,8000F8FE00009F41*1C
 
1.81680         MSG_UDP              iDivisorNMEA    $GPGGA,135754.300,2254.75279,S,04309.53850,W,1,07,2.00,-1.44,M,-5.00,M,,*5A
 
1.82697         MSG_UDP              iDivisorNMEA    $GPGLL,2254.75279,S,04309.53850,W,135754.300,A,A*5E
 
1.83713         MSG_UDP              iDivisorNMEA    $GPRMC,135754.300,A,2254.75279,S,04309.53850,W,0.01,195.95,060323,23.39,W,A*1F
 
1.84729         MSG_UDP              iDivisorNMEA    $GPVTG,195.95,T,,M,0.01,N,0.01,K,A*3C
 
1.85746         MSG_UDP              iDivisorNMEA    $AGRSA,4.37,A,,V*4F
 
1.85751         ANGULO_LEME          iDivisorNMEA    4.37000      
1.86761         MSG_UDP              iDivisorNMEA    $GPGSA,A,3,08,10,16,18,27,28,31,32,65,85,86,72,1.70,1.40,1.40*0A
 
1.87779         MSG_UDP              iDivisorNMEA    $GPGSV,3,1,12,08,44,248,47,10,35,145,27,16,07,322,40,18,14,064,35*70
 
1.88794         MSG_UDP              iDivisorNMEA    $GPGSV,3,2,12,27,59,303,43,28,24,034,41,31,18,024,42,32,72,130,42*70
 
1.89812         MSG_UDP              iDivisorNMEA    $GPGSV,3,3,12,65,23,302,36,85,31,041,43,86,72,096,39,72,62,245,37*79
 
1.90834         MSG_UDP              iDivisorNMEA    $MXPGN,01FF0D,780B,FF03000098900580*6E
 
1.91853         MSG_UDP              iDivisorNMEA    $HCHDG,283.6,0.0,E,23.3,W*6D
 
1.92872         MSG_UDP              iDivisorNMEA    $GPHDT,260.27,T*04
 
1.93895         MSG_UDP              iDivisorNMEA    $TIROT,-1.29,A*2C
 
2.17065         MSG_UDP              iDivisorNMEA    !AIVDM,1,1,,A,3:U7LIQ000LrJbmjrhqoVq5f0DPr,0*1E
 
2.19862         MSG_UDP              iDivisorNMEA    $HCHDG,283.6,0.0,E,23.3,W*6D
 
2.19876         MSG_UDP              iDivisorNMEA    $GPHDT,260.26,T*05
 
2.20903         MSG_UDP              iDivisorNMEA    $TIROT,-1.29,A*2C
 
2.21930         MSG_UDP              iDivisorNMEA    $MXPGN,01FF1A,680B,FF022B849F410560*6A
 
2.22959         MSG_UDP              iDivisorNMEA    !AIVDM,1,1,,A,1:U8M80P00trUcejqUf20gwf25cT,0*6C
 
2.23989         MSG_UDP              iDivisorNMEA    $MXPGN,01F803,281C,00000000000064F6*16
 
2.25014         MSG_UDP              iDivisorNMEA    $MXPGN,01F804,281C,000000C919C164F6*11
 
2.26039         MSG_UDP              iDivisorNMEA    $MXPGN,01FF2C,7808,FFFFFFFF9F411740*6F
 
2.27063         MSG_UDP              iDivisorNMEA    $MXPGN,01FF2C,7808,FFFF7FFFFFFF7F41*12
 
2.28096         MSG_UDP              iDivisorNMEA    $MXPGN,01FF2C,7808,FF7FFFFFFFFFFF42*60
 
2.29117         MSG_UDP              iDivisorNMEA    $MXPGN,01FF2C,7808,FFFFFFFF7FFFFF43*61
 
2.30138         MSG_UDP              iDivisorNMEA    $MXPGN,01FF1A,782B,FF010B049F410580*6E
 
2.31164         MSG_UDP              iDivisorNMEA    $AGRSA,4.32,A,,V*4A
 
2.31170         ANGULO_LEME          iDivisorNMEA    4.32000      
2.32186         MSG_UDP              iDivisorNMEA    $SDDPT,1.78,0.00,*75
 
2.33213         MSG_UDP              iDivisorNMEA    $MXPGN,00FF3D,6808,7FFFFF0DFFFF9F41*6E
 
2.34241         MSG_UDP              iDivisorNMEA    $HCHDG,283.6,0.0,E,23.3,W*6D
 
2.35270         MSG_UDP              iDivisorNMEA    $GPHDT,260.26,T*05
 
2.36300         MSG_UDP              iDivisorNMEA    $TIROT,-1.29,A*2C
 
2.37332         MSG_UDP              iDivisorNMEA    $MXPGN,00FF00,280B,0002000005049913*19
 
2.38364         MSG_UDP              iDivisorNMEA    $MXPGN,01F803,281C,00000000000078F7*1A
 
2.39394         MSG_UDP              iDivisorNMEA    $MXPGN,01F804,281C,000000C919C178F7*1D
 
2.40427         MSG_UDP              iDivisorNMEA    $AGRSA,4.32,A,,V*4A
 
2.40434         ANGULO_LEME          iDivisorNMEA    4.32000      
2.41449         MSG_UDP              iDivisorNMEA    $HCHDG,283.6,0.0,E,23.3,W*6D
 
2.42475         MSG_UDP              iDivisorNMEA    $GPHDT,260.27,T*04
 
2.43507         MSG_UDP              iDivisorNMEA    $TIROT,-1.29,A*2C
 
2.44530         MSG_UDP              iDivisorNMEA    $MXPGN,01F803,281C,0000000000008CF8*61
 
2.45617         MSG_UDP              iDivisorNMEA    $MXPGN,01F804,281C,000000562CC18CF8*66
 
2.46643         MSG_UDP              iDivisorNMEA    $AGRSA,4.32,A,,V*4A
 
2.46653         ANGULO_LEME          iDivisorNMEA    4.32000      
2.47675         MSG_UDP              iDivisorNMEA    $MXPGN,00FF19,7808,0000000202009F41*15
 
2.48693         MSG_UDP              iDivisorNMEA    $MXPGN,00FF19,7808,0080000A0A009F41*1D
 
2.49941         MSG_UDP              iDivisorNMEA    $GPGGA,135754.000,2254.75209,S,04309.53836,W,1,12,1.00,4.39,M,-5.60,M,,*7D
 
2.50761         MSG_UDP              iDivisorNMEA    $GPGLL,2254.75209,S,04309.53836,W,135754.000,A,A*5A
 
2.51780         MSG_UDP              iDivisorNMEA    $GPRMC,135754.000,A,2254.75209,S,04309.53836,W,0.09,0.00,060323,23.30,W,A*1B
 
2.52796         MSG_UDP              iDivisorNMEA    $GPVTG,0.00,T,,M,0.09,N,0.16,K,A*33
 
2.53812         MSG_UDP              iDivisorNMEA    $HCHDG,283.6,0.0,E,23.3,W*6D
 
2.54825         MSG_UDP              iDivisorNMEA    $GPHDT,260.26,T*05
 
2.55864         MSG_UDP              iDivisorNMEA    $TIROT,-1.29,A*2C
 
2.56900         MSG_UDP              iDivisorNMEA    $MXPGN,01F803,281C,000000000000A0F9*6A
 
2.57910         MSG_UDP              iDivisorNMEA    $MXPGN,01F804,281C,000000562CC1A0F9*6D
 
2.58925         MSG_UDP              iDivisorNMEA    $MXPGN,00FF8C,6808,FFF10695FA149F41*18
 
2.59935         MSG_UDP              iDivisorNMEA    $MXPGN,00FF28,3808,FF08FFFDFC059F41*19
 
2.60959         MSG_UDP              iDivisorNMEA    $AGRSA,4.32,A,,V*4A
 
2.60961         ANGULO_LEME          iDivisorNMEA    4.32000      
2.61982         MSG_UDP              iDivisorNMEA    $MXPGN,00FF00,280B,0002000005049913*19
 
2.63006         MSG_UDP              iDivisorNMEA    $HCHDG,283.6,0.0,E,23.3,W*6D
 
2.64031         MSG_UDP              iDivisorNMEA    $GPHDT,260.26,T*05
 
2.65055         MSG_UDP              iDivisorNMEA    $TIROT,-1.29,A*2C
 
2.66083         MSG_UDP              iDivisorNMEA    $MXPGN,01F803,281C,000000000000A0F9*6A
 
2.67105         MSG_UDP              iDivisorNMEA    $MXPGN,01F804,281C,000000562CC1A0F9*6D
 
2.68129         MSG_UDP              iDivisorNMEA    $AGRSA,4.32,A,,V*4A
 
2.68136         ANGULO_LEME          iDivisorNMEA    4.32000      
2.69246         MSG_UDP              iDivisorNMEA    $MXPGN,01FF1A,782B,FFFAFF859F4105A0*6A
 
2.70171         MSG_UDP              iDivisorNMEA    $HCHDG,283.6,0.0,E,23.3,W*6D
 
2.71191         MSG_UDP              iDivisorNMEA    $GPHDT,260.26,T*05
 
2.72218         MSG_UDP              iDivisorNMEA    $TIROT,-1.29,A*2C
 
2.73241         MSG_UDP              iDivisorNMEA    $GPGSA,A,3,08,10,16,18,21,23,26,,,,,,2.56,2.00,2.00*02
 
2.74271         MSG_UDP              iDivisorNMEA    $GPGSV,2,1,07,08,43,247,47,10,35,145,00,16,06,321,41,18,14,064,42*7B
 
2.75303         MSG_UDP              iDivisorNMEA    $GPGSV,2,2,07,21,16,219,00,23,11,120,00,26,00,355,00*45
 
2.76334         MSG_UDP              iDivisorNMEA    $MXPGN,01FA06,681C,8A012400C8FA0F80*60
 
2.77377         MSG_UDP              iDivisorNMEA    $MXPGN,01FA06,681C,008C0123F1B80081*63
 
2.78412         MSG_UDP              iDivisorNMEA    $MXPGN,01FA06,681C,FFFFFFFFFF01A182*67
 
2.79447         MSG_UDP              iDivisorNMEA    $MXPGN,01F803,281C,00000000000000FA*63
 
2.80480         MSG_UDP              iDivisorNMEA    $MXPGN,01F804,281C,000000729AC100FA*6B
 
2.81510         MSG_UDP              iDivisorNMEA    $MXPGN,00FF3C,3808,8000F8FE00009F41*1C
 
2.82543         MSG_UDP              iDivisorNMEA    $GPGGA,135755.100,2254.75279,S,04309.53850,W,1,07,2.00,-1.44,M,-5.00,M,,*59
 
3.09855         MSG_UDP              iDivisorNMEA    $HCHDG,283.6,0.0,E,23.3,W*6D
 
3.09865         MSG_UDP              iDivisorNMEA    $GPHDT,260.30,T*02
 
3.10947         MSG_UDP              iDivisorNMEA    $TIROT,-0.79,A*28
 
3.13063         MSG_UDP              iDivisorNMEA    $MXPGN,01F803,281C,0000000000006404*62
 
3.13160         MSG_UDP              iDivisorNMEA    $MXPGN,01F804,281C,000000E74DC16404*15
 
3.14750         MSG_UDP              iDivisorNMEA    $AGRSA,4.32,A,,V*4A
 
3.14761         ANGULO_LEME          iDivisorNMEA    4.32000      
3.18149         MSG_UDP              iDivisorNMEA    !AIVDM,1,1,,A,16:>J;?P00LrE9Ejr;6Vj?wh05cT,0*07
 
3.19865         MSG_UDP              iDivisorNMEA    $HCHDG,283.6,0.0,E,23.3,W*6D
 
3.19882         MSG_UDP              iDivisorNMEA    $GPHDT,260.30,T*02
 
3.20910         MSG_UDP              iDivisorNMEA    $TIROT,-0.49,A*2B
 
3.21936         MSG_UDP              iDivisorNMEA    $MXPGN,01FF1A,680B,FF022B849F410580*64
 
3.22962         MSG_UDP              iDivisorNMEA    $MXPGN,01FF1A,782B,FF010B049F4105A0*17
 
3.23990         MSG_UDP              iDivisorNMEA    $MXPGN,01F803,281C,0000000000007805*6E
 
3.25012         MSG_UDP              iDivisorNMEA    $MXPGN,01F804,281C,000000E74DC17805*19
 
3.26038         MSG_UDP              iDivisorNMEA    $MXPGN,01FF2C,7808,FFFFFFFF9F411760*6D
 
3.27060         MSG_UDP              iDivisorNMEA    $MXPGN,01FF2C,7808,FFFF7FFFFFFF7F61*10
 
3.28090         MSG_UDP              iDivisorNMEA    $MXPGN,01FF2C,7808,FF7FFFFFFFFFFF62*62
 
3.29115         MSG_UDP              iDivisorNMEA    $MXPGN,01FF2C,7808,FFFFFFFF7FFFFF63*63
 
3.30141         MSG_UDP              iDivisorNMEA    $AGRSA,4.32,A,,V*4A
 
3.30149         ANGULO_LEME          iDivisorNMEA    4.32000      
3.31166         MSG_UDP              iDivisorNMEA    $SDDPT,1.82,0.00,*70
 
3.32193         MSG_UDP              iDivisorNMEA    $MXPGN,00FF3D,6808,7FFFFF0DFFFF9F41*6E
 
3.33220         MSG_UDP              iDivisorNMEA    $HCHDG,283.6,0.0,E,23.3,W*6D
 
3.34246         MSG_UDP              iDivisorNMEA    $GPHDT,260.31,T*03
 
3.35277         MSG_UDP              iDivisorNMEA    $TIROT,-0.49,A*2B
 
3.36298         MSG_UDP              iDivisorNMEA    $MXPGN,00FF00,280B,0002000005049913*19
 
3.37323         MSG_UDP              iDivisorNMEA    $MXPGN,01F803,281C,0000000000008C06*19
 
3.38349         MSG_UDP              iDivisorNMEA    $MXPGN,01F804,281C,000000E74DC18C06*6E
 
3.39371         MSG_UDP              iDivisorNMEA    $AGRSA,4.32,A,,V*4A
 
3.39378         ANGULO_LEME          iDivisorNMEA    4.32000      
3.40397         MSG_UDP              iDivisorNMEA    !AIVDM,1,1,,A,1:U7;pPP00LrGu5jpjW00?wf0HPk,0*77
 
3.41414         MSG_UDP              iDivisorNMEA    $HCHDG,283.6,0.0,E,23.3,W*6D
 
3.42443         MSG_UDP              iDivisorNMEA    $GPHDT,260.31,T*03
 
3.43468         MSG_UDP              iDivisorNMEA    $TIROT,-0.29,A*2D
 
3.44500         MSG_UDP              iDivisorNMEA    $MXPGN,01F803,281C,000000000000A007*12
 
3.45523         MSG_UDP              iDivisorNMEA    $MXPGN,01F804,281C,0000003EBAC1A007*12
 
3.46548         MSG_UDP              iDivisorNMEA    $AGRSA,4.32,A,,V*4A
 
3.46557         ANGULO_LEME          iDivisorNMEA    4.32000      
3.47578         MSG_UDP              iDivisorNMEA    $MXPGN,00FF19,7808,0000000202009F41*15
 
3.48660         MSG_UDP              iDivisorNMEA    $MXPGN,00FF19,7808,0080000A0A009F41*1D
 
3.49953         MSG_UDP              iDivisorNMEA    $GPGGA,135755.000,2254.75207,S,04309.53839,W,1,12,1.00,4.25,M,-5.60,M,,*70
 
3.50768         MSG_UDP              iDivisorNMEA    $GPGLL,2254.75207,S,04309.53839,W,135755.000,A,A*5A
 
3.51780         MSG_UDP              iDivisorNMEA    $GPRMC,135755.000,A,2254.75207,S,04309.53839,W,0.09,0.00,060323,23.30,W,A*1B
 
3.52801         MSG_UDP              iDivisorNMEA    $GPVTG,0.00,T,,M,0.09,N,0.16,K,A*33
 
3.53836         MSG_UDP              iDivisorNMEA    $HCHDG,283.6,0.0,E,23.3,W*6D
 
3.54858         MSG_UDP              iDivisorNMEA    $GPHDT,260.33,T*01
 
3.55884         MSG_UDP              iDivisorNMEA    $TIROT,-0.29,A*2D
 
3.56920         MSG_UDP              iDivisorNMEA    $MXPGN,01F803,281C,000000000000B408*1A
 
3.57948         MSG_UDP              iDivisorNMEA    $MXPGN,01F804,281C,0000003EBAC1B408*1A
 
3.58976         MSG_UDP              iDivisorNMEA    $MXPGN,00FF8C,6808,FFF10695FA149F41*18
 
3.59996         MSG_UDP              iDivisorNMEA    $MXPGN,00FF28,3808,FF08FFFDFC059F41*19
 
3.61052         MSG_UDP              iDivisorNMEA    $AGRSA,4.37,A,,V*4F
 
3.61058         ANGULO_LEME          iDivisorNMEA    4.37000      
3.62078         MSG_UDP              iDivisorNMEA    $MXPGN,00FF00,280B,0002000005049913*19
 
3.63098         MSG_UDP              iDivisorNMEA    $HCHDG,283.6,0.0,E,23.3,W*6D
 
3.64121         MSG_UDP              iDivisorNMEA    $GPHDT,260.33,T*01
 
3.65147         MSG_UDP              iDivisorNMEA    $TIROT,-0.29,A*2D
 
3.66173         MSG_UDP              iDivisorNMEA    !AIVDM,1,1,,A,3:U7oI0u10trKrAjqteq;oEf2000,0*5F
 
3.67197         MSG_UDP              iDivisorNMEA    $MXPGN,01F803,281C,000000000000C809*16
 
3.68225         MSG_UDP              iDivisorNMEA    $MXPGN,01F804,281C,0000003EBAC1C809*16
 
3.69255         MSG_UDP              iDivisorNMEA    $AGRSA,4.37,A,,V*4F
 
3.69263         ANGULO_LEME          iDivisorNMEA    4.37000      
3.70290         MSG_UDP              iDivisorNMEA    $HCHDG,283.6,0.0,E,23.3,W*6D
 
3.71316         MSG_UDP              iDivisorNMEA    $GPHDT,260.34,T*06
 
3.72345         MSG_UDP              iDivisorNMEA    $TIROT,-0.29,A*2D
 
3.73370         MSG_UDP              iDivisorNMEA    $GPGSA,A,3,08,10,16,18,21,23,26,,,,,,2.56,2.00,2.00*02
 
3.74401         MSG_UDP              iDivisorNMEA    $GPGSV,2,1,07,08,43,247,47,10,35,145,00,16,06,321,41,18,14,064,43*7A
 
3.75431         MSG_UDP              iDivisorNMEA    $GPGSV,2,2,07,21,16,219,00,23,11,120,00,26,00,355,00*45
 
3.76462         MSG_UDP              iDivisorNMEA    $MXPGN,01FA06,681C,8A012400C8090FA0*17
 
3.99865         MSG_UDP              iDivisorNMEA    $HCHDG,283.7,0.0,E,23.3,W*6C
 
3.99881         MSG_UDP              iDivisorNMEA    $GPHDT,260.35,T*07
 
4.00924         MSG_UDP              iDivisorNMEA    $TIROT,-0.29,A*2D
 
4.03143         MSG_UDP              iDivisorNMEA    $MXPGN,01F803,281C,000000000000500D*15
 
4.03159         MSG_UDP              iDivisorNMEA    $MXPGN,01F804,281C,0000004C72C1500D*12
 
4.04744         MSG_UDP              iDivisorNMEA    $AGRSA,4.37,A,,V*4F
 
4.04755         ANGULO_LEME          iDivisorNMEA    4.37000      
4.05278         MSG_UDP              iDivisorNMEA    $GPZDA,135756.530,06,03,2023,,*55
 
4.09858         MSG_UDP              iDivisorNMEA    $HCHDG,283.7,0.0,E,23.3,W*6C
 
4.09875         MSG_UDP              iDivisorNMEA    $GPHDT,260.37,T*05
 
4.10904         MSG_UDP              iDivisorNMEA    $TIROT,-0.39,A*2C
 
4.11975         MSG_UDP              iDivisorNMEA    $MXPGN,00FF00,280B,0002000005049913*19
 
4.13149         MSG_UDP              iDivisorNMEA    $MXPGN,01F803,281C,000000000000640E*13
 
4.14079         MSG_UDP              iDivisorNMEA    $MXPGN,01F804,281C,0000004C91C1640E*19
 
4.15098         MSG_UDP              iDivisorNMEA    $AGRSA,4.32,A,,V*4A
 
4.15103         ANGULO_LEME          iDivisorNMEA    4.32000      
4.19863         MSG_UDP              iDivisorNMEA    $HCHDG,283.7,0.0,E,23.3,W*6C
 
4.19877         MSG_UDP              iDivisorNMEA    $GPHDT,260.36,T*04
 
4.20902         MSG_UDP              iDivisorNMEA    $TIROT,-0.49,A*2B
 
4.21917         MSG_UDP              iDivisorNMEA    !AIVDM,1,1,,A,1:U7?1@P00trH?1jq@rpugwf2@QB,0*2A
 
4.22931         MSG_UDP              iDivisorNMEA    $MXPGN,01FF1A,680B,FF022B849F4105A0*1D
 
4.23945         MSG_UDP              iDivisorNMEA    $MXPGN,01FF1A,782B,FF010B049F4105C0*15
 
4.24961         MSG_UDP              iDivisorNMEA    $MXPGN,01F803,281C,000000000000780F*1D
 
4.25977         MSG_UDP              iDivisorNMEA    $MXPGN,01F804,281C,0000004C91C1780F*17
 
4.26993         MSG_UDP              iDivisorNMEA    $MXPGN,01FF2C,7808,FFFFFFFF9F411780*63
 
4.28012         MSG_UDP              iDivisorNMEA    $MXPGN,01FF2C,7808,FFFF7FFFFFFF7F81*1E
 
4.29030         MSG_UDP              iDivisorNMEA    $MXPGN,01FF2C,7808,FF7FFFFFFFFFFF82*6C
 
4.30047         MSG_UDP              iDivisorNMEA    $MXPGN,01FF2C,7808,FFFFFFFF7FFFFF83*6D
 
4.31063         MSG_UDP              iDivisorNMEA    $AGRSA,4.32,A,,V*4A
 
4.31065         ANGULO_LEME          iDivisorNMEA    4.32000      
4.32078         MSG_UDP              iDivisorNMEA    $SDDPT,1.77,0.00,*7A
 
4.33097         MSG_UDP              iDivisorNMEA    $MXPGN,00FF3D,6808,7FFFFF0DFFFF9F41*6E
 
4.34109         MSG_UDP              iDivisorNMEA    $HCHDG,283.7,0.0,E,23.3,W*6C
 
4.35121         MSG_UDP              iDivisorNMEA    $GPHDT,260.36,T*04
 
4.36142         MSG_UDP              iDivisorNMEA    $TIROT,-0.49,A*2B
 
4.37156         MSG_UDP              iDivisorNMEA    $MXPGN,01F803,281C,0000000000008C10*1E
 
4.38170         MSG_UDP              iDivisorNMEA    $MXPGN,01F804,281C,0000004C91C18C10*14
 
4.39187         MSG_UDP              iDivisorNMEA    $AGRSA,4.32,A,,V*4A
 
4.39192         ANGULO_LEME          iDivisorNMEA    4.32000      
4.40201         MSG_UDP              iDivisorNMEA    $MXPGN,00FF00,280B,0002000005049913*19
 
4.41220         MSG_UDP              iDivisorNMEA    $HCHDG,283.7,0.0,E,23.3,W*6C
 
4.42243         MSG_UDP              iDivisorNMEA    $GPHDT,260.37,T*05
 
4.43262         MSG_UDP              iDivisorNMEA    $TIROT,-0.29,A*2D
 
4.44283         MSG_UDP              iDivisorNMEA    $MXPGN,01F803,281C,000000000000A011*15
 
4.45300         MSG_UDP              iDivisorNMEA    $MXPGN,01F804,281C,0000006D24C1A011*14
 
4.46316         MSG_UDP              iDivisorNMEA    $AGRSA,4.32,A,,V*4A
 
4.46318         ANGULO_LEME          iDivisorNMEA    4.32000      
4.47329         MSG_UDP              iDivisorNMEA    $MXPGN,00FF19,7808,0000000202009F41*15
 
4.48722         MSG_UDP              iDivisorNMEA    $MXPGN,00FF19,7808,0080000A0A009F41*1D
 
4.49953         MSG_UDP              iDivisorNMEA    $GPGGA,135756.000,2254.75204,S,04309.53859,W,1,12,1.00,4.25,M,-5.60,M,,*76
 
4.50465         MSG_UDP              iDivisorNMEA    $GPGLL,2254.75204,S,04309.53859,W,135756.000,A,A*5C
 
4.51481         MSG_UDP              iDivisorNMEA    $GPRMC,135756.000,A,2254.75204,S,04309.53859,W,0.09,0.00,060323,23.30,W,A*1D
 
4.52499         MSG_UDP              iDivisorNMEA    $GPVTG,0.00,T,,M,0.09,N,0.16,K,A*33
 
4.53515         MSG_UDP              iDivisorNMEA    $HCHDG,283.7,0.0,E,23.3,W*6C
 
4.54530         MSG_UDP              iDivisorNMEA    $GPHDT,260.38,T*0A
 
4.55546         MSG_UDP              iDivisorNMEA    $TIROT,-0.29,A*2D
 
4.56560         MSG_UDP              iDivisorNMEA    $MXPGN,01F803,281C,000000000000B412*11
 
4.57581         MSG_UDP              iDivisorNMEA    $MXPGN,01F804,281C,0000006D24C1B412*10
 
4.58614         MSG_UDP              iDivisorNMEA    $MXPGN,00FF8C,6808,FFF10695FA149F41*18
 
4.59629         MSG_UDP              iDivisorNMEA    $MXPGN,00FF28,3808,FF08FFFDFC059F41*19
 
4.60641         MSG_UDP              iDivisorNMEA    $AGRSA,4.32,A,,V*4A
 
4.60643         ANGULO_LEME          iDivisorNMEA    4.32000      
4.61658         MSG_UDP              iDivisorNMEA    $HCHDG,283.7,0.0,E,23.3,W*6C
 
4.62687         MSG_UDP              iDivisorNMEA    $GPHDT,260.38,T*0A
 
4.63706         MSG_UDP              iDivisorNMEA    $TIROT,-0.29,A*2D
 
4.64722         MSG_UDP              iDivisorNMEA    $MXPGN,00FF00,280B,0002000005049913*19
 
4.65743         MSG_UDP              iDivisorNMEA    $MXPGN,01F803,281C,000000000000C813*1D
 
4.66759         MSG_UDP              iDivisorNMEA    $MXPGN,01F804,281C,0000002944C1C813*63
 
4.67776         MSG_UDP              iDivisorNMEA    $AGRSA,4.32,A,,V*4A
 
4.67779         ANGULO_LEME          iDivisorNMEA    4.32000      
4.69854         MSG_UDP              iDivisorNMEA    $HCHDG,283.7,0.0,E,23.3,W*6C
 
4.85769         MSG_UDP              iDivisorNMEA    $PSMDNC,R,C0508C00E8388F9B,6*31
 
4.85857         MSG_UDP              iDivisorNMEA    $MXPGN,00FF00,280B,0002000005049913*19
 
4.88251         MSG_UDP              iDivisorNMEA    $MXPGN,00EA00,630B,00EE00*13
 
4.89871         MSG_UDP              iDivisorNMEA    $HCHDG,283.7,0.0,E,23.3,W*6C
 
4.89888         MSG_UDP              iDivisorNMEA    $GPHDT,260.38,T*0A
 
4.90915         MSG_UDP              iDivisorNMEA    $TIROT,-0.19,A*2E
 
4.91944         MSG_UDP              iDivisorNMEA    $MXPGN,01FF1A,680B,FF022B849F410500*6C
 
4.93163         MSG_UDP              iDivisorNMEA    $MXPGN,01F803,281C,0000000000002816*69
 
4.93989         MSG_UDP              iDivisorNMEA    $MXPGN,01F804,281C,0000003E6DC12816*18
 
4.95018         MSG_UDP              iDivisorNMEA    $MXPGN,00EA01,630B,00EE00*12
 
4.96044         MSG_UDP              iDivisorNMEA    $MXPGN,01FF1A,782B,FF010B049F4105E0*13
 
4.97079         MSG_UDP              iDivisorNMEA    $GPGGA,,2254.75199,S,04309.53779,W,1,,,,M,,M,,*50
 
4.98106         MSG_UDP              iDivisorNMEA    $GPGLL,2254.75199,S,04309.53779,W,,A,A*4B
 
4.99131         MSG_UDP              iDivisorNMEA    $GPVTG,7.40,T,,M,0.20,N,0.37,K,A*38
 
5.00150         MSG_UDP              iDivisorNMEA    $AGRSA,4.32,A,,V*4A
 
5.00152         ANGULO_LEME          iDivisorNMEA    4.32000      
5.01165         MSG_UDP              iDivisorNMEA    !AIVDO,1,1,,,B:UOH3P017>VtILf>d84cwtUoP06,0*3F
 
5.02179         MSG_UDP              iDivisorNMEA    $MXPGN,00EA02,630B,00EE00*11
 
5.03198         MSG_UDP              iDivisorNMEA    $HCHDG,283.7,0.0,E,23.3,W*6C
 
5.04215         MSG_UDP              iDivisorNMEA    $GPHDT,260.36,T*04
 
5.05231         MSG_UDP              iDivisorNMEA    $TIROT,-0.49,A*2B
 
5.06251         MSG_UDP              iDivisorNMEA    $MXPGN,01FF1A,680B,FF022B849F410500*6C
 
5.07271         MSG_UDP              iDivisorNMEA    $MXPGN,01FF1A,782B,FF010B049F410500*66
 
5.08285         MSG_UDP              iDivisorNMEA    $MXPGN,01F803,281C,0000000000003C17*12
 
5.09303         MSG_UDP              iDivisorNMEA    $MXPGN,01F804,281C,0000003E6DC13C17*63
 
5.10319         MSG_UDP              iDivisorNMEA    $MXPGN,00EA03,630B,00EE00*10
 
5.11334         MSG_UDP              iDivisorNMEA    $AGRSA,4.32,A,,V*4A
 
5.11338         ANGULO_LEME          iDivisorNMEA    4.32000      
5.12347         MSG_UDP              iDivisorNMEA    $GPZDA,135757.520,06,03,2023,,*55
 
5.13379         MSG_UDP              iDivisorNMEA    $MXPGN,00EA04,630B,00EE00*17
 
5.14397         MSG_UDP              iDivisorNMEA    $HCHDG,283.7,0.0,E,23.3,W*6C
 
5.15414         MSG_UDP              iDivisorNMEA    $GPHDT,260.35,T*07
 
5.16427         MSG_UDP              iDivisorNMEA    $TIROT,-0.49,A*2B
 
5.17441         MSG_UDP              iDivisorNMEA    $MXPGN,00FF00,280B,0002000005049913*19
 
5.18457         MSG_UDP              iDivisorNMEA    $MXPGN,01FF1A,680B,FF022B849F410500*6C
 
5.19470         MSG_UDP              iDivisorNMEA    $MXPGN,01FF1A,782B,FF010B049F410520*64
 
5.20489         MSG_UDP              iDivisorNMEA    $MXPGN,01F803,281C,0000000000005018*68
 
5.21505         MSG_UDP              iDivisorNMEA    $MXPGN,01F804,281C,0000006336C15018*1D
 
5.22525         MSG_UDP              iDivisorNMEA    $AGRSA,4.32,A,,V*4A
 
5.22529         ANGULO_LEME          iDivisorNMEA    4.32000      
5.23544         MSG_UDP              iDivisorNMEA    $HCHDG,283.7,0.0,E,23.3,W*6C
 
5.24565         MSG_UDP              iDivisorNMEA    $GPHDT,260.35,T*07
 
5.25581         MSG_UDP              iDivisorNMEA    $TIROT,-0.59,A*2A
 
5.26599         MSG_UDP              iDivisorNMEA    $MXPGN,01FF1A,680B,FF022B849F410500*6C
 
5.27614         MSG_UDP              iDivisorNMEA    $MXPGN,01FF1A,782B,FF010B049F410540*62
 
5.28626         MSG_UDP              iDivisorNMEA    $MXPGN,01F803,281C,0000000000006419*6E
 
5.29643         MSG_UDP              iDivisorNMEA    $MXPGN,01F804,281C,0000006336C16419*1B
 
5.30658         MSG_UDP              iDivisorNMEA    $MXPGN,01FF2C,7808,FFFFFFFF9F4117A0*1A
 
5.31677         MSG_UDP              iDivisorNMEA    $MXPGN,01FF2C,7808,FFFF7FFFFFFF7FA1*67
 
5.32692         MSG_UDP              iDivisorNMEA    $MXPGN,01FF2C,7808,FF7FFFFFFFFFFFA2*15
 
5.33709         MSG_UDP              iDivisorNMEA    $MXPGN,01FF2C,7808,FFFFFFFF7FFFFFA3*14
 
5.34730         MSG_UDP              iDivisorNMEA    $AGRSA,4.32,A,,V*4A
 
5.34732         ANGULO_LEME          iDivisorNMEA    4.32000      
5.35746         MSG_UDP              iDivisorNMEA    $SDDPT,1.76,0.00,*7B
 
5.36758         MSG_UDP              iDivisorNMEA    $MXPGN,00FF3D,6808,7FFFFF0DFFFF9F41*6E
 
5.37771         MSG_UDP              iDivisorNMEA    $HCHDG,283.7,0.0,E,23.3,W*6C
 
5.38788         MSG_UDP              iDivisorNMEA    $GPHDT,260.35,T*07
 
5.39802         MSG_UDP              iDivisorNMEA    $TIROT,-0.59,A*2A
 
5.40821         MSG_UDP              iDivisorNMEA    $MXPGN,01FF1A,680B,FF022B849F410500*6C
 
5.41839         MSG_UDP              iDivisorNMEA    $MXPGN,01FF1A,782B,FF010B049F410560*60
 
5.42858         MSG_UDP              iDivisorNMEA    $MXPGN,01F803,281C,000000000000781A*1B
 
5.43878         MSG_UDP              iDivisorNMEA    $MXPGN,01F804,281C,0000006336C1781A*6E
 
5.44898         MSG_UDP              iDivisorNMEA    $AGRSA,4.32,A,,V*4A
 
5.44901         ANGULO_LEME          iDivisorNMEA    4.32000      
5.45916         MSG_UDP              iDivisorNMEA    $MXPGN,00FF00,280B,0002000005049913*19
 
5.46934         MSG_UDP              iDivisorNMEA    $HCHDG,283.6,0.0,E,23.3,W*6D
 
5.47952         MSG_UDP              iDivisorNMEA    $GPHDT,260.34,T*06
 
5.48966         MSG_UDP              iDivisorNMEA    $TIROT,-0.69,A*29
 
5.49979         MSG_UDP              iDivisorNMEA    $MXPGN,01FF1A,680B,FF022B849F410500*6C
 
5.75046         MSG_UDP              iDivisorNMEA    $GPGGA,135758.100,2254.75279,S,04309.53850,W,1,07,2.00,-1.44,M,-5.00,M,,*54
 
5.75164         MSG_UDP              iDivisorNMEA    $GPGLL,2254.75279,S,04309.53850,W,135758.100,A,A*50
 
5.76107         MSG_UDP              iDivisorNMEA    $GPRMC,135758.100,A,2254.75279,S,04309.53850,W,0.01,326.10,060323,23.39,W,A*16
 
5.77127         MSG_UDP              iDivisorNMEA    $GPVTG,326.10,T,,M,0.01,N,0.01,K,A*3B
 
5.78139         MSG_UDP              iDivisorNMEA    $AGRSA,4.32,A,,V*4A
 
5.78143         ANGULO_LEME          iDivisorNMEA    4.32000      
5.79161         MSG_UDP              iDivisorNMEA    $GPGSA,A,3,08,10,16,18,27,28,31,32,65,85,86,72,1.70,1.40,1.40*0A
 
5.80176         MSG_UDP              iDivisorNMEA    $GPGSV,3,1,12,08,44,248,47,10,35,145,27,16,07,322,39,18,14,064,35*7E
 
5.81194         MSG_UDP              iDivisorNMEA    $GPGSV,3,2,12,27,59,303,43,28,24,034,40,31,18,024,42,32,72,130,41*72
 
5.82214         MSG_UDP              iDivisorNMEA    $GPGSV,3,3,12,65,23,302,36,85,31,041,43,86,72,096,39,72,62,245,36*78
 
5.83232         MSG_UDP              iDivisorNMEA    $MXPGN,01FF0D,780B,FF03000098900500*66
 
5.84254         MSG_UDP              iDivisorNMEA    $HCHDG,283.7,0.0,E,23.3,W*6C
 
5.85274         MSG_UDP              iDivisorNMEA    $GPHDT,260.35,T*07
 
5.86287         MSG_UDP              iDivisorNMEA    $TIROT,-0.99,A*26
 
5.87304         MSG_UDP              iDivisorNMEA    $MXPGN,01F803,281C,000000000000281F*19
 
5.88321         MSG_UDP              iDivisorNMEA    $MXPGN,01F804,281C,000000B31DC1281F*68
 
5.89339         MSG_UDP              iDivisorNMEA    $MXPGN,00FF16,7808,FF0000002B0A9F41*1B
 
5.90358         MSG_UDP              iDivisorNMEA    $AGRSA,4.32,A,,V*4A
 
5.90362         ANGULO_LEME          iDivisorNMEA    4.32000      
5.91377         MSG_UDP              iDivisorNMEA    $MXPGN,00FF00,280B,0002000005049913*19
 
5.92397         MSG_UDP              iDivisorNMEA    $HCHDG,283.7,0.0,E,23.3,W*6C
 
5.93417         MSG_UDP              iDivisorNMEA    $GPHDT,260.37,T*05
 
5.94437         MSG_UDP              iDivisorNMEA    $TIROT,-0.99,A*26
 
5.95454         MSG_UDP              iDivisorNMEA    $MXPGN,01F803,281C,0000000000003C20*16
 
5.96468         MSG_UDP              iDivisorNMEA    $MXPGN,01F804,281C,0000008251C13C20*6D
 
5.97483         MSG_UDP              iDivisorNMEA    $GPGGA,,2254.75189,S,04309.53749,W,1,,,,M,,M,,*52
 
5.98501         MSG_UDP              iDivisorNMEA    $GPGLL,2254.75189,S,04309.53749,W,,A,A*49
 
5.99517         MSG_UDP              iDivisorNMEA    $GPVTG,7.40,T,,M,0.40,N,0.74,K,A*39
 
6.00532         MSG_UDP              iDivisorNMEA    $AGRSA,4.32,A,,V*4A
 
6.00536         ANGULO_LEME          iDivisorNMEA    4.32000      
6.01554         MSG_UDP              iDivisorNMEA    $HCHDG,283.7,0.0,E,23.3,W*6C
 
6.02572         MSG_UDP              iDivisorNMEA    $GPHDT,260.38,T*0A
 
6.03590         MSG_UDP              iDivisorNMEA    $TIROT,-0.79,A*28
 
6.04609         MSG_UDP              iDivisorNMEA    $MXPGN,01F803,281C,0000000000005021*62
 
6.05627         MSG_UDP              iDivisorNMEA    $MXPGN,01F804,281C,0000008251C15021*19
 
6.06643         MSG_UDP              iDivisorNMEA    $AGRSA,4.32,A,,V*4A
 
6.06646         ANGULO_LEME          iDivisorNMEA    4.32000      
6.07661         MSG_UDP              iDivisorNMEA    $GPZDA,135758.520,06,03,2023,,*5A
 
6.09849         MSG_UDP              iDivisorNMEA    $HCHDG,283.7,0.0,E,23.3,W*6C
 
6.09859         MSG_UDP              iDivisorNMEA    $GPHDT,260.39,T*0B
 
6.10878         MSG_UDP              iDivisorNMEA    $TIROT,-0.79,A*28
 
6.11891         MSG_UDP              iDivisorNMEA    $MXPGN,00FF00,280B,0002000005049913*19
 
6.13145         MSG_UDP              iDivisorNMEA    $MXPGN,01F803,281C,0000000000006422*66
 
6.13964         MSG_UDP              iDivisorNMEA    $MXPGN,01F804,281C,000000C692C16422*6D
 
6.14979         MSG_UDP              iDivisorNMEA    $AGRSA,4.32,A,,V*4A
 
6.14981         ANGULO_LEME          iDivisorNMEA    4.32000      
6.19854         MSG_UDP              iDivisorNMEA    $HCHDG,283.7,0.0,E,23.3,W*6C
 
6.19861         MSG_UDP              iDivisorNMEA    $GPHDT,260.38,T*0A
 
6.20872         MSG_UDP              iDivisorNMEA    $TIROT,-0.99,A*26
 
6.23148         MSG_UDP              iDivisorNMEA    $MXPGN,01F803,281C,0000000000007823*6A
 
6.23156         MSG_UDP              iDivisorNMEA    $MXPGN,01F804,281C,000000C692C17823*61
 
6.24172         MSG_UDP              iDivisorNMEA    $MXPGN,01FF2C,7808,FFFFFFFF9F4117C0*18
 
6.25192         MSG_UDP              iDivisorNMEA    $MXPGN,01FF2C,7808,FFFF7FFFFFFF7FC1*65
 
6.26232         MSG_UDP              iDivisorNMEA    $MXPGN,01FF2C,7808,FF7FFFFFFFFFFFC2*17
 
6.27248         MSG_UDP              iDivisorNMEA    $MXPGN,01FF2C,7808,FFFFFFFF7FFFFFC3*16
 
6.28262         MSG_UDP              iDivisorNMEA    $AGRSA,4.32,A,,V*4A
 
6.28266         ANGULO_LEME          iDivisorNMEA    4.32000      
6.29281         MSG_UDP              iDivisorNMEA    $SDDPT,1.76,0.00,*7B
 
6.30294         MSG_UDP              iDivisorNMEA    $MXPGN,00FF3D,6808,7FFFFF0DFFFF9F41*6E
 
6.31314         MSG_UDP              iDivisorNMEA    $MXPGN,00FF3D,6808,0000FF0BFFFF9F41*19
 
6.32329         MSG_UDP              iDivisorNMEA    $HCHDG,283.7,0.0,E,23.3,W*6C
 
6.33348         MSG_UDP              iDivisorNMEA    $GPHDT,260.37,T*05
 
6.34367         MSG_UDP              iDivisorNMEA    $TIROT,-0.99,A*26
 
6.35383         MSG_UDP              iDivisorNMEA    $MXPGN,00FF3D,6808,FFFFFF0CFFFF9F41*18
 
6.36400         MSG_UDP              iDivisorNMEA    $MXPGN,01F803,281C,0000000000008C24*19
 
6.37421         MSG_UDP              iDivisorNMEA    $MXPGN,01F804,281C,000000C692C18C24*12
 
6.38437         MSG_UDP              iDivisorNMEA    $MXPGN,00FF3D,6808,FFFFFF03FFFF9F41*68
 
6.39454         MSG_UDP              iDivisorNMEA    $AGRSA,4.32,A,,V*4A
 
6.39457         ANGULO_LEME          iDivisorNMEA    4.32000      
6.40471         MSG_UDP              iDivisorNMEA    $MXPGN,00FF00,280B,0002000005049913*19
 
6.41479         MSG_UDP              iDivisorNMEA    $MXPGN,00FF3D,6808,FFFFFF02FFFF9F41*69
 
6.64859         MSG_UDP              iDivisorNMEA    $AGRSA,4.32,A,,V*4A
 
6.64867         ANGULO_LEME          iDivisorNMEA    4.32000      
6.69858         MSG_UDP              iDivisorNMEA    $HCHDG,283.7,0.0,E,23.3,W*6C
 
6.69884         MSG_UDP              iDivisorNMEA    $GPHDT,260.35,T*07
 
6.70910         MSG_UDP              iDivisorNMEA    $TIROT,-1.09,A*2E
 
6.71931         MSG_UDP              iDivisorNMEA    $GPGSA,A,3,08,10,16,18,21,23,26,,,,,,2.56,2.00,2.00*02
 
6.72974         MSG_UDP              iDivisorNMEA    $GPGSV,2,1,07,08,43,247,47,10,34,145,00,16,06,321,41,18,14,064,42*7A
 
6.74003         MSG_UDP              iDivisorNMEA    $GPGSV,2,2,07,21,16,219,00,23,11,120,00,26,00,355,00*45
 
6.75028         MSG_UDP              iDivisorNMEA    $MXPGN,01FA06,681C,8A012400C8280F00*65
 
6.76053         MSG_UDP              iDivisorNMEA    $MXPGN,01FA06,681C,008C0123F1BA0001*12
 
6.77119         MSG_UDP              iDivisorNMEA    $MXPGN,01FA06,681C,FFFFFFFFFF01A102*6F
 
6.78148         MSG_UDP              iDivisorNMEA    $MXPGN,01F803,281C,0000000000000028*6E
 
6.79174         MSG_UDP              iDivisorNMEA    $MXPGN,01F804,281C,00000002C8C10028*62
 
6.80205         MSG_UDP              iDivisorNMEA    !AIVDM,1,1,,A,1:U8:OPP1OtrJ3ejqFSaJwwl2@Ri,0*51
 
6.81230         MSG_UDP              iDivisorNMEA    $MXPGN,00FF3C,3808,8000F8FE00009F41*1C
 
6.82253         MSG_UDP              iDivisorNMEA    $GPGGA,135759.300,2254.75279,S,04309.53850,W,1,07,2.00,-1.44,M,-5.00,M,,*57
 
6.83279         MSG_UDP              iDivisorNMEA    $GPGLL,2254.75279,S,04309.53850,W,135759.300,A,A*53
 
6.84306         MSG_UDP              iDivisorNMEA    $GPRMC,135759.300,A,2254.75279,S,04309.53850,W,0.00,4.07,060323,23.39,W,A*11
 
6.85331         MSG_UDP              iDivisorNMEA    $GPVTG,4.07,T,,M,0.00,N,0.00,K,A*3E
 
6.86362         MSG_UDP              iDivisorNMEA    $AGRSA,4.32,A,,V*4A
 
6.86379         ANGULO_LEME          iDivisorNMEA    4.32000      
6.87402         MSG_UDP              iDivisorNMEA    $GPGSA,A,3,08,10,16,18,27,28,31,32,65,85,86,72,1.70,1.40,1.40*0A
 
6.88437         MSG_UDP              iDivisorNMEA    $GPGSV,3,1,12,08,44,248,47,10,35,145,27,16,07,322,39,18,14,064,35*7E
 
6.89478         MSG_UDP              iDivisorNMEA    $GPGSV,3,2,12,27,59,303,43,28,24,034,40,31,18,024,42,32,72,130,41*72
 
6.90514         MSG_UDP              iDivisorNMEA    $GPGSV,3,3,12,65,23,302,36,85,31,041,43,86,72,096,39,72,62,245,36*78
 
6.91547         MSG_UDP              iDivisorNMEA    $MXPGN,01FF0D,780B,FF03000098900520*64
 
6.92595         MSG_UDP              iDivisorNMEA    $HCHDG,283.6,0.0,E,23.3,W*6D
 
6.93621         MSG_UDP              iDivisorNMEA    $GPHDT,260.34,T*06
 
6.94651         MSG_UDP              iDivisorNMEA    $TIROT,-1.19,A*2F
 
6.95680         MSG_UDP              iDivisorNMEA    $MXPGN,01F803,281C,0000000000001429*6A
 
6.96716         MSG_UDP              iDivisorNMEA    $MXPGN,01F804,281C,00000002C8C11429*66
 
6.97750         MSG_UDP              iDivisorNMEA    $MXPGN,00FF16,7808,FF0000002B0A9F41*1B
 
6.98775         MSG_UDP              iDivisorNMEA    $AGRSA,4.32,A,,V*4A
 
6.98784         ANGULO_LEME          iDivisorNMEA    4.32000      
6.99801         MSG_UDP              iDivisorNMEA    $MXPGN,00FF00,280B,0002000005049913*19
 
7.00827         MSG_UDP              iDivisorNMEA    $HCHDG,283.7,0.0,E,23.3,W*6C
 
7.01855         MSG_UDP              iDivisorNMEA    $GPHDT,260.36,T*04
 
7.02889         MSG_UDP              iDivisorNMEA    $TIROT,-1.19,A*2F
 
7.03910         MSG_UDP              iDivisorNMEA    $MXPGN,01F803,281C,000000000000282A*1D
 
7.04934         MSG_UDP              iDivisorNMEA    $MXPGN,01F804,281C,000000BAC7C1282A*1F
 
7.05960         MSG_UDP              iDivisorNMEA    $GPGGA,,2254.75189,S,04309.53749,W,1,,,,M,,M,,*52
 
7.06992         MSG_UDP              iDivisorNMEA    $GPGLL,2254.75189,S,04309.53749,W,,A,A*49
 
7.08019         MSG_UDP              iDivisorNMEA    $GPVTG,7.40,T,,M,0.40,N,0.74,K,A*39
 
7.09053         MSG_UDP              iDivisorNMEA    $AGRSA,4.32,A,,V*4A
 
7.09060         ANGULO_LEME          iDivisorNMEA    4.32000      
7.10078         MSG_UDP              iDivisorNMEA    $HCHDG,283.7,0.0,E,23.3,W*6C
 
7.11103         MSG_UDP              iDivisorNMEA    $GPHDT,260.36,T*04
 
7.12135         MSG_UDP              iDivisorNMEA    $TIROT,-1.39,A*2D
 
7.13165         MSG_UDP              iDivisorNMEA    !AIVDO,1,1,,,B:UOH3P00W>VtILf>d44cwuUoP06,0*53
 
7.14194         MSG_UDP              iDivisorNMEA    $MXPGN,01F803,281C,0000000000003C2B*64
 
7.15224         MSG_UDP              iDivisorNMEA    $MXPGN,01F804,281C,000000BAC7C13C2B*66
 
7.16254         MSG_UDP              iDivisorNMEA    $AGRSA,4.32,A,,V*4A
 
7.16264         ANGULO_LEME          iDivisorNMEA    4.32000      
7.17284         MSG_UDP              iDivisorNMEA    $GPZDA,135759.520,06,03,2023,,*5B
 
7.18318         MSG_UDP              iDivisorNMEA    !AIVDM,1,1,,A,1:U8?H0P1OtrLDmjrKQGT?wl2@Rv,0*29
 
7.19344         MSG_UDP              iDivisorNMEA    $HCHDG,283.7,0.0,E,23.3,W*6C
 
7.20373         MSG_UDP              iDivisorNMEA    $GPHDT,260.35,T*07
 
7.21404         MSG_UDP              iDivisorNMEA    $TIROT,-1.39,A*2D
 
7.22432         MSG_UDP              iDivisorNMEA    $MXPGN,00FF00,280B,0002000005049913*19
 
7.23461         MSG_UDP              iDivisorNMEA    $MXPGN,01F803,281C,000000000000502C*10
 
7.24497         MSG_UDP              iDivisorNMEA    $MXPGN,01F804,281C,0000008DB2C1502C*69
 
7.25524         MSG_UDP              iDivisorNMEA    $AGRSA,4.32,A,,V*4A
 
7.25531         ANGULO_LEME          iDivisorNMEA    4.32000      
7.26547         MSG_UDP              iDivisorNMEA    $HCHDG,283.6,0.0,E,23.3,W*6D
 
7.27620         MSG_UDP              iDivisorNMEA    $GPHDT,260.34,T*06
 
7.28653         MSG_UDP              iDivisorNMEA    $TIROT,-1.39,A*2D
 
7.29685         MSG_UDP              iDivisorNMEA    $MXPGN,01F803,281C,000000000000642D*10
 
7.30711         MSG_UDP              iDivisorNMEA    $MXPGN,01F804,281C,0000008DB2C1642D*69
 
7.31741         MSG_UDP              iDivisorNMEA    $MXPGN,01FF2C,7808,FFFFFFFF9F4117E0*1E
 
7.32772         MSG_UDP              iDivisorNMEA    $MXPGN,01FF2C,7808,FFFF7FFFFFFF7FE1*63
 
7.53684         MSG_UDP              iDivisorNMEA    $MXPGN,00FF8C,6808,FFF10695FA149F41*18
 
7.53748         MSG_UDP              iDivisorNMEA    $MXPGN,00FF28,3808,FF08FFFDFC059F41*19
 
7.54780         MSG_UDP              iDivisorNMEA    $AGRSA,4.32,A,,V*4A
 
7.54785         ANGULO_LEME          iDivisorNMEA    4.32000      
7.59861         MSG_UDP              iDivisorNMEA    $HCHDG,283.6,0.0,E,23.3,W*6D
 
7.59875         MSG_UDP              iDivisorNMEA    $GPHDT,260.34,T*06
 
7.60905         MSG_UDP              iDivisorNMEA    $TIROT,-1.19,A*2F
 
7.61929         MSG_UDP              iDivisorNMEA    $MXPGN,00FF00,280B,0002000005049913*19
 
7.63155         MSG_UDP              iDivisorNMEA    $MXPGN,01F803,281C,000000000000B431*10
 
7.64086         MSG_UDP              iDivisorNMEA    $MXPGN,01F804,281C,000000874CC1B431*1D
 
7.65112         MSG_UDP              iDivisorNMEA    $AGRSA,4.32,A,,V*4A
 
7.65122         ANGULO_LEME          iDivisorNMEA    4.32000      
7.69846         MSG_UDP              iDivisorNMEA    $HCHDG,283.6,0.0,E,23.3,W*6D
 
7.69876         MSG_UDP              iDivisorNMEA    $GPHDT,260.33,T*01
 
7.70912         MSG_UDP              iDivisorNMEA    $TIROT,-1.19,A*2F
 
7.71949         MSG_UDP              iDivisorNMEA    $GPGSA,A,3,08,10,16,18,21,23,26,,,,,,2.56,2.00,2.00*02
 
7.72976         MSG_UDP              iDivisorNMEA    $GPGSV,2,1,07,08,43,247,47,10,34,145,00,16,06,321,42,18,14,064,42*79
 
7.74009         MSG_UDP              iDivisorNMEA    $GPGSV,2,2,07,21,16,219,00,23,11,120,00,26,00,355,00*45
 
7.75048         MSG_UDP              iDivisorNMEA    $MXPGN,01FA06,681C,8A012400C8320F20*6C
 
7.76087         MSG_UDP              iDivisorNMEA    $MXPGN,01FA06,681C,008C0123F1BA0021*10
 
7.77117         MSG_UDP              iDivisorNMEA    $MXPGN,01FA06,681C,FFFFFFFFFF01A122*6D
 
7.78192         MSG_UDP              iDivisorNMEA    $MXPGN,01F803,281C,0000000000000032*65
 
7.79218         MSG_UDP              iDivisorNMEA    $MXPGN,01F804,281C,000000874CC10032*68
 
7.80242         MSG_UDP              iDivisorNMEA    $MXPGN,00FF3C,3808,8000F8FE00009F41*1C
 
7.81269         MSG_UDP              iDivisorNMEA    $GPGGA,135800.300,2254.75279,S,04309.53850,W,1,07,2.00,-1.44,M,-5.00,M,,*54
 
7.82302         MSG_UDP              iDivisorNMEA    $GPGLL,2254.75279,S,04309.53850,W,135800.300,A,A*50
 
7.83332         MSG_UDP              iDivisorNMEA    $GPRMC,135800.300,A,2254.75279,S,04309.53850,W,0.01,198.44,060323,23.39,W,A*10
 
7.84363         MSG_UDP              iDivisorNMEA    $GPVTG,198.44,T,,M,0.01,N,0.01,K,A*3D
 
7.85408         MSG_UDP              iDivisorNMEA    $AGRSA,4.32,A,,V*4A
 
7.85414         ANGULO_LEME          iDivisorNMEA    4.32000      
7.86436         MSG_UDP              iDivisorNMEA    $GPGSA,A,3,08,10,16,18,27,28,31,32,65,85,86,72,1.70,1.40,1.40*0A
 
7.87479         MSG_UDP              iDivisorNMEA    $GPGSV,3,1,12,08,44,248,47,10,35,145,27,16,07,322,39,18,14,064,35*7E
 
7.88508         MSG_UDP              iDivisorNMEA    $GPGSV,3,2,12,27,59,303,43,28,24,034,40,31,18,024,43,32,72,130,41*73
 
7.89536         MSG_UDP              iDivisorNMEA    $GPGSV,3,3,12,65,23,302,37,85,31,041,43,86,72,096,39,72,62,245,36*79
 
7.90566         MSG_UDP              iDivisorNMEA    $MXPGN,01FF0D,780B,FF03000098900540*62
 
7.91589         MSG_UDP              iDivisorNMEA    $HCHDG,283.6,0.0,E,23.3,W*6D
 
7.92615         MSG_UDP              iDivisorNMEA    $GPHDT,260.33,T*01
 
7.93643         MSG_UDP              iDivisorNMEA    $TIROT,-1.29,A*2C
 
7.94675         MSG_UDP              iDivisorNMEA    $MXPGN,01F803,281C,0000000000001433*61
 
7.95702         MSG_UDP              iDivisorNMEA    $MXPGN,01F804,281C,000000874CC11433*6C
 
7.96727         MSG_UDP              iDivisorNMEA    $MXPGN,00FF16,7808,FF0000002B0A9F41*1B
 
7.97759         MSG_UDP              iDivisorNMEA    $AGRSA,4.32,A,,V*4A
 
7.97768         ANGULO_LEME          iDivisorNMEA    4.32000      
7.98789         MSG_UDP              iDivisorNMEA    $MXPGN,00FF00,280B,0002000005049913*19
 
7.99822         MSG_UDP              iDivisorNMEA    $HCHDG,283.6,0.0,E,23.3,W*6D
 
8.00845         MSG_UDP              iDivisorNMEA    $GPHDT,260.32,T*00
 
8.01870         MSG_UDP              iDivisorNMEA    $TIROT,-1.29,A*2C
 
8.02898         MSG_UDP              iDivisorNMEA    $MXPGN,01F803,281C,0000000000002834*69
 
8.03921         MSG_UDP              iDivisorNMEA    $MXPGN,01F804,281C,0000005990C12834*19
 
8.04945         MSG_UDP              iDivisorNMEA    $GPGGA,,2254.75199,S,04309.53749,W,1,,,,M,,M,,*53
 
8.05971         MSG_UDP              iDivisorNMEA    $GPGLL,2254.75199,S,04309.53749,W,,A,A*48
 
8.06993         MSG_UDP              iDivisorNMEA    $GPVTG,7.40,T,,M,0.20,N,0.37,K,A*38
 
8.08017         MSG_UDP              iDivisorNMEA    $AGRSA,4.32,A,,V*4A
 
8.08024         ANGULO_LEME          iDivisorNMEA    4.32000      
8.09042         MSG_UDP              iDivisorNMEA    !AIVDM,2,1,4,B,5:U8l=`2E`a=104:221=@58p5J0hT986222222001A@3?4if0=D13hhDsDR`,0*7D
 
8.10064         MSG_UDP              iDivisorNMEA    !AIVDM,2,2,4,B,88888888880,2*23
 
8.11083         MSG_UDP              iDivisorNMEA    $HCHDG,283.6,0.0,E,23.3,W*6D
 
8.12111         MSG_UDP              iDivisorNMEA    $GPHDT,260.30,T*02
 
8.13138         MSG_UDP              iDivisorNMEA    $TIROT,-1.39,A*2D
 
8.14162         MSG_UDP              iDivisorNMEA    $MXPGN,01F803,281C,0000000000003C35*12
 
8.15188         MSG_UDP              iDivisorNMEA    $MXPGN,01F804,281C,0000005990C13C35*62
 
8.16209         MSG_UDP              iDivisorNMEA    $AGRSA,4.32,A,,V*4A
 
8.16214         ANGULO_LEME          iDivisorNMEA    4.32000      
8.17232         MSG_UDP              iDivisorNMEA    $GPZDA,135800.520,06,03,2023,,*58
 
8.18255         MSG_UDP              iDivisorNMEA    $HCHDG,283.6,0.0,E,23.3,W*6D
 
8.19281         MSG_UDP              iDivisorNMEA    $GPHDT,260.31,T*03
 
8.20307         MSG_UDP              iDivisorNMEA    $TIROT,-1.39,A*2D
 
8.21328         MSG_UDP              iDivisorNMEA    $MXPGN,00FF00,280B,0002000005049913*19
 
8.22349         MSG_UDP              iDivisorNMEA    $MXPGN,01F803,281C,0000000000005036*64
 
8.23373         MSG_UDP              iDivisorNMEA    $MXPGN,01F804,281C,000000B976C15036*6B
 
8.43193         MSG_UDP              iDivisorNMEA    $MXPGN,01F803,281C,0000000000008C39*15
 
8.43258         MSG_UDP              iDivisorNMEA    $MXPGN,01F804,281C,000000D394C18C39*1A
 
8.44244         MSG_UDP              iDivisorNMEA    $MXPGN,01FF1A,782B,FF010B049F4105E0*13
 
8.45272         MSG_UDP              iDivisorNMEA    $AGRSA,4.32,A,,V*4A
 
8.45278         ANGULO_LEME          iDivisorNMEA    4.32000      
8.46295         MSG_UDP              iDivisorNMEA    $MXPGN,00FF19,7808,0000000202009F41*15
 
8.48639         MSG_UDP              iDivisorNMEA    $MXPGN,00FF19,7808,0080000A0A009F41*1D
 
8.50045         MSG_UDP              iDivisorNMEA    $GPGGA,135800.000,2254.75165,S,04309.53907,W,1,12,1.00,3.73,M,-5.60,M,,*70
 
8.50151         MSG_UDP              iDivisorNMEA    $GPGLL,2254.75165,S,04309.53907,W,135800.000,A,A*5E
 
8.51175         MSG_UDP              iDivisorNMEA    $GPRMC,135800.000,A,2254.75165,S,04309.53907,W,0.00,0.00,060323,23.30,W,A*16
 
8.52200         MSG_UDP              iDivisorNMEA    $GPVTG,0.00,T,,M,0.00,N,0.00,K,A*3D
 
8.53230         MSG_UDP              iDivisorNMEA    $HCHDG,283.6,0.0,E,23.3,W*6D
 
8.54255         MSG_UDP              iDivisorNMEA    $GPHDT,260.32,T*00
 
8.55286         MSG_UDP              iDivisorNMEA    $TIROT,-1.29,A*2C
 
8.56311         MSG_UDP              iDivisorNMEA    $MXPGN,01F803,281C,000000000000A03A*67
 
8.57365         MSG_UDP              iDivisorNMEA    $MXPGN,01F804,281C,000000D394C1A03A*68
 
8.58396         MSG_UDP              iDivisorNMEA    $MXPGN,00FF8C,6808,FFF10695FA149F41*18
 
8.59427         MSG_UDP              iDivisorNMEA    $MXPGN,00FF28,3808,FF08FFFDFC059F41*19
 
8.60452         MSG_UDP              iDivisorNMEA    $AGRSA,4.32,A,,V*4A
 
8.60457         ANGULO_LEME          iDivisorNMEA    4.32000      
8.61480         MSG_UDP              iDivisorNMEA    $HCHDG,283.6,0.0,E,23.3,W*6D
 
8.62508         MSG_UDP              iDivisorNMEA    $GPHDT,260.32,T*00
 
8.63533         MSG_UDP              iDivisorNMEA    $TIROT,-1.29,A*2C
 
8.64558         MSG_UDP              iDivisorNMEA    $MXPGN,00FF00,280B,0002000005049913*19
 
8.65584         MSG_UDP              iDivisorNMEA    $MXPGN,01F803,281C,000000000000A03A*67
 
8.66614         MSG_UDP              iDivisorNMEA    $MXPGN,01F804,281C,000000D394C1A03A*68
 
8.67643         MSG_UDP              iDivisorNMEA    $AGRSA,4.32,A,,V*4A
 
8.67649         ANGULO_LEME          iDivisorNMEA    4.32000      
8.68670         MSG_UDP              iDivisorNMEA    !AIVDM,1,1,,B,1:U7ua0P00LrR75jsE;0c7mp0`0h,0*40
 
8.69703         MSG_UDP              iDivisorNMEA    $MXPGN,01FF1A,782B,FFFAFF859F410500*1B
 
8.70725         MSG_UDP              iDivisorNMEA    $HCHDG,283.6,0.0,E,23.3,W*6D
 
8.71753         MSG_UDP              iDivisorNMEA    $GPHDT,260.32,T*00
 
8.72782         MSG_UDP              iDivisorNMEA    $TIROT,-1.29,A*2C
 
8.73806         MSG_UDP              iDivisorNMEA    $GPGSA,A,3,08,10,16,18,21,23,26,,,,,,2.56,2.00,2.00*02
 
8.74832         MSG_UDP              iDivisorNMEA    $GPGSV,2,1,07,08,43,247,47,10,34,145,00,16,06,321,41,18,14,064,42*7A
 
8.75862         MSG_UDP              iDivisorNMEA    $GPGSV,2,2,07,21,16,219,00,23,11,120,00,26,00,355,00*45
 
8.76891         MSG_UDP              iDivisorNMEA    $MXPGN,01FA06,681C,8A012400C83B0F40*1A
 
8.77913         MSG_UDP              iDivisorNMEA    $MXPGN,01FA06,681C,008C0123F1BC0041*14
 
8.78942         MSG_UDP              iDivisorNMEA    $MXPGN,01FA06,681C,FFFFFFFFFF01A142*6B
 
8.79963         MSG_UDP              iDivisorNMEA    $MXPGN,01F803,281C,000000000000003B*15
 
8.80988         MSG_UDP              iDivisorNMEA    $MXPGN,01F804,281C,0000009A06C1003B*1E
 
8.82012         MSG_UDP              iDivisorNMEA    $MXPGN,00FF3C,3808,8000F8FE00009F41*1C
 
8.83040         MSG_UDP              iDivisorNMEA    $GPGGA,135801.100,2254.75279,S,04309.53850,W,1,07,2.00,-1.44,M,-5.00,M,,*57
 
8.84066         MSG_UDP              iDivisorNMEA    $GPGLL,2254.75279,S,04309.53850,W,135801.100,A,A*53
 
8.85092         MSG_UDP              iDivisorNMEA    $GPRMC,135801.100,A,2254.75279,S,04309.53850,W,0.00,310.33,060323,23.39,W,A*10
 
8.86126         MSG_UDP              iDivisorNMEA    $GPVTG,310.33,T,,M,0.00,N,0.00,K,A*3F
 
8.87150         MSG_UDP              iDivisorNMEA    $AGRSA,4.32,A,,V*4A
 
8.87155         ANGULO_LEME          iDivisorNMEA    4.32000      
8.88172         MSG_UDP              iDivisorNMEA    $GPGSA,A,3,08,10,16,18,27,28,31,32,65,85,86,72,1.70,1.40,1.40*0A
 
8.89219         MSG_UDP              iDivisorNMEA    $GPGSV,3,1,12,08,44,248,47,10,35,145,27,16,07,322,39,18,14,064,35*7E
 
8.90253         MSG_UDP              iDivisorNMEA    $GPGSV,3,2,12,27,59,303,43,28,24,034,40,31,18,024,43,32,72,130,41*73
 
8.91278         MSG_UDP              iDivisorNMEA    $GPGSV,3,3,12,65,23,302,37,85,31,041,43,86,72,096,39,72,62,245,36*79
 
8.92305         MSG_UDP              iDivisorNMEA    $MXPGN,01FF0D,780B,FF03000098900560*60
 
8.93329         MSG_UDP              iDivisorNMEA    $HCHDG,283.6,0.0,E,23.3,W*6D
 
8.94393         MSG_UDP              iDivisorNMEA    $GPHDT,260.30,T*02
 
8.95416         MSG_UDP              iDivisorNMEA    $TIROT,-1.19,A*2F
 
8.96441         MSG_UDP              iDivisorNMEA    $MXPGN,01F803,281C,000000000000283D*19
 
8.97468         MSG_UDP              iDivisorNMEA    $MXPGN,01F804,281C,0000009A06C1283D*12
 
8.98494         MSG_UDP              iDivisorNMEA    $MXPGN,00FF16,7808,FF0000002B0A9F41*1B
 
8.99518         MSG_UDP              iDivisorNMEA    $AGRSA,4.32,A,,V*4A
 
8.99523         ANGULO_LEME          iDivisorNMEA    4.32000      
9.00546         MSG_UDP              iDivisorNMEA    $MXPGN,00FF00,280B,0002000005049913*19
 
9.01566         MSG_UDP              iDivisorNMEA    $HCHDG,283.6,0.0,E,23.3,W*6D
 
9.02591         MSG_UDP              iDivisorNMEA    $GPHDT,260.29,T*0A
 
9.03617         MSG_UDP              iDivisorNMEA    $TIROT,-0.99,A*26
 
9.04637         MSG_UDP              iDivisorNMEA    !AIVDM,2,1,5,A,5:U7oI42Bqvm10Pj220<8v0590t4@u:2222222162Q59:4k1N?4R`8888888,0*0E
 
9.05659         MSG_UDP              iDivisorNMEA    !AIVDM,2,2,5,A,88888888880,2*21
 
