%%%%%%%%%%%%%%%%%%%%%%%%%%%%%%%%%%%%%%%%%%%%%%%%%%%%%%%%%%%
%% LOG FILE:       /home/moos-ivp-douglas/log/teste_7_3_2023_____10_09_46/teste_7_3_2023_____10_09_46.alog
%% FILE OPENED ON  Wed Dec 31 21:00:00 1969
%% LOGSTART           1678194585.760012
%%%%%%%%%%%%%%%%%%%%%%%%%%%%%%%%%%%%%%%%%%%%%%%%%%%%%%%%%%%
0.22191         DESIRED_RUDDER       pMarinePIDV22   0.00000      
0.22191         DESIRED_THRUST       pMarinePIDV22   0.00000      
0.62892         MOOS_DEBUG           pHelmIvP        pHelmIvP AllStop: ManualOverride 
0.62893         DESIRED_SPEED        pHelmIvP        0.00000      
0.62893         DESIRED_HEADING      pHelmIvP        0.00000      
0.81937         MSG_UDP              iDivisorNMEA    $GPGGA,,2254.75749,S,04309.53579,W,1,,,,M,,M,,*59
 
0.82033         MSG_UDP              iDivisorNMEA    $GPGLL,2254.75749,S,04309.53579,W,,A,A*42
 
0.83063         MSG_UDP              iDivisorNMEA    $GPVTG,281.40,T,,M,0.90,N,1.66,K,A*3A
 
0.84086         MSG_UDP              iDivisorNMEA    $AGRSA,-0.90,A,,V*6B
 
0.84096         ANGULO_LEME          iDivisorNMEA    -0.90000     
0.85115         MSG_UDP              iDivisorNMEA    $MXPGN,00FF16,7808,FF0000002B0A9F41*1B
 
0.86140         MSG_UDP              iDivisorNMEA    $MXPGN,01F803,281C,00000000000064E4*17
 
0.87166         MSG_UDP              iDivisorNMEA    $MXPGN,01F804,281C,000000D91AC164E4*6F
 
0.88191         MSG_UDP              iDivisorNMEA    $GPGSA,A,3,08,10,16,18,26,27,28,31,32,66,65,86,1.60,1.30,1.30*07
 
0.89216         MSG_UDP              iDivisorNMEA    $GPGSV,3,1,12,08,32,227,32,10,46,167,41,16,17,304,38,18,25,083,41*7C
 
0.90241         MSG_UDP              iDivisorNMEA    $GPGSV,3,2,12,26,07,340,38,27,62,253,42,28,11,019,39,31,06,010,34*7D
 
0.91269         MSG_UDP              iDivisorNMEA    $GPGSV,3,3,12,32,74,037,47,66,05,322,45,65,56,297,40,86,39,065,45*76
 
1.16827         MSG_UDP              iDivisorNMEA    $HCHDG,284.8,0.0,E,23.3,W*64
 
1.16918         MSG_UDP              iDivisorNMEA    $GPHDT,261.50,T*05
 
1.17949         MSG_UDP              iDivisorNMEA    $TIROT,0.19,A*03
 
1.18971         MSG_UDP              iDivisorNMEA    $MXPGN,01FF1A,782B,FF010B049F4105C0*15
 
1.21814         MSG_UDP              iDivisorNMEA    $AGRSA,-0.90,A,,V*6B
 
1.21823         ANGULO_LEME          iDivisorNMEA    -0.90000     
1.22122         MSG_UDP              iDivisorNMEA    $MXPGN,01FF2C,7808,FFFFFFFF9F4117E0*1E
 
1.22855         MSG_UDP              iDivisorNMEA    $MXPGN,01FF2C,7808,FFFF7FFFFFFF7FE1*63
 
1.23876         MSG_UDP              iDivisorNMEA    $MXPGN,01FF2C,7808,FF7FFFFFFFFFFFE2*11
 
1.24898         MSG_UDP              iDivisorNMEA    $MXPGN,01FF2C,7808,FFFFFFFF7FFFFFE3*10
 
1.25920         MSG_UDP              iDivisorNMEA    $MXPGN,01F803,281C,000000000000A0E7*67
 
1.26937         MSG_UDP              iDivisorNMEA    $MXPGN,01F804,281C,000000593AC1A0E7*6C
 
1.27959         MSG_UDP              iDivisorNMEA    $MXPGN,00FF3D,6808,7FFFFF0DFFFF9F41*6E
 
1.28983         MSG_UDP              iDivisorNMEA    $HCHDG,284.8,0.0,E,23.3,W*64
 
1.30008         MSG_UDP              iDivisorNMEA    $GPHDT,261.50,T*05
 
1.31071         MSG_UDP              iDivisorNMEA    $TIROT,0.19,A*03
 
1.32092         MSG_UDP              iDivisorNMEA    $GPGGA,130946.900,2254.75289,S,04309.53829,W,1,09,1.50,0.58,M,-5.00,M,,*70
 
1.33122         MSG_UDP              iDivisorNMEA    $GPGLL,2254.75289,S,04309.53829,W,130946.900,A,A*5D
 
1.34161         MSG_UDP              iDivisorNMEA    $GPRMC,130946.900,A,2254.75289,S,04309.53829,W,0.00,130.87,070323,23.39,W,A*10
 
1.35193         MSG_UDP              iDivisorNMEA    $GPVTG,130.87,T,,M,0.00,N,0.00,K,A*30
 
1.36219         MSG_UDP              iDivisorNMEA    $AGRSA,-0.90,A,,V*6B
 
1.36237         ANGULO_LEME          iDivisorNMEA    -0.90000     
1.37253         MSG_UDP              iDivisorNMEA    $GPGSA,A,3,08,10,16,18,21,23,24,26,27,,,,1.80,1.50,1.50*09
 
1.38287         MSG_UDP              iDivisorNMEA    $GPGSV,3,1,09,08,31,226,45,10,46,166,46,16,16,303,42,18,24,083,43*7A
 
1.39346         MSG_UDP              iDivisorNMEA    $GPGSV,3,2,09,21,01,229,00,23,22,135,00,24,01,121,00,26,06,339,43*75
 
1.40379         MSG_UDP              iDivisorNMEA    $GPGSV,3,3,09,27,62,253,49*48
 
1.41404         MSG_UDP              iDivisorNMEA    $MXPGN,01FA06,681C,8300A500C8E80FE0*66
 
1.42427         MSG_UDP              iDivisorNMEA    $MXPGN,01FA06,681C,008500A3EAFE00E1*10
 
1.43449         MSG_UDP              iDivisorNMEA    $MXPGN,01FA06,681C,FFFFFFFFFF013FE2*1F
 
1.44473         MSG_UDP              iDivisorNMEA    $MXPGN,01F803,281C,00000000000000E8*19
 
1.45497         MSG_UDP              iDivisorNMEA    $MXPGN,01F804,281C,000000593AC100E8*12
 
1.46521         MSG_UDP              iDivisorNMEA    $HCHDG,284.8,0.0,E,23.3,W*64
 
1.47548         MSG_UDP              iDivisorNMEA    $GPHDT,261.51,T*04
 
1.48576         MSG_UDP              iDivisorNMEA    $TIROT,0.19,A*03
 
1.49605         MSG_UDP              iDivisorNMEA    !AIVDM,1,1,,B,1:U8vhS1@0LrNNMjsGnHu1Qp0hKU,0*67
 
1.50633         MSG_UDP              iDivisorNMEA    $MXPGN,00FF00,280B,0002000005049913*19
 
1.51658         MSG_UDP              iDivisorNMEA    $AGRSA,-0.90,A,,V*6B
 
1.51664         ANGULO_LEME          iDivisorNMEA    -0.90000     
1.52678         MSG_UDP              iDivisorNMEA    $MXPGN,01F803,281C,00000000000014E9*1D
 
1.53699         MSG_UDP              iDivisorNMEA    $MXPGN,01F804,281C,000000813EC114E9*17
 
1.54716         MSG_UDP              iDivisorNMEA    $MXPGN,00FF19,7808,0000000202009F41*15
 
1.55735         MSG_UDP              iDivisorNMEA    $HCHDG,284.8,0.0,E,23.3,W*64
 
1.56752         MSG_UDP              iDivisorNMEA    $GPHDT,261.50,T*05
 
1.57769         MSG_UDP              iDivisorNMEA    $TIROT,0.19,A*03
 
1.58787         MSG_UDP              iDivisorNMEA    $MXPGN,00FF19,7808,0080000A0A009F41*1D
 
1.59812         MSG_UDP              iDivisorNMEA    $AGRSA,-0.90,A,,V*6B
 
1.59818         ANGULO_LEME          iDivisorNMEA    -0.90000     
1.60832         MSG_UDP              iDivisorNMEA    $MXPGN,00FF8C,6808,FFF10695C9409F41*64
 
1.61852         MSG_UDP              iDivisorNMEA    $MXPGN,00FF28,3808,FF08FFFDFC059F41*19
 
1.62869         MSG_UDP              iDivisorNMEA    $MXPGN,01F803,281C,00000000000014E9*1D
 
1.63889         MSG_UDP              iDivisorNMEA    $MXPGN,01F804,281C,000000813EC114E9*17
 
1.64905         MSG_UDP              iDivisorNMEA    $HCHDG,284.8,0.0,E,23.3,W*64
 
1.65922         MSG_UDP              iDivisorNMEA    $GPHDT,261.50,T*05
 
1.66941         MSG_UDP              iDivisorNMEA    $TIROT,0.19,A*03
 
1.67953         MSG_UDP              iDivisorNMEA    $AGRSA,-0.90,A,,V*6B
 
1.67957         ANGULO_LEME          iDivisorNMEA    -0.90000     
1.68972         MSG_UDP              iDivisorNMEA    !AIVDM,1,1,,A,1:UU7<8000LrGaMjqVs008wL0400,0*42
 
1.69986         MSG_UDP              iDivisorNMEA    $MXPGN,01F803,281C,0000000000003CEB*13
 
1.71003         MSG_UDP              iDivisorNMEA    $MXPGN,01F804,281C,000000813EC13CEB*19
 
1.72018         MSG_UDP              iDivisorNMEA    $HCHDG,284.8,0.0,E,23.3,W*64
 
1.73038         MSG_UDP              iDivisorNMEA    $GPHDT,261.51,T*04
 
1.74053         MSG_UDP              iDivisorNMEA    $TIROT,0.19,A*03
 
1.75074         MSG_UDP              iDivisorNMEA    $MXPGN,00FF00,280B,0002000005049913*19
 
1.76089         MSG_UDP              iDivisorNMEA    $GPGGA,130947.000,2254.75091,S,04309.53745,W,1,12,0.90,8.25,M,-5.60,M,,*75
 
1.77104         MSG_UDP              iDivisorNMEA    $GPGLL,2254.75091,S,04309.53745,W,130947.000,A,A*5B
 
1.78129         MSG_UDP              iDivisorNMEA    $GPRMC,130947.000,A,2254.75091,S,04309.53745,W,0.09,0.00,070323,23.30,W,A*1B
 
1.79158         MSG_UDP              iDivisorNMEA    $GPVTG,0.00,T,,M,0.09,N,0.16,K,A*33
 
1.80177         MSG_UDP              iDivisorNMEA    $AGRSA,-0.90,A,,V*6B
 
1.80186         ANGULO_LEME          iDivisorNMEA    -0.90000     
1.81233         MSG_UDP              iDivisorNMEA    $MXPGN,00FF3C,3808,8000F8FE00009F41*1C
 
2.06825         MSG_UDP              iDivisorNMEA    $HCHDG,284.8,0.0,E,23.3,W*64
 
2.06904         MSG_UDP              iDivisorNMEA    $GPHDT,261.54,T*01
 
2.07927         MSG_UDP              iDivisorNMEA    $TIROT,0.69,A*04
 
2.11813         MSG_UDP              iDivisorNMEA    $AGRSA,-0.90,A,,V*6B
 
2.11823         ANGULO_LEME          iDivisorNMEA    -0.90000     
2.11828         MSG_UDP              iDivisorNMEA    $SDDPT,1.81,0.00,*73
 
2.13416         MSG_UDP              iDivisorNMEA    $MXPGN,01F803,281C,000000000000B4F1*65
 
2.13943         MSG_UDP              iDivisorNMEA    $MXPGN,01F804,281C,00000002B1C1B4F1*61
 
2.15210         MSG_UDP              iDivisorNMEA    $MXPGN,01FF1A,680B,FF022B849F4105C0*1F
 
2.16819         MSG_UDP              iDivisorNMEA    $HCHDG,284.9,0.0,E,23.3,W*65
 
2.17142         MSG_UDP              iDivisorNMEA    $GPHDT,261.55,T*00
 
2.18167         MSG_UDP              iDivisorNMEA    $TIROT,0.69,A*04
 
2.19187         MSG_UDP              iDivisorNMEA    $MXPGN,01FF1A,782B,FF010B049F4105E0*13
 
2.20415         MSG_UDP              iDivisorNMEA    $MXPGN,00FF00,280B,0002000005049913*19
 
2.21802         MSG_UDP              iDivisorNMEA    $AGRSA,-0.90,A,,V*6B
 
2.21811         ANGULO_LEME          iDivisorNMEA    -0.90000     
2.22325         MSG_UDP              iDivisorNMEA    $MXPGN,01FF2C,7808,FFFFFFFF9F411700*6B
 
2.23350         MSG_UDP              iDivisorNMEA    $MXPGN,01FF2C,7808,FFFF7FFFFFFF7F01*16
 
2.24361         MSG_UDP              iDivisorNMEA    $MXPGN,01FF2C,7808,FF7FFFFFFFFFFF02*64
 
2.25386         MSG_UDP              iDivisorNMEA    $MXPGN,01FF2C,7808,FFFFFFFF7FFFFF03*65
 
2.26402         MSG_UDP              iDivisorNMEA    $MXPGN,01F803,281C,000000000000C8F2*6B
 
2.27414         MSG_UDP              iDivisorNMEA    $MXPGN,01F804,281C,00000002B1C1C8F2*6F
 
2.28425         MSG_UDP              iDivisorNMEA    $MXPGN,00FF3D,6808,7FFFFF0DFFFF9F41*6E
 
2.29438         MSG_UDP              iDivisorNMEA    $HCHDG,284.9,0.0,E,23.3,W*65
 
2.30450         MSG_UDP              iDivisorNMEA    $GPHDT,261.55,T*00
 
2.31481         MSG_UDP              iDivisorNMEA    $TIROT,0.79,A*05
 
2.32492         MSG_UDP              iDivisorNMEA    $MXPGN,00FF3D,6808,0000FF0BFFFF9F41*19
 
2.33504         MSG_UDP              iDivisorNMEA    $MXPGN,00FF3D,6808,FFFFFF0CFFFF9F41*18
 
2.34517         MSG_UDP              iDivisorNMEA    $GPGGA,130948.000,2254.75289,S,04309.53829,W,1,09,1.50,0.58,M,-5.00,M,,*77
 
2.35530         MSG_UDP              iDivisorNMEA    $GPGLL,2254.75289,S,04309.53829,W,130948.000,A,A*5A
 
2.36544         MSG_UDP              iDivisorNMEA    $GPRMC,130948.000,A,2254.75289,S,04309.53829,W,0.00,3.94,070323,23.39,W,A*14
 
2.37558         MSG_UDP              iDivisorNMEA    $GPVTG,3.94,T,,M,0.00,N,0.00,K,A*33
 
2.38572         MSG_UDP              iDivisorNMEA    $AGRSA,-0.90,A,,V*6B
 
2.38574         ANGULO_LEME          iDivisorNMEA    -0.90000     
2.39584         MSG_UDP              iDivisorNMEA    $MXPGN,00FF3D,6808,FFFFFF03FFFF9F41*68
 
2.40601         MSG_UDP              iDivisorNMEA    $GPGSA,A,3,08,10,16,18,21,23,24,26,27,,,,1.80,1.50,1.50*09
 
2.41614         MSG_UDP              iDivisorNMEA    $GPGSV,3,1,09,08,31,226,45,10,46,166,46,16,16,304,42,18,24,083,44*7A
 
2.42628         MSG_UDP              iDivisorNMEA    $GPGSV,3,2,09,21,01,229,00,23,22,135,00,24,01,121,00,26,06,339,44*72
 
2.43643         MSG_UDP              iDivisorNMEA    $GPGSV,3,3,09,27,62,253,49*48
 
2.44656         MSG_UDP              iDivisorNMEA    $MXPGN,01FA06,681C,8300A500C8F30F00*1B
 
2.45669         MSG_UDP              iDivisorNMEA    $MXPGN,01FA06,681C,008500A3EAFE0001*65
 
2.46682         MSG_UDP              iDivisorNMEA    $MXPGN,01FA06,681C,FFFFFFFFFF013F02*6A
 
2.47699         MSG_UDP              iDivisorNMEA    $MXPGN,01F803,281C,00000000000000F3*11
 
2.48712         MSG_UDP              iDivisorNMEA    $MXPGN,01F804,281C,0000009591C100F3*60
 
2.49726         MSG_UDP              iDivisorNMEA    $MXPGN,00FF3D,6808,FFFFFF02FFFF9F41*69
 
2.50741         MSG_UDP              iDivisorNMEA    $HCHDG,284.9,0.0,E,23.3,W*65
 
2.51758         MSG_UDP              iDivisorNMEA    $GPHDT,261.55,T*00
 
2.52770         MSG_UDP              iDivisorNMEA    $TIROT,0.79,A*05
 
2.53784         MSG_UDP              iDivisorNMEA    $AGRSA,-0.90,A,,V*6B
 
2.53787         ANGULO_LEME          iDivisorNMEA    -0.90000     
2.54798         MSG_UDP              iDivisorNMEA    $MXPGN,01F803,281C,00000000000014F4*13
 
2.55812         MSG_UDP              iDivisorNMEA    $MXPGN,01F804,281C,0000009591C114F4*62
 
2.56827         MSG_UDP              iDivisorNMEA    $MXPGN,00FF19,7808,0000000202009F41*15
 
2.57845         MSG_UDP              iDivisorNMEA    $MXPGN,00FF00,280B,0002000005049913*19
 
2.58863         MSG_UDP              iDivisorNMEA    $HCHDG,284.9,0.0,E,23.3,W*65
 
2.59887         MSG_UDP              iDivisorNMEA    $GPHDT,261.57,T*02
 
2.60931         MSG_UDP              iDivisorNMEA    $TIROT,0.89,A*0A
 
2.61950         MSG_UDP              iDivisorNMEA    $MXPGN,00FF19,7808,0080000A0A009F41*1D
 
2.62973         MSG_UDP              iDivisorNMEA    $AGRSA,-0.90,A,,V*6B
 
2.62978         ANGULO_LEME          iDivisorNMEA    -0.90000     
2.63996         MSG_UDP              iDivisorNMEA    $MXPGN,00FF8C,6808,FFF10695C9409F41*64
 
2.65029         MSG_UDP              iDivisorNMEA    $MXPGN,00FF28,3808,FF08FFFDFC059F41*19
 
2.66054         MSG_UDP              iDivisorNMEA    $MXPGN,01F803,281C,00000000000028F5*1D
 
2.67074         MSG_UDP              iDivisorNMEA    $MXPGN,01F804,281C,0000006082C128F5*64
 
2.68090         MSG_UDP              iDivisorNMEA    $HCHDG,284.9,0.0,E,23.3,W*65
 
2.69106         MSG_UDP              iDivisorNMEA    $GPHDT,261.58,T*0D
 
2.70119         MSG_UDP              iDivisorNMEA    $TIROT,0.89,A*0A
 
2.71133         MSG_UDP              iDivisorNMEA    $AGRSA,-0.90,A,,V*6B
 
2.71136         ANGULO_LEME          iDivisorNMEA    -0.90000     
2.72149         MSG_UDP              iDivisorNMEA    $MXPGN,01F803,281C,0000000000003CF6*64
 
2.96800         MSG_UDP              iDivisorNMEA    $HCHDG,284.9,0.0,E,23.3,W*65
 
2.96893         MSG_UDP              iDivisorNMEA    $GPHDT,261.60,T*06
 
2.97820         MSG_UDP              iDivisorNMEA    $TIROT,0.99,A*0B
 
3.01790         MSG_UDP              iDivisorNMEA    $AGRSA,-0.90,A,,V*6B
 
3.01794         ANGULO_LEME          iDivisorNMEA    -0.90000     
3.03495         MSG_UDP              iDivisorNMEA    $MXPGN,01F803,281C,0000000000008CFA*18
 
3.03586         MSG_UDP              iDivisorNMEA    $MXPGN,01F804,281C,0000004A6DC18CFA*6A
 
3.04996         MSG_UDP              iDivisorNMEA    !AIVDO,1,1,,,B:UOH3P00G>VtQLf>`2gswp5oP06,0*7F
 
3.06799         MSG_UDP              iDivisorNMEA    $HCHDG,284.9,0.0,E,23.3,W*65
 
3.06894         MSG_UDP              iDivisorNMEA    $GPHDT,261.60,T*06
 
3.07910         MSG_UDP              iDivisorNMEA    $TIROT,0.99,A*0B
 
3.11794         MSG_UDP              iDivisorNMEA    $AGRSA,-0.90,A,,V*6B
 
3.11797         ANGULO_LEME          iDivisorNMEA    -0.90000     
3.11814         MSG_UDP              iDivisorNMEA    $SDDPT,1.80,0.00,*72
 
3.13406         MSG_UDP              iDivisorNMEA    $MXPGN,01F803,281C,0000000000008CFA*18
 
3.13923         MSG_UDP              iDivisorNMEA    $MXPGN,01F804,281C,0000004A6DC18CFA*6A
 
3.15190         MSG_UDP              iDivisorNMEA    $MXPGN,01FF1A,680B,FF022B849F4105E0*19
 
3.16791         MSG_UDP              iDivisorNMEA    $HCHDG,284.9,0.0,E,23.3,W*65
 
3.17106         MSG_UDP              iDivisorNMEA    $GPHDT,261.60,T*06
 
3.18124         MSG_UDP              iDivisorNMEA    $TIROT,1.09,A*03
 
3.19137         MSG_UDP              iDivisorNMEA    $MXPGN,01FF1A,782B,FF010B049F410500*66
 
3.20153         MSG_UDP              iDivisorNMEA    $MXPGN,01FF1A,782B,FFFAFF859F410520*19
 
3.21169         MSG_UDP              iDivisorNMEA    $MXPGN,00FF00,280B,0002000005049913*19
 
3.22195         MSG_UDP              iDivisorNMEA    $AGRSA,-0.90,A,,V*6B
 
3.22197         ANGULO_LEME          iDivisorNMEA    -0.90000     
3.23206         MSG_UDP              iDivisorNMEA    $MXPGN,01FF2C,7808,FFFFFFFF9F411720*69
 
3.24224         MSG_UDP              iDivisorNMEA    $MXPGN,01FF2C,7808,FFFF7FFFFFFF7F21*14
 
3.25236         MSG_UDP              iDivisorNMEA    $MXPGN,01FF2C,7808,FF7FFFFFFFFFFF22*66
 
3.26258         MSG_UDP              iDivisorNMEA    $MXPGN,01FF2C,7808,FFFFFFFF7FFFFF23*67
 
3.27276         MSG_UDP              iDivisorNMEA    $MXPGN,01F803,281C,000000000000B401*13
 
3.28288         MSG_UDP              iDivisorNMEA    $MXPGN,01F804,281C,0000004A6DC1B401*61
 
3.29309         MSG_UDP              iDivisorNMEA    $MXPGN,00FF3D,6808,7FFFFF0DFFFF9F41*6E
 
3.30326         MSG_UDP              iDivisorNMEA    $HCHDG,284.9,0.0,E,23.3,W*65
 
3.31342         MSG_UDP              iDivisorNMEA    $GPHDT,261.63,T*05
 
3.32357         MSG_UDP              iDivisorNMEA    $TIROT,1.19,A*02
 
3.33369         MSG_UDP              iDivisorNMEA    !AIVDM,1,1,,B,3:U7sM1000trSr5jr;hqe;1P2Dd:,0*4E
 
3.34383         MSG_UDP              iDivisorNMEA    $GPGGA,130949.000,2254.75289,S,04309.53829,W,1,09,1.50,0.58,M,-5.00,M,,*76
 
3.35400         MSG_UDP              iDivisorNMEA    $GPGLL,2254.75289,S,04309.53829,W,130949.000,A,A*5B
 
3.36419         MSG_UDP              iDivisorNMEA    $GPRMC,130949.000,A,2254.75289,S,04309.53829,W,0.01,109.16,070323,23.39,W,A*15
 
3.37435         MSG_UDP              iDivisorNMEA    $GPVTG,109.16,T,,M,0.01,N,0.01,K,A*32
 
3.38449         MSG_UDP              iDivisorNMEA    $AGRSA,-0.90,A,,V*6B
 
3.38452         ANGULO_LEME          iDivisorNMEA    -0.90000     
3.39464         MSG_UDP              iDivisorNMEA    $GPGSA,A,3,08,10,16,18,21,23,24,26,27,,,,1.80,1.50,1.50*09
 
3.40482         MSG_UDP              iDivisorNMEA    $GPGSV,3,1,09,08,31,226,45,10,46,166,47,16,16,304,42,18,24,083,44*7B
 
3.41499         MSG_UDP              iDivisorNMEA    $GPGSV,3,2,09,21,01,229,00,23,22,135,00,24,01,121,00,26,06,339,43*75
 
3.42513         MSG_UDP              iDivisorNMEA    $GPGSV,3,3,09,27,62,253,49*48
 
3.43529         MSG_UDP              iDivisorNMEA    $MXPGN,01FA06,681C,8300A500C8020F20*6E
 
3.44545         MSG_UDP              iDivisorNMEA    $MXPGN,01FA06,681C,008500A3EAFE0021*67
 
3.45559         MSG_UDP              iDivisorNMEA    $MXPGN,01FA06,681C,FFFFFFFFFF013F22*68
 
3.46568         MSG_UDP              iDivisorNMEA    !AIVDM,1,1,,B,3:U8l=PP0qLrDIujqfE3DBSL0Prh,0*7F
 
3.47582         MSG_UDP              iDivisorNMEA    $MXPGN,01F803,281C,0000000000000002*66
 
3.48613         MSG_UDP              iDivisorNMEA    $MXPGN,01F804,281C,000000D571C10002*64
 
3.49626         MSG_UDP              iDivisorNMEA    $HCHDG,285.0,0.0,E,23.3,W*6D
 
3.50645         MSG_UDP              iDivisorNMEA    $GPHDT,261.65,T*03
 
3.51663         MSG_UDP              iDivisorNMEA    $TIROT,1.19,A*02
 
3.52678         MSG_UDP              iDivisorNMEA    $AGRSA,-0.90,A,,V*6B
 
3.52681         ANGULO_LEME          iDivisorNMEA    -0.90000     
3.53690         MSG_UDP              iDivisorNMEA    $MXPGN,01F803,281C,0000000000001403*62
 
3.54704         MSG_UDP              iDivisorNMEA    $MXPGN,01F804,281C,000000D571C11403*60
 
3.55719         MSG_UDP              iDivisorNMEA    $MXPGN,00FF19,7808,0000000202009F41*15
 
3.56734         MSG_UDP              iDivisorNMEA    $MXPGN,00FF00,280B,0002000005049913*19
 
3.57748         MSG_UDP              iDivisorNMEA    $HCHDG,285.0,0.0,E,23.3,W*6D
 
3.58760         MSG_UDP              iDivisorNMEA    $GPHDT,261.66,T*00
 
3.59775         MSG_UDP              iDivisorNMEA    $TIROT,1.09,A*03
 
3.60789         MSG_UDP              iDivisorNMEA    $MXPGN,00FF19,7808,0080000A0A009F41*1D
 
3.61808         MSG_UDP              iDivisorNMEA    $AGRSA,-0.90,A,,V*6B
 
3.61813         ANGULO_LEME          iDivisorNMEA    -0.90000     
3.62826         MSG_UDP              iDivisorNMEA    $MXPGN,00FF8C,6808,FFF10695C9409F41*64
 
3.63844         MSG_UDP              iDivisorNMEA    $MXPGN,00FF28,3808,FF08FFFDFC059F41*19
 
3.64861         MSG_UDP              iDivisorNMEA    $MXPGN,01F803,281C,0000000000002804*6A
 
3.86785         MSG_UDP              iDivisorNMEA    $HCHDG,285.0,0.0,E,23.3,W*6D
 
3.86878         MSG_UDP              iDivisorNMEA    $GPHDT,261.72,T*05
 
3.87893         MSG_UDP              iDivisorNMEA    $TIROT,1.19,A*02
 
3.91795         MSG_UDP              iDivisorNMEA    $AGRSA,-0.90,A,,V*6B
 
3.91800         ANGULO_LEME          iDivisorNMEA    -0.90000     
3.91870         MSG_UDP              iDivisorNMEA    $GPZDA,130949.250,07,03,2023,,*50
 
3.92885         MSG_UDP              iDivisorNMEA    !AIVDM,1,1,,B,13a0JR0000LrT4EjrVJm?qMR05`T,0*7C
 
3.93898         MSG_UDP              iDivisorNMEA    $GPGSA,A,3,08,10,16,18,26,27,28,31,32,66,65,86,1.60,1.30,1.30*07
 
3.94916         MSG_UDP              iDivisorNMEA    $GPGSV,3,1,12,08,32,227,32,10,46,167,41,16,17,304,38,18,25,083,41*7C
 
3.95933         MSG_UDP              iDivisorNMEA    $GPGSV,3,2,12,26,07,340,38,27,62,253,42,28,11,019,39,31,06,010,35*7C
 
3.96950         MSG_UDP              iDivisorNMEA    $GPGSV,3,3,12,32,74,037,48,66,05,322,45,65,56,297,40,86,39,065,45*79
 
3.97963         MSG_UDP              iDivisorNMEA    $MXPGN,01FF0D,780B,FF03000098900580*6E
 
3.98997         MSG_UDP              iDivisorNMEA    $MXPGN,01F803,281C,0000000000007808*63
 
4.00012         MSG_UDP              iDivisorNMEA    $MXPGN,01F804,281C,0000005056C17808*10
 
4.01027         MSG_UDP              iDivisorNMEA    $MXPGN,00FF00,280B,0002000005049913*19
 
4.02039         MSG_UDP              iDivisorNMEA    $HCHDG,285.0,0.0,E,23.3,W*6D
 
4.03055         MSG_UDP              iDivisorNMEA    $GPHDT,261.74,T*03
 
4.04072         MSG_UDP              iDivisorNMEA    $TIROT,1.19,A*02
 
4.05089         MSG_UDP              iDivisorNMEA    $AGRSA,-0.90,A,,V*6B
 
4.05092         ANGULO_LEME          iDivisorNMEA    -0.90000     
4.06105         MSG_UDP              iDivisorNMEA    $MXPGN,01F803,281C,0000000000008C09*16
 
4.07117         MSG_UDP              iDivisorNMEA    $MXPGN,01F804,281C,00000053BDC18C09*63
 
4.08135         MSG_UDP              iDivisorNMEA    $HCHDG,285.1,0.0,E,23.3,W*6C
 
4.09151         MSG_UDP              iDivisorNMEA    $GPHDT,261.76,T*01
 
4.10169         MSG_UDP              iDivisorNMEA    $TIROT,1.59,A*06
 
4.11790         MSG_UDP              iDivisorNMEA    $AGRSA,-0.90,A,,V*6B
 
4.11794         ANGULO_LEME          iDivisorNMEA    -0.90000     
4.12206         MSG_UDP              iDivisorNMEA    $SDDPT,1.79,0.00,*74
 
4.13385         MSG_UDP              iDivisorNMEA    $MXPGN,01F803,281C,000000000000A00A*64
 
4.14299         MSG_UDP              iDivisorNMEA    $MXPGN,01F804,281C,00000053BDC1A00A*11
 
4.15316         MSG_UDP              iDivisorNMEA    $MXPGN,01FF1A,680B,FF022B849F410500*6C
 
4.16894         MSG_UDP              iDivisorNMEA    $HCHDG,285.1,0.0,E,23.3,W*6C
 
4.17411         MSG_UDP              iDivisorNMEA    $GPHDT,261.78,T*0F
 
4.18427         MSG_UDP              iDivisorNMEA    $TIROT,1.59,A*06
 
4.19446         MSG_UDP              iDivisorNMEA    $MXPGN,01FF1A,782B,FF010B049F410520*64
 
4.20465         MSG_UDP              iDivisorNMEA    $MXPGN,00FF00,280B,0002000005049913*19
 
4.21776         MSG_UDP              iDivisorNMEA    $AGRSA,-0.90,A,,V*6B
 
4.21780         ANGULO_LEME          iDivisorNMEA    -0.90000     
4.22590         MSG_UDP              iDivisorNMEA    $MXPGN,01FF2C,7808,FFFFFFFF9F411740*6F
 
4.23635         MSG_UDP              iDivisorNMEA    $MXPGN,01FF2C,7808,FFFF7FFFFFFF7F41*12
 
4.24656         MSG_UDP              iDivisorNMEA    $MXPGN,01FF2C,7808,FF7FFFFFFFFFFF42*60
 
4.25678         MSG_UDP              iDivisorNMEA    $MXPGN,01FF2C,7808,FFFFFFFF7FFFFF43*61
 
4.26693         MSG_UDP              iDivisorNMEA    $MXPGN,01F803,281C,000000000000B40B*60
 
4.27708         MSG_UDP              iDivisorNMEA    $MXPGN,01F804,281C,00000053BDC1B40B*15
 
4.28721         MSG_UDP              iDivisorNMEA    $MXPGN,00FF3D,6808,7FFFFF0DFFFF9F41*6E
 
4.29734         MSG_UDP              iDivisorNMEA    $HCHDG,285.1,0.0,E,23.3,W*6C
 
4.30746         MSG_UDP              iDivisorNMEA    $GPHDT,261.78,T*0F
 
4.31760         MSG_UDP              iDivisorNMEA    $TIROT,1.89,A*0B
 
4.32772         MSG_UDP              iDivisorNMEA    $GPGGA,130950.000,2254.75289,S,04309.53829,W,1,09,1.50,0.58,M,-5.00,M,,*7E
 
4.33786         MSG_UDP              iDivisorNMEA    $GPGLL,2254.75289,S,04309.53829,W,130950.000,A,A*53
 
4.34799         MSG_UDP              iDivisorNMEA    $GPRMC,130950.000,A,2254.75289,S,04309.53829,W,0.00,122.82,070323,23.39,W,A*18
 
4.35810         MSG_UDP              iDivisorNMEA    $GPVTG,122.82,T,,M,0.00,N,0.00,K,A*36
 
4.36824         MSG_UDP              iDivisorNMEA    $AGRSA,-0.90,A,,V*6B
 
4.36828         ANGULO_LEME          iDivisorNMEA    -0.90000     
4.37837         MSG_UDP              iDivisorNMEA    $GPGSA,A,3,08,10,16,18,21,23,24,26,27,,,,1.80,1.50,1.50*09
 
4.38854         MSG_UDP              iDivisorNMEA    $GPGSV,3,1,09,08,31,226,45,10,46,166,47,16,16,304,42,18,24,083,44*7B
 
4.39869         MSG_UDP              iDivisorNMEA    $GPGSV,3,2,09,21,01,229,00,23,22,135,00,24,01,121,00,26,06,339,42*74
 
4.40884         MSG_UDP              iDivisorNMEA    $GPGSV,3,3,09,27,62,253,49*48
 
4.41900         MSG_UDP              iDivisorNMEA    $MXPGN,01FA06,681C,8300A500C80C0F40*19
 
4.42915         MSG_UDP              iDivisorNMEA    $MXPGN,01FA06,681C,008500A3EB050041*64
 
4.43926         MSG_UDP              iDivisorNMEA    $MXPGN,01FA06,681C,FFFFFFFFFF013F42*6E
 
4.44938         MSG_UDP              iDivisorNMEA    $MXPGN,01F803,281C,000000000000000C*17
 
4.45957         MSG_UDP              iDivisorNMEA    $MXPGN,01F804,281C,000000C870C1000C*1E
 
4.46979         MSG_UDP              iDivisorNMEA    !AIVDM,1,1,,B,1539a0000vtrLsIjr4:f0s=R2US`,0*44
 
4.48001         MSG_UDP              iDivisorNMEA    $HCHDG,285.1,0.0,E,23.3,W*6C
 
4.49024         MSG_UDP              iDivisorNMEA    $GPHDT,261.79,T*0E
 
4.50049         MSG_UDP              iDivisorNMEA    $TIROT,1.89,A*0B
 
4.51076         MSG_UDP              iDivisorNMEA    $AGRSA,-0.90,A,,V*6B
 
4.51086         ANGULO_LEME          iDivisorNMEA    -0.90000     
4.52103         MSG_UDP              iDivisorNMEA    $MXPGN,01F803,281C,000000000000140D*15
 
4.76885         MSG_UDP              iDivisorNMEA    $HCHDG,285.1,0.0,E,23.3,W*6C
 
4.76901         MSG_UDP              iDivisorNMEA    $GPHDT,261.83,T*0B
 
4.77988         MSG_UDP              iDivisorNMEA    $TIROT,1.99,A*0A
 
4.81880         MSG_UDP              iDivisorNMEA    $GPGGA,,2254.75839,S,04309.53589,W,1,,,,M,,M,,*5E
 
4.81984         MSG_UDP              iDivisorNMEA    $GPGLL,2254.75839,S,04309.53589,W,,A,A*45
 
4.82910         MSG_UDP              iDivisorNMEA    $GPVTG,281.40,T,,M,0.10,N,0.18,K,A*3A
 
4.83936         MSG_UDP              iDivisorNMEA    $AGRSA,-0.90,A,,V*6B
 
4.83942         ANGULO_LEME          iDivisorNMEA    -0.90000     
4.84960         MSG_UDP              iDivisorNMEA    !AIVDM,1,1,,A,1:U=<5PP00trH5IjqB230gwR28MW,0*44
 
4.85979         MSG_UDP              iDivisorNMEA    $MXPGN,00FF16,7808,FF0000002B0A9F41*1B
 
4.87004         MSG_UDP              iDivisorNMEA    $MXPGN,01F803,281C,0000000000006411*66
 
4.88028         MSG_UDP              iDivisorNMEA    $MXPGN,01F804,281C,000000CAC3C16411*61
 
4.89056         MSG_UDP              iDivisorNMEA    $HCHDG,285.1,0.0,E,23.3,W*6C
 
4.90080         MSG_UDP              iDivisorNMEA    $GPHDT,261.84,T*0C
 
4.91108         MSG_UDP              iDivisorNMEA    $TIROT,1.89,A*0B
 
4.92131         MSG_UDP              iDivisorNMEA    $AGRSA,-0.90,A,,V*6B
 
4.92139         ANGULO_LEME          iDivisorNMEA    -0.90000     
4.93153         MSG_UDP              iDivisorNMEA    $GPZDA,130950.250,07,03,2023,,*58
 
4.94177         MSG_UDP              iDivisorNMEA    $MXPGN,01F803,281C,0000000000007812*68
 
4.95200         MSG_UDP              iDivisorNMEA    $MXPGN,01F804,281C,000000CAC3C17812*6F
 
4.96874         MSG_UDP              iDivisorNMEA    $HCHDG,285.2,0.0,E,23.3,W*6F
 
4.97307         MSG_UDP              iDivisorNMEA    $GPHDT,261.85,T*0D
 
4.98332         MSG_UDP              iDivisorNMEA    $TIROT,1.89,A*0B
 
4.99356         MSG_UDP              iDivisorNMEA    $GPGSA,A,3,08,10,16,18,26,27,28,31,32,66,65,86,1.60,1.30,1.30*07
 
5.00380         MSG_UDP              iDivisorNMEA    $GPGSV,3,1,12,08,32,227,32,10,46,167,41,16,17,304,39,18,25,083,41*7D
 
5.01418         MSG_UDP              iDivisorNMEA    $GPGSV,3,2,12,26,07,340,39,27,62,253,42,28,11,019,39,31,06,010,34*7C
 
5.02455         MSG_UDP              iDivisorNMEA    $GPGSV,3,3,12,32,74,037,48,66,05,322,45,65,56,297,40,86,39,065,45*79
 
5.03501         MSG_UDP              iDivisorNMEA    $MXPGN,01FF0D,780B,FF030000989005A0*17
 
5.04546         MSG_UDP              iDivisorNMEA    $MXPGN,00FF00,280B,0002000005049913*19
 
5.05589         MSG_UDP              iDivisorNMEA    $AGRSA,-0.90,A,,V*6B
 
5.05593         ANGULO_LEME          iDivisorNMEA    -0.90000     
5.06606         MSG_UDP              iDivisorNMEA    $MXPGN,01F803,281C,0000000000008C13*1D
 
5.07621         MSG_UDP              iDivisorNMEA    $MXPGN,01F804,281C,000000CF72C18C13*68
 
5.08633         MSG_UDP              iDivisorNMEA    $HCHDG,285.2,0.0,E,23.3,W*6F
 
5.09646         MSG_UDP              iDivisorNMEA    $GPHDT,261.85,T*0D
 
5.10662         MSG_UDP              iDivisorNMEA    $TIROT,1.89,A*0B
 
5.11674         MSG_UDP              iDivisorNMEA    !AIVDO,1,1,,,B:UOH3P00G>VtPLf>`6gswq5oP06,0*7B
 
5.12687         MSG_UDP              iDivisorNMEA    $AGRSA,-0.90,A,,V*6B
 
5.12690         ANGULO_LEME          iDivisorNMEA    -0.90000     
5.13698         MSG_UDP              iDivisorNMEA    $SDDPT,1.77,0.00,*7A
 
5.14711         MSG_UDP              iDivisorNMEA    !AIVDM,1,1,,B,3:U8RjPP00trH=EjqABpmwwR26O3,0*60
 
5.15725         MSG_UDP              iDivisorNMEA    $MXPGN,01F803,281C,000000000000A014*10
 
5.16739         MSG_UDP              iDivisorNMEA    $MXPGN,01F804,281C,000000CF72C1A014*65
 
5.17753         MSG_UDP              iDivisorNMEA    $MXPGN,01FF1A,680B,FF022B849F410520*6E
 
5.18767         MSG_UDP              iDivisorNMEA    $HCHDG,285.2,0.0,E,23.3,W*6F
 
5.19781         MSG_UDP              iDivisorNMEA    $GPHDT,261.85,T*0D
 
5.20797         MSG_UDP              iDivisorNMEA    $TIROT,1.89,A*0B
 
5.21809         MSG_UDP              iDivisorNMEA    $MXPGN,01FF1A,782B,FF010B049F410540*62
 
5.22823         MSG_UDP              iDivisorNMEA    $MXPGN,00FF00,280B,0002000005049913*19
 
5.23838         MSG_UDP              iDivisorNMEA    $AGRSA,-0.90,A,,V*6B
 
5.23841         ANGULO_LEME          iDivisorNMEA    -0.90000     
5.24849         MSG_UDP              iDivisorNMEA    !AIVDM,1,1,,B,1:TRbt?P0?LrQdIjrfaSQgwT2d2a,0*40
 
5.25865         MSG_UDP              iDivisorNMEA    $MXPGN,01FF2C,7808,FFFFFFFF9F411760*6D
 
5.26877         MSG_UDP              iDivisorNMEA    $MXPGN,01FF2C,7808,FFFF7FFFFFFF7F61*10
 
5.27893         MSG_UDP              iDivisorNMEA    $MXPGN,01FF2C,7808,FF7FFFFFFFFFFF62*62
 
5.28930         MSG_UDP              iDivisorNMEA    $MXPGN,01FF2C,7808,FFFFFFFF7FFFFF63*63
 
5.29943         MSG_UDP              iDivisorNMEA    $MXPGN,01F803,281C,000000000000B415*16
 
5.30960         MSG_UDP              iDivisorNMEA    $MXPGN,01F804,281C,000000CF72C1B415*63
 
5.31972         MSG_UDP              iDivisorNMEA    $MXPGN,00FF3D,6808,7FFFFF0DFFFF9F41*6E
 
5.32987         MSG_UDP              iDivisorNMEA    $HCHDG,285.2,0.0,E,23.3,W*6F
 
5.34004         MSG_UDP              iDivisorNMEA    $GPHDT,261.85,T*0D
 
5.35023         MSG_UDP              iDivisorNMEA    $TIROT,1.99,A*0A
 
5.36040         MSG_UDP              iDivisorNMEA    $GPGGA,130951.000,2254.75289,S,04309.53829,W,1,09,1.50,0.58,M,-5.00,M,,*7F
 
5.37059         MSG_UDP              iDivisorNMEA    $GPGLL,2254.75289,S,04309.53829,W,130951.000,A,A*52
 
5.38079         MSG_UDP              iDivisorNMEA    $GPRMC,130951.000,A,2254.75289,S,04309.53829,W,0.00,304.27,070323,23.39,W,A*10
 
5.39100         MSG_UDP              iDivisorNMEA    $GPVTG,304.27,T,,M,0.00,N,0.00,K,A*3F
 
5.40119         MSG_UDP              iDivisorNMEA    $AGRSA,-0.90,A,,V*6B
 
5.40126         ANGULO_LEME          iDivisorNMEA    -0.90000     
5.41134         MSG_UDP              iDivisorNMEA    $GPGSA,A,3,08,10,16,18,21,23,24,26,27,,,,1.80,1.50,1.50*09
 
5.42156         MSG_UDP              iDivisorNMEA    $GPGSV,3,1,09,08,31,226,45,10,46,166,47,16,16,304,42,18,24,083,43*7C
 
5.66882         MSG_UDP              iDivisorNMEA    $HCHDG,285.2,0.0,E,23.3,W*6F
 
5.66898         MSG_UDP              iDivisorNMEA    $GPHDT,261.86,T*0E
 
5.67921         MSG_UDP              iDivisorNMEA    $TIROT,1.49,A*07
 
5.70164         MSG_UDP              iDivisorNMEA    $MXPGN,00FF00,280B,0002000005049913*19
 
5.71986         MSG_UDP              iDivisorNMEA    $GPGGA,130951.000,2254.75109,S,04309.53688,W,1,12,0.90,7.53,M,-5.60,M,,*7C
 
5.72078         MSG_UDP              iDivisorNMEA    $GPGLL,2254.75109,S,04309.53688,W,130951.000,A,A*5C
 
5.73099         MSG_UDP              iDivisorNMEA    $GPRMC,130951.000,A,2254.75109,S,04309.53688,W,0.00,0.00,070323,23.30,W,A*15
 
5.74123         MSG_UDP              iDivisorNMEA    $GPVTG,0.00,T,,M,0.00,N,0.00,K,A*3D
 
5.75152         MSG_UDP              iDivisorNMEA    $AGRSA,-0.90,A,,V*6B
 
5.75164         ANGULO_LEME          iDivisorNMEA    -0.90000     
5.76185         MSG_UDP              iDivisorNMEA    $MXPGN,00FF3C,3808,8000F8FE00009F41*1C
 
5.77210         MSG_UDP              iDivisorNMEA    $MXPGN,01F803,281C,000000000000501A*11
 
5.78237         MSG_UDP              iDivisorNMEA    $MXPGN,01F804,281C,0000005E49C1501A*19
 
5.79311         MSG_UDP              iDivisorNMEA    $HCHDG,285.2,0.0,E,23.3,W*6F
 
5.80340         MSG_UDP              iDivisorNMEA    $GPHDT,261.87,T*0F
 
5.81368         MSG_UDP              iDivisorNMEA    $TIROT,1.49,A*07
 
5.82395         MSG_UDP              iDivisorNMEA    $GPGGA,,2254.75829,S,04309.53599,W,1,,,,M,,M,,*5E
 
5.83421         MSG_UDP              iDivisorNMEA    $GPGLL,2254.75829,S,04309.53599,W,,A,A*45
 
5.84440         MSG_UDP              iDivisorNMEA    $GPVTG,281.40,T,,M,0.10,N,0.18,K,A*3A
 
5.85464         MSG_UDP              iDivisorNMEA    $AGRSA,-0.90,A,,V*6B
 
5.85466         ANGULO_LEME          iDivisorNMEA    -0.90000     
5.86488         MSG_UDP              iDivisorNMEA    $MXPGN,00FF16,7808,FF0000002B0A9F41*1B
 
5.87510         MSG_UDP              iDivisorNMEA    $MXPGN,01F803,281C,000000000000641B*15
 
5.88538         MSG_UDP              iDivisorNMEA    $MXPGN,01F804,281C,000000661BC1641B*13
 
5.89567         MSG_UDP              iDivisorNMEA    $HCHDG,285.2,0.0,E,23.3,W*6F
 
5.90590         MSG_UDP              iDivisorNMEA    $GPHDT,261.88,T*00
 
5.91608         MSG_UDP              iDivisorNMEA    $TIROT,1.29,A*01
 
5.92630         MSG_UDP              iDivisorNMEA    $AGRSA,-0.90,A,,V*6B
 
5.92638         ANGULO_LEME          iDivisorNMEA    -0.90000     
5.93654         MSG_UDP              iDivisorNMEA    $GPZDA,130951.250,07,03,2023,,*59
 
5.94668         MSG_UDP              iDivisorNMEA    $MXPGN,01F803,281C,000000000000781C*19
 
5.95688         MSG_UDP              iDivisorNMEA    $MXPGN,01F804,281C,000000661BC1781C*1F
 
5.96866         MSG_UDP              iDivisorNMEA    $HCHDG,285.2,0.0,E,23.3,W*6F
 
5.97787         MSG_UDP              iDivisorNMEA    $GPHDT,261.87,T*0F
 
5.98813         MSG_UDP              iDivisorNMEA    $TIROT,1.29,A*01
 
5.99837         MSG_UDP              iDivisorNMEA    $GPGSA,A,3,08,10,16,18,26,27,28,31,32,66,65,86,1.60,1.30,1.30*07
 
6.00867         MSG_UDP              iDivisorNMEA    $GPGSV,3,1,12,08,32,227,32,10,46,167,41,16,17,304,39,18,25,083,41*7D
 
6.01890         MSG_UDP              iDivisorNMEA    $GPGSV,3,2,12,26,07,340,39,27,62,253,42,28,11,019,39,31,06,010,34*7C
 
6.02907         MSG_UDP              iDivisorNMEA    $GPGSV,3,3,12,32,74,037,48,66,05,322,45,65,56,297,40,86,39,065,45*79
 
6.03920         MSG_UDP              iDivisorNMEA    $MXPGN,01FF0D,780B,FF030000989005C0*15
 
6.04939         MSG_UDP              iDivisorNMEA    $MXPGN,00FF00,280B,0002000005049913*19
 
6.05977         MSG_UDP              iDivisorNMEA    $AGRSA,-0.90,A,,V*6B
 
6.05982         ANGULO_LEME          iDivisorNMEA    -0.90000     
6.07001         MSG_UDP              iDivisorNMEA    $MXPGN,01F803,281C,0000000000008C1D*6A
 
6.08036         MSG_UDP              iDivisorNMEA    $MXPGN,01F804,281C,000000632DC18C1D*6C
 
6.09071         MSG_UDP              iDivisorNMEA    $HCHDG,285.2,0.0,E,23.3,W*6F
 
6.10098         MSG_UDP              iDivisorNMEA    $GPHDT,261.87,T*0F
 
6.11123         MSG_UDP              iDivisorNMEA    $TIROT,1.29,A*01
 
6.12146         MSG_UDP              iDivisorNMEA    $AGRSA,-0.90,A,,V*6B
 
6.12151         ANGULO_LEME          iDivisorNMEA    -0.90000     
6.13170         MSG_UDP              iDivisorNMEA    $SDDPT,1.77,0.00,*7A
 
6.14196         MSG_UDP              iDivisorNMEA    $MXPGN,01F803,281C,0000000000008C1D*6A
 
6.15228         MSG_UDP              iDivisorNMEA    $MXPGN,01F804,281C,000000632DC18C1D*6C
 
6.16262         MSG_UDP              iDivisorNMEA    $MXPGN,01FF1A,680B,FF022B849F410540*68
 
6.17294         MSG_UDP              iDivisorNMEA    $HCHDG,285.2,0.0,E,23.3,W*6F
 
6.18326         MSG_UDP              iDivisorNMEA    $GPHDT,261.87,T*0F
 
6.19357         MSG_UDP              iDivisorNMEA    $TIROT,1.19,A*02
 
6.20382         MSG_UDP              iDivisorNMEA    $MXPGN,01FF1A,782B,FF010B049F410560*60
 
6.21414         MSG_UDP              iDivisorNMEA    $MXPGN,01FF1A,782B,FFFAFF859F410580*13
 
6.22444         MSG_UDP              iDivisorNMEA    $MXPGN,00FF00,280B,0002000005049913*19
 
6.23472         MSG_UDP              iDivisorNMEA    $AGRSA,-0.90,A,,V*6B
 
6.23483         ANGULO_LEME          iDivisorNMEA    -0.90000     
6.24507         MSG_UDP              iDivisorNMEA    $MXPGN,01FF2C,7808,FFFFFFFF9F411780*63
 
6.25539         MSG_UDP              iDivisorNMEA    $MXPGN,01FF2C,7808,FFFF7FFFFFFF7F81*1E
 
6.26569         MSG_UDP              iDivisorNMEA    $MXPGN,01FF2C,7808,FF7FFFFFFFFFFF82*6C
 
6.27600         MSG_UDP              iDivisorNMEA    $MXPGN,01FF2C,7808,FFFFFFFF7FFFFF83*6D
 
6.28632         MSG_UDP              iDivisorNMEA    $MXPGN,01F803,281C,000000000000B41F*65
 
6.29715         MSG_UDP              iDivisorNMEA    $MXPGN,01F804,281C,000063632DC1B41F*66
 
6.30744         MSG_UDP              iDivisorNMEA    $MXPGN,00FF3D,6808,7FFFFF0DFFFF9F41*6E
 
6.31770         MSG_UDP              iDivisorNMEA    $HCHDG,285.2,0.0,E,23.3,W*6F
 
6.53369         MSG_UDP              iDivisorNMEA    $MXPGN,01F803,281C,0000000000002822*6E
 
6.53463         MSG_UDP              iDivisorNMEA    $MXPGN,01F804,281C,000000ECF6C12822*6D
 
6.56856         MSG_UDP              iDivisorNMEA    $HCHDG,285.2,0.0,E,23.3,W*6F
 
6.56871         MSG_UDP              iDivisorNMEA    $GPHDT,261.92,T*0B
 
6.57900         MSG_UDP              iDivisorNMEA    $TIROT,1.19,A*02
 
6.61756         MSG_UDP              iDivisorNMEA    $AGRSA,-0.90,A,,V*6B
 
6.61761         ANGULO_LEME          iDivisorNMEA    -0.90000     
6.63364         MSG_UDP              iDivisorNMEA    $MXPGN,01F803,281C,0000000000003C23*15
 
6.63457         MSG_UDP              iDivisorNMEA    $MXPGN,01F804,281C,000000ECF6C13C23*16
 
6.65962         MSG_UDP              iDivisorNMEA    !AIVDM,1,1,,A,1:U8?M0P0vtrIGqjqBKasOwV2@Nd,0*5B
 
6.66852         MSG_UDP              iDivisorNMEA    $HCHDG,285.2,0.0,E,23.3,W*6F
 
6.67068         MSG_UDP              iDivisorNMEA    $GPHDT,261.92,T*0B
 
6.68096         MSG_UDP              iDivisorNMEA    $TIROT,1.49,A*07
 
6.71763         MSG_UDP              iDivisorNMEA    $AGRSA,-0.90,A,,V*6B
 
6.71767         ANGULO_LEME          iDivisorNMEA    -0.90000     
6.72068         MSG_UDP              iDivisorNMEA    $MXPGN,00FF3C,3808,8000F8FE00009F41*1C
 
6.73364         MSG_UDP              iDivisorNMEA    $MXPGN,01F803,281C,0000000000005024*67
 
6.73889         MSG_UDP              iDivisorNMEA    $MXPGN,01F804,281C,000000ECF6C15024*64
 
6.75062         MSG_UDP              iDivisorNMEA    $MXPGN,00FF00,280B,0002000005049913*19
 
6.76971         MSG_UDP              iDivisorNMEA    $GPGGA,130952.000,2254.75118,S,04309.53679,W,1,12,0.90,7.20,M,-5.60,M,,*75
 
6.77094         MSG_UDP              iDivisorNMEA    $GPGLL,2254.75118,S,04309.53679,W,130952.000,A,A*51
 
6.78114         MSG_UDP              iDivisorNMEA    $GPRMC,130952.000,A,2254.75118,S,04309.53679,W,0.09,0.00,070323,23.30,W,A*11
 
6.79139         MSG_UDP              iDivisorNMEA    $GPVTG,0.00,T,,M,0.09,N,0.16,K,A*33
 
6.80211         MSG_UDP              iDivisorNMEA    $HCHDG,285.2,0.0,E,23.3,W*6F
 
6.81235         MSG_UDP              iDivisorNMEA    $GPHDT,261.94,T*0D
 
6.82264         MSG_UDP              iDivisorNMEA    $TIROT,1.49,A*07
 
6.83291         MSG_UDP              iDivisorNMEA    $GPGGA,,2254.75829,S,04309.53599,W,1,,,,M,,M,,*5E
 
6.84319         MSG_UDP              iDivisorNMEA    $GPGLL,2254.75829,S,04309.53599,W,,A,A*45
 
6.85348         MSG_UDP              iDivisorNMEA    $GPVTG,281.40,T,,M,0.10,N,0.18,K,A*3A
 
6.86370         MSG_UDP              iDivisorNMEA    $AGRSA,-0.90,A,,V*6B
 
6.86377         ANGULO_LEME          iDivisorNMEA    -0.90000     
6.87397         MSG_UDP              iDivisorNMEA    $MXPGN,00FF16,7808,FF0000002B0A9F41*1B
 
6.88423         MSG_UDP              iDivisorNMEA    $MXPGN,01F803,281C,0000000000006425*61
 
6.89451         MSG_UDP              iDivisorNMEA    $MXPGN,01F804,281C,000000346FC16425*63
 
6.90491         MSG_UDP              iDivisorNMEA    $HCHDG,285.2,0.0,E,23.3,W*6F
 
6.91511         MSG_UDP              iDivisorNMEA    $GPHDT,261.94,T*0D
 
6.92538         MSG_UDP              iDivisorNMEA    $TIROT,1.49,A*07
 
6.93561         MSG_UDP              iDivisorNMEA    $AGRSA,-0.90,A,,V*6B
 
6.93569         ANGULO_LEME          iDivisorNMEA    -0.90000     
6.94588         MSG_UDP              iDivisorNMEA    $GPZDA,130952.200,07,03,2023,,*5F
 
6.95618         MSG_UDP              iDivisorNMEA    !AIVDM,1,1,,A,15UhrF5004LrPw9jrtH=6@7`0@Nn,0*62
 
6.96643         MSG_UDP              iDivisorNMEA    $MXPGN,01F803,281C,0000000000007826*6F
 
6.97671         MSG_UDP              iDivisorNMEA    $MXPGN,01F804,281C,000000346FC17826*6D
 
6.98693         MSG_UDP              iDivisorNMEA    $HCHDG,285.3,0.0,E,23.3,W*6E
 
6.99719         MSG_UDP              iDivisorNMEA    $GPHDT,261.95,T*0C
 
7.00745         MSG_UDP              iDivisorNMEA    $TIROT,1.49,A*07
 
7.01777         MSG_UDP              iDivisorNMEA    $AGRSA,-0.90,A,,V*6B
 
7.01783         ANGULO_LEME          iDivisorNMEA    -0.90000     
7.03153         MSG_UDP              iDivisorNMEA    $GPGSA,A,3,08,10,16,18,26,27,28,31,32,66,65,86,1.60,1.30,1.30*07
 
7.03881         MSG_UDP              iDivisorNMEA    $GPGSV,3,1,12,08,32,227,33,10,46,167,41,16,17,304,39,18,25,083,41*7C
 
7.04904         MSG_UDP              iDivisorNMEA    $GPGSV,3,2,12,26,07,340,39,27,62,253,42,28,11,019,39,31,06,010,34*7C
 
7.05926         MSG_UDP              iDivisorNMEA    $GPGSV,3,3,12,32,74,037,48,66,05,322,44,65,56,297,40,86,39,065,45*78
 
7.06953         MSG_UDP              iDivisorNMEA    $MXPGN,01F803,281C,0000000000008C27*1A
 
7.07972         MSG_UDP              iDivisorNMEA    $MXPGN,01F804,281C,0000003C9FC18C27*60
 
7.08992         MSG_UDP              iDivisorNMEA    $MXPGN,01FF0D,780B,FF03000098900500*66
 
7.10011         MSG_UDP              iDivisorNMEA    $MXPGN,00FF00,280B,0002000005049913*19
 
7.11039         MSG_UDP              iDivisorNMEA    $HCHDG,285.3,0.0,E,23.3,W*6E
 
7.12073         MSG_UDP              iDivisorNMEA    $GPHDT,261.95,T*0C
 
7.13109         MSG_UDP              iDivisorNMEA    $TIROT,1.49,A*07
 
7.14140         MSG_UDP              iDivisorNMEA    !AIVDO,1,1,,,B:UOH3P007>VtPLf>`6gswr5oP06,0*08
 
7.15160         MSG_UDP              iDivisorNMEA    $AGRSA,-0.84,A,,V*6E
 
7.15168         ANGULO_LEME          iDivisorNMEA    -0.84000     
7.16186         MSG_UDP              iDivisorNMEA    $SDDPT,1.80,0.00,*72
 
7.17209         MSG_UDP              iDivisorNMEA    $MXPGN,01F803,281C,000000000000A028*1F
 
7.18230         MSG_UDP              iDivisorNMEA    $MXPGN,01F804,281C,0000003C9FC1A028*65
 
7.19243         MSG_UDP              iDivisorNMEA    $MXPGN,01FF1A,680B,FF022B849F410560*6A
 
7.20254         MSG_UDP              iDivisorNMEA    $HCHDG,285.3,0.0,E,23.3,W*6E
 
7.21265         MSG_UDP              iDivisorNMEA    $GPHDT,261.96,T*0F
 
7.22277         MSG_UDP              iDivisorNMEA    $TIROT,1.39,A*00
 
7.23289         MSG_UDP              iDivisorNMEA    $MXPGN,01FF1A,782B,FF010B049F410580*6E
 
7.43454         MSG_UDP              iDivisorNMEA    $MXPGN,01F803,281C,000000000000142A*12
 
7.43535         MSG_UDP              iDivisorNMEA    $MXPGN,01F804,281C,000000D608C1142A*1D
 
7.44552         MSG_UDP              iDivisorNMEA    $MXPGN,00FF19,7808,0000000202009F41*15
 
7.46848         MSG_UDP              iDivisorNMEA    $HCHDG,285.3,0.0,E,23.3,W*6E
 
7.46886         MSG_UDP              iDivisorNMEA    $GPHDT,261.96,T*0F
 
7.47906         MSG_UDP              iDivisorNMEA    $TIROT,1.29,A*01
 
7.48925         MSG_UDP              iDivisorNMEA    $MXPGN,00FF19,7808,0080000A0A009F41*1D
 
7.50057         MSG_UDP              iDivisorNMEA    $MXPGN,00FF00,280B,0002000005049913*19
 
7.51744         MSG_UDP              iDivisorNMEA    $AGRSA,-0.90,A,,V*6B
 
7.51752         ANGULO_LEME          iDivisorNMEA    -0.90000     
7.52069         MSG_UDP              iDivisorNMEA    $MXPGN,00FF8C,6808,FFF10695C9409F41*64
 
7.53090         MSG_UDP              iDivisorNMEA    $MXPGN,00FF28,3808,FF08FFFDFC059F41*19
 
7.54111         MSG_UDP              iDivisorNMEA    $MXPGN,01F803,281C,000000000000142A*12
 
7.55130         MSG_UDP              iDivisorNMEA    $MXPGN,01F804,281C,000000D608C1142A*1D
 
7.56844         MSG_UDP              iDivisorNMEA    $HCHDG,285.3,0.0,E,23.3,W*6E
 
7.57167         MSG_UDP              iDivisorNMEA    $GPHDT,261.96,T*0F
 
7.58190         MSG_UDP              iDivisorNMEA    $TIROT,1.29,A*01
 
7.61743         MSG_UDP              iDivisorNMEA    $AGRSA,-0.90,A,,V*6B
 
7.61746         ANGULO_LEME          iDivisorNMEA    -0.90000     
7.63339         MSG_UDP              iDivisorNMEA    $MXPGN,01F803,281C,0000000000003C2C*65
 
7.63430         MSG_UDP              iDivisorNMEA    $MXPGN,01F804,281C,000000E391C13C2C*6E
 
7.66859         MSG_UDP              iDivisorNMEA    $HCHDG,285.3,0.0,E,23.3,W*6E
 
7.66865         MSG_UDP              iDivisorNMEA    $GPHDT,261.98,T*01
 
7.67905         MSG_UDP              iDivisorNMEA    $TIROT,1.59,A*06
 
7.71735         MSG_UDP              iDivisorNMEA    $AGRSA,-0.90,A,,V*6B
 
7.71746         ANGULO_LEME          iDivisorNMEA    -0.90000     
7.72055         MSG_UDP              iDivisorNMEA    $MXPGN,00FF3C,3808,8000F8FE00009F41*1C
 
7.73353         MSG_UDP              iDivisorNMEA    $MXPGN,01F803,281C,000000000000642E*11
 
7.73881         MSG_UDP              iDivisorNMEA    $MXPGN,01F804,281C,000000E391C1642E*1A
 
7.75151         MSG_UDP              iDivisorNMEA    $MXPGN,00FF00,280B,0002000005049913*19
 
7.76956         MSG_UDP              iDivisorNMEA    $GPGGA,130953.000,2254.75113,S,04309.53671,W,1,12,0.90,7.07,M,-5.60,M,,*72
 
7.77083         MSG_UDP              iDivisorNMEA    $GPGLL,2254.75113,S,04309.53671,W,130953.000,A,A*53
 
7.78102         MSG_UDP              iDivisorNMEA    $GPRMC,130953.000,A,2254.75113,S,04309.53671,W,0.09,0.00,070323,23.30,W,A*13
 
7.79132         MSG_UDP              iDivisorNMEA    $GPVTG,0.00,T,,M,0.09,N,0.16,K,A*33
 
7.80154         MSG_UDP              iDivisorNMEA    $HCHDG,285.3,0.0,E,23.3,W*6E
 
7.81175         MSG_UDP              iDivisorNMEA    $GPHDT,261.97,T*0E
 
7.82196         MSG_UDP              iDivisorNMEA    $TIROT,1.39,A*00
 
7.83221         MSG_UDP              iDivisorNMEA    !AIVDM,1,1,,B,1:U6vLPP01trHeujpdqIdwwb2<1k,0*3C
 
7.84248         MSG_UDP              iDivisorNMEA    $GPGGA,,2254.75829,S,04309.53609,W,1,,,,M,,M,,*54
 
7.85277         MSG_UDP              iDivisorNMEA    $GPGLL,2254.75829,S,04309.53609,W,,A,A*4F
 
7.86298         MSG_UDP              iDivisorNMEA    $GPVTG,281.40,T,,M,0.00,N,0.00,K,A*32
 
7.87324         MSG_UDP              iDivisorNMEA    $AGRSA,-0.90,A,,V*6B
 
7.87330         ANGULO_LEME          iDivisorNMEA    -0.90000     
7.88349         MSG_UDP              iDivisorNMEA    $MXPGN,00FF16,7808,FF0000002B0A9F41*1B
 
7.89393         MSG_UDP              iDivisorNMEA    $MXPGN,01F803,281C,000000000000782F*1F
 
7.90414         MSG_UDP              iDivisorNMEA    $MXPGN,01F804,281C,0000009418C1782F*6E
 
7.91459         MSG_UDP              iDivisorNMEA    $HCHDG,285.3,0.0,E,23.3,W*6E
 
7.92486         MSG_UDP              iDivisorNMEA    $GPHDT,261.97,T*0E
 
7.93512         MSG_UDP              iDivisorNMEA    $TIROT,1.19,A*02
 
7.94560         MSG_UDP              iDivisorNMEA    $AGRSA,-0.90,A,,V*6B
 
7.94568         ANGULO_LEME          iDivisorNMEA    -0.90000     
7.95585         MSG_UDP              iDivisorNMEA    $GPZDA,130953.200,07,03,2023,,*5E
 
7.96609         MSG_UDP              iDivisorNMEA    $MXPGN,01F803,281C,0000000000008D30*1B
 
7.97637         MSG_UDP              iDivisorNMEA    $MXPGN,01F804,281C,0000009418C18D30*6A
 
7.98658         MSG_UDP              iDivisorNMEA    $HCHDG,285.3,0.0,E,23.3,W*6E
 
7.99687         MSG_UDP              iDivisorNMEA    $GPHDT,261.96,T*0F
 
8.00713         MSG_UDP              iDivisorNMEA    $TIROT,1.19,A*02
 
8.01737         MSG_UDP              iDivisorNMEA    $MXPGN,00FF00,280B,0002000005049913*19
 
8.02789         MSG_UDP              iDivisorNMEA    $AGRSA,-0.90,A,,V*6B
 
8.02795         ANGULO_LEME          iDivisorNMEA    -0.90000     
8.03837         MSG_UDP              iDivisorNMEA    $MXPGN,01F803,281C,000000000000A031*17
 
8.04863         MSG_UDP              iDivisorNMEA    $MXPGN,01F804,281C,0000007AE8C1A031*69
 
8.06851         MSG_UDP              iDivisorNMEA    $HCHDG,285.3,0.0,E,23.3,W*6E
 
8.06975         MSG_UDP              iDivisorNMEA    $GPHDT,261.97,T*0E
 
8.07996         MSG_UDP              iDivisorNMEA    $TIROT,1.29,A*01
 
8.09019         MSG_UDP              iDivisorNMEA    $GPGSA,A,3,08,10,16,18,26,27,28,31,32,66,65,86,1.60,1.30,1.30*07
 
8.10040         MSG_UDP              iDivisorNMEA    $GPGSV,3,1,12,08,32,227,33,10,46,167,41,16,17,305,39,18,25,083,41*7D
 
8.11070         MSG_UDP              iDivisorNMEA    $GPGSV,3,2,12,26,07,340,39,27,62,253,42,28,11,019,39,31,06,010,35*7D
 
8.12099         MSG_UDP              iDivisorNMEA    $GPGSV,3,3,12,32,74,037,48,66,05,322,44,65,56,297,40,86,39,065,45*78
 
8.13127         MSG_UDP              iDivisorNMEA    $MXPGN,01FF0D,780B,FF03000098900500*66
 
8.32261         MSG_UDP              iDivisorNMEA    $GPRMC,130954.000,A,2254.75289,S,04309.53829,W,0.00,180.27,070323,23.39,W,A*1B
 
8.32340         MSG_UDP              iDivisorNMEA    $GPVTG,180.27,T,,M,0.00,N,0.00,K,A*31
 
8.33365         MSG_UDP              iDivisorNMEA    $AGRSA,-0.90,A,,V*6B
 
8.33371         ANGULO_LEME          iDivisorNMEA    -0.90000     
8.34396         MSG_UDP              iDivisorNMEA    $GPGSA,A,3,08,10,16,18,21,23,24,26,27,,,,1.80,1.50,1.50*09
 
8.35422         MSG_UDP              iDivisorNMEA    $GPGSV,3,1,09,08,31,226,45,10,46,166,47,16,16,304,42,18,24,083,44*7B
 
8.36445         MSG_UDP              iDivisorNMEA    $GPGSV,3,2,09,21,01,229,00,23,22,135,00,24,01,121,00,26,06,339,43*75
 
8.37475         MSG_UDP              iDivisorNMEA    $GPGSV,3,3,09,27,62,253,49*48
 
8.38504         MSG_UDP              iDivisorNMEA    $MXPGN,01FA06,681C,8300A500C8340FC0*1A
 
8.39532         MSG_UDP              iDivisorNMEA    $MXPGN,01FA06,681C,008500A3EB0B00C1*64
 
8.40564         MSG_UDP              iDivisorNMEA    $MXPGN,01FA06,681C,FFFFFFFFFF013FC2*19
 
8.41587         MSG_UDP              iDivisorNMEA    $MXPGN,01F803,281C,0000000000000034*63
 
8.42610         MSG_UDP              iDivisorNMEA    $MXPGN,01F804,281C,000000E9E3C10034*1C
 
8.43633         MSG_UDP              iDivisorNMEA    $HCHDG,285.3,0.0,E,23.3,W*6E
 
8.44691         MSG_UDP              iDivisorNMEA    $GPHDT,261.98,T*01
 
8.45713         MSG_UDP              iDivisorNMEA    $TIROT,1.29,A*01
 
8.46734         MSG_UDP              iDivisorNMEA    $AGRSA,-0.90,A,,V*6B
 
8.46740         ANGULO_LEME          iDivisorNMEA    -0.90000     
8.47761         MSG_UDP              iDivisorNMEA    $MXPGN,01F803,281C,0000000000001435*67
 
8.48781         MSG_UDP              iDivisorNMEA    $MXPGN,01F804,281C,000000E9E3C11435*18
 
8.49807         MSG_UDP              iDivisorNMEA    $MXPGN,00FF19,7808,0000000202009F41*15
 
8.50834         MSG_UDP              iDivisorNMEA    $HCHDG,285.3,0.0,E,23.3,W*6E
 
8.51862         MSG_UDP              iDivisorNMEA    $GPHDT,261.98,T*01
 
8.52890         MSG_UDP              iDivisorNMEA    $TIROT,1.09,A*03
 
8.53916         MSG_UDP              iDivisorNMEA    $MXPGN,00FF19,7808,0080000A0A009F41*1D
 
8.54941         MSG_UDP              iDivisorNMEA    $MXPGN,00FF00,280B,0002000005049913*19
 
8.55967         MSG_UDP              iDivisorNMEA    $AGRSA,-0.90,A,,V*6B
 
8.55975         ANGULO_LEME          iDivisorNMEA    -0.90000     
8.56992         MSG_UDP              iDivisorNMEA    $MXPGN,00FF8C,6808,FFF10695C9409F41*64
 
8.58021         MSG_UDP              iDivisorNMEA    $MXPGN,00FF28,3808,FF08FFFDFC059F41*19
 
8.59048         MSG_UDP              iDivisorNMEA    $MXPGN,01F803,281C,0000000000002836*6B
 
8.60074         MSG_UDP              iDivisorNMEA    $MXPGN,01F804,281C,00000096E3C12836*67
 
8.61096         MSG_UDP              iDivisorNMEA    $HCHDG,285.3,0.0,E,23.3,W*6E
 
8.62125         MSG_UDP              iDivisorNMEA    $GPHDT,261.99,T*00
 
8.63151         MSG_UDP              iDivisorNMEA    $TIROT,1.09,A*03
 
8.64197         MSG_UDP              iDivisorNMEA    !AIVDM,1,1,,A,1:U8M80P01trUcejqUaC4Owf28Om,0*2F
 
8.65224         MSG_UDP              iDivisorNMEA    $AGRSA,-0.90,A,,V*6B
 
8.65235         ANGULO_LEME          iDivisorNMEA    -0.90000     
8.66252         MSG_UDP              iDivisorNMEA    $MXPGN,01F803,281C,0000000000003C37*10
 
8.67273         MSG_UDP              iDivisorNMEA    $MXPGN,01F804,281C,00000096E3C13C37*1C
 
8.68299         MSG_UDP              iDivisorNMEA    $HCHDG,285.3,0.0,E,23.3,W*6E
 
8.69328         MSG_UDP              iDivisorNMEA    $GPHDT,262.00,T*03
 
8.70356         MSG_UDP              iDivisorNMEA    $TIROT,1.29,A*01
 
8.71728         MSG_UDP              iDivisorNMEA    $AGRSA,-0.90,A,,V*6B
 
8.71736         ANGULO_LEME          iDivisorNMEA    -0.90000     
8.72457         MSG_UDP              iDivisorNMEA    $MXPGN,00FF3C,3808,8000F8FE00009F41*1C
 
8.73492         MSG_UDP              iDivisorNMEA    $MXPGN,01F803,281C,0000000000005038*6A
 
8.74520         MSG_UDP              iDivisorNMEA    $MXPGN,01F804,281C,FFFF9D96E3C15038*1B
 
8.75542         MSG_UDP              iDivisorNMEA    $MXPGN,00FF00,280B,0002000005049913*19
 
8.76953         MSG_UDP              iDivisorNMEA    $GPGGA,130954.000,2254.75138,S,04309.53673,W,1,12,0.90,6.75,M,-5.60,M,,*7A
 
8.77582         MSG_UDP              iDivisorNMEA    $GPGLL,2254.75138,S,04309.53673,W,130954.000,A,A*5F
 
8.78610         MSG_UDP              iDivisorNMEA    $GPRMC,130954.000,A,2254.75138,S,04309.53673,W,0.09,0.00,070323,23.30,W,A*1F
 
8.79638         MSG_UDP              iDivisorNMEA    $GPVTG,0.00,T,,M,0.09,N,0.16,K,A*33
 
8.80663         MSG_UDP              iDivisorNMEA    $HCHDG,285.3,0.0,E,23.3,W*6E
 
8.81692         MSG_UDP              iDivisorNMEA    $GPHDT,262.02,T*01
 
8.82717         MSG_UDP              iDivisorNMEA    $TIROT,1.29,A*01
 
8.83744         MSG_UDP              iDivisorNMEA    $GPGGA,,2254.75829,S,04309.53609,W,1,,,,M,,M,,*54
 
8.84776         MSG_UDP              iDivisorNMEA    $GPGLL,2254.75829,S,04309.53609,W,,A,A*4F
 
8.85802         MSG_UDP              iDivisorNMEA    $GPVTG,281.40,T,,M,0.00,N,0.00,K,A*32
 
8.86828         MSG_UDP              iDivisorNMEA    $AGRSA,-0.90,A,,V*6B
 
8.86833         ANGULO_LEME          iDivisorNMEA    -0.90000     
8.87853         MSG_UDP              iDivisorNMEA    $MXPGN,00FF16,7808,FF0000002B0A9F41*1B
 
8.88880         MSG_UDP              iDivisorNMEA    $MXPGN,01F803,281C,0000000000006439*6C
 
8.89905         MSG_UDP              iDivisorNMEA    $MXPGN,01F804,281C,0000006E2CC16439*1B
 
8.90931         MSG_UDP              iDivisorNMEA    $HCHDG,285.3,0.0,E,23.3,W*6E
 
8.91958         MSG_UDP              iDivisorNMEA    $GPHDT,262.02,T*01
 
8.92983         MSG_UDP              iDivisorNMEA    $TIROT,0.99,A*0B
 
8.94004         MSG_UDP              iDivisorNMEA    $AGRSA,-0.90,A,,V*6B
 
8.94010         ANGULO_LEME          iDivisorNMEA    -0.90000     
8.95055         MSG_UDP              iDivisorNMEA    $GPZDA,130954.200,07,03,2023,,*59
 
8.96082         MSG_UDP              iDivisorNMEA    $MXPGN,01F803,281C,000000000000783A*19
 
9.21724         MSG_UDP              iDivisorNMEA    $AGRSA,-0.84,A,,V*6E
 
9.21734         ANGULO_LEME          iDivisorNMEA    -0.84000     
9.22035         MSG_UDP              iDivisorNMEA    $MXPGN,01FF2C,7808,FFFFFFFF9F4117E0*1E
 
9.22812         MSG_UDP              iDivisorNMEA    $MXPGN,01FF2C,7808,FFFF7FFFFFFF7FE1*63
 
9.23838         MSG_UDP              iDivisorNMEA    $MXPGN,01FF2C,7808,FF7FFFFFFFFFFFE2*11
 
9.24862         MSG_UDP              iDivisorNMEA    $MXPGN,01FF2C,7808,FFFFFFFF7FFFFFE3*10
 
9.25885         MSG_UDP              iDivisorNMEA    $MXPGN,01F803,281C,000000000000B43D*65
 
9.26912         MSG_UDP              iDivisorNMEA    $MXPGN,01F804,281C,0000005723C1B43D*13
 
9.27933         MSG_UDP              iDivisorNMEA    $MXPGN,00FF3D,6808,7FFFFF0DFFFF9F41*6E
 
9.28961         MSG_UDP              iDivisorNMEA    $MXPGN,00FF00,280B,0002000005049913*19
 
9.29984         MSG_UDP              iDivisorNMEA    $HCHDG,285.4,0.0,E,23.3,W*69
 
9.31007         MSG_UDP              iDivisorNMEA    $GPHDT,262.06,T*05
 
9.32039         MSG_UDP              iDivisorNMEA    $TIROT,1.39,A*00
 
9.33064         MSG_UDP              iDivisorNMEA    $GPGGA,130955.000,2254.75289,S,04309.53829,W,1,09,1.50,0.65,M,-5.00,M,,*75
 
9.34092         MSG_UDP              iDivisorNMEA    $GPGLL,2254.75289,S,04309.53829,W,130955.000,A,A*56
 
9.35118         MSG_UDP              iDivisorNMEA    $GPRMC,130955.000,A,2254.75289,S,04309.53829,W,0.00,127.80,070323,23.39,W,A*1A
 
9.36148         MSG_UDP              iDivisorNMEA    $GPVTG,127.80,T,,M,0.00,N,0.00,K,A*31
 
