%%%%%%%%%%%%%%%%%%%%%%%%%%%%%%%%%%%%%%%%%%%%%%%%%%%%%%%%%%%
%% LOG FILE:       /home/moos-ivp-douglas/log/teste_7_3_2023_____10_15_33/teste_7_3_2023_____10_15_33.alog
%% FILE OPENED ON  Wed Dec 31 21:00:00 1969
%% LOGSTART            1678194932.45606
%%%%%%%%%%%%%%%%%%%%%%%%%%%%%%%%%%%%%%%%%%%%%%%%%%%%%%%%%%%
-0.03485        MOOS_DEBUG           pHelmIvP        pHelmIvP AllStop: ManualOverride 
-0.03484        DESIRED_SPEED        pHelmIvP        0.00000      
-0.03484        DESIRED_HEADING      pHelmIvP        0.00000      
0.16626         DESIRED_RUDDER       pMarinePIDV22   0.00000      
0.16626         DESIRED_THRUST       pMarinePIDV22   0.00000      
0.60615         MSG_UDP              iDivisorNMEA    $MXPGN,01FF2C,7808,FFFFFFFF9F411720*69
 
0.83133         MSG_UDP              iDivisorNMEA    $MXPGN,00FF19,7808,0000000202009F41*15
 
0.83319         MSG_UDP              iDivisorNMEA    $MXPGN,01F803,281C,00000000000014B4*17
 
0.84237         MSG_UDP              iDivisorNMEA    $MXPGN,01F804,281C,000000EF8BC114B4*1B
 
0.85252         MSG_UDP              iDivisorNMEA    $MXPGN,00FF00,280B,0002000005049913*19
 
0.86272         MSG_UDP              iDivisorNMEA    $MXPGN,00FF19,7808,0080000A0A009F41*1D
 
0.87430         MSG_UDP              iDivisorNMEA    $HCHDG,285.0,0.0,E,23.3,W*6D
 
0.88353         MSG_UDP              iDivisorNMEA    $GPHDT,261.66,T*00
 
0.89369         MSG_UDP              iDivisorNMEA    $TIROT,-0.19,A*2E
 
0.90635         MSG_UDP              iDivisorNMEA    $MXPGN,00FF8C,6808,FFF10695C9409F41*64
 
0.91454         MSG_UDP              iDivisorNMEA    $MXPGN,00FF28,3808,FF08FFFDFC059F41*19
 
0.92473         MSG_UDP              iDivisorNMEA    $AGRSA,-0.90,A,,V*6B
 
0.92477         ANGULO_LEME          iDivisorNMEA    -0.90000     
0.93494         MSG_UDP              iDivisorNMEA    $MXPGN,01F803,281C,0000000000003CB6*60
 
0.94511         MSG_UDP              iDivisorNMEA    $MXPGN,01F804,281C,0000003DDEC13CB6*63
 
0.97440         MSG_UDP              iDivisorNMEA    $HCHDG,285.0,0.0,E,23.3,W*6D
 
0.97536         MSG_UDP              iDivisorNMEA    $GPHDT,261.67,T*01
 
0.98557         MSG_UDP              iDivisorNMEA    $TIROT,-0.19,A*2E
 
0.99571         MSG_UDP              iDivisorNMEA    !AIVDO,1,1,,,B:UOH3P01G>VtILf>b2gswhUoP06,0*1C
 
1.02431         MSG_UDP              iDivisorNMEA    $AGRSA,-0.90,A,,V*6B
 
1.02433         ANGULO_LEME          iDivisorNMEA    -0.90000     
1.03346         MSG_UDP              iDivisorNMEA    $MXPGN,01F803,281C,0000000000003CB6*60
 
1.03461         MSG_UDP              iDivisorNMEA    $MXPGN,01F804,281C,0000003DDEC13CB6*63
 
1.04480         MSG_UDP              iDivisorNMEA    $GPGSA,A,3,08,10,16,18,26,27,28,31,32,66,65,86,1.60,1.40,1.40*07
 
1.05497         MSG_UDP              iDivisorNMEA    $GPGSV,3,1,12,08,34,229,42,10,45,163,34,16,16,307,39,18,23,080,37*71
 
1.06515         MSG_UDP              iDivisorNMEA    $GPGSV,3,2,12,26,06,342,35,27,63,259,44,28,12,020,43,31,08,011,36*77
 
1.07552         MSG_UDP              iDivisorNMEA    $GPGSV,3,3,12,32,76,046,48,66,07,320,44,65,58,291,33,86,38,061,43*73
 
1.08569         MSG_UDP              iDivisorNMEA    $HCHDG,285.0,0.0,E,23.3,W*6D
 
1.09583         MSG_UDP              iDivisorNMEA    $GPHDT,261.66,T*00
 
1.10600         MSG_UDP              iDivisorNMEA    $TIROT,-0.39,A*2C
 
1.11616         MSG_UDP              iDivisorNMEA    $MXPGN,00FF00,280B,0002000005049913*19
 
1.12630         MSG_UDP              iDivisorNMEA    $MXPGN,00FF3C,3808,8000F8FE00009F41*1C
 
1.13645         MSG_UDP              iDivisorNMEA    $GPGGA,131533.000,2254.75177,S,04309.53752,W,1,12,0.90,7.47,M,-5.60,M,,*7F
 
1.14663         MSG_UDP              iDivisorNMEA    $GPGLL,2254.75177,S,04309.53752,W,131533.000,A,A*5A
 
1.15678         MSG_UDP              iDivisorNMEA    $GPRMC,131533.000,A,2254.75177,S,04309.53752,W,0.29,248.69,070323,23.30,W,A*19
 
1.16695         MSG_UDP              iDivisorNMEA    $GPVTG,248.69,T,,M,0.29,N,0.53,K,A*31
 
1.17714         MSG_UDP              iDivisorNMEA    $AGRSA,-0.90,A,,V*6B
 
1.17720         ANGULO_LEME          iDivisorNMEA    -0.90000     
1.18732         MSG_UDP              iDivisorNMEA    $MXPGN,01F803,281C,00000000000064B8*1C
 
1.19751         MSG_UDP              iDivisorNMEA    $MXPGN,01F804,281C,0000003DDEC164B8*1F
 
1.20765         MSG_UDP              iDivisorNMEA    !AIVDM,1,1,,A,1:U6v;gP00LrHV=jpgS;egwp2l1R,0*04
 
1.21782         MSG_UDP              iDivisorNMEA    $MXPGN,01FF0D,780B,FF03000098900540*62
 
1.22798         MSG_UDP              iDivisorNMEA    $HCHDG,285.0,0.0,E,23.3,W*6D
 
1.23819         MSG_UDP              iDivisorNMEA    $GPHDT,261.66,T*00
 
1.24836         MSG_UDP              iDivisorNMEA    $TIROT,-0.39,A*2C
 
1.25850         MSG_UDP              iDivisorNMEA    $MXPGN,00FF16,7808,FF0000002B0A9F41*1B
 
1.26861         MSG_UDP              iDivisorNMEA    $GPGGA,,2254.75519,S,04309.53749,W,1,,,,M,,M,,*5F
 
1.27879         MSG_UDP              iDivisorNMEA    $GPGLL,2254.75519,S,04309.53749,W,,A,A*44
 
1.28893         MSG_UDP              iDivisorNMEA    $GPVTG,281.40,T,,M,0.50,N,0.92,K,A*3C
 
1.29909         MSG_UDP              iDivisorNMEA    $AGRSA,-0.90,A,,V*6B
 
1.29914         ANGULO_LEME          iDivisorNMEA    -0.90000     
1.30926         MSG_UDP              iDivisorNMEA    $MXPGN,01F803,281C,00000000000064B8*1C
 
1.31944         MSG_UDP              iDivisorNMEA    $MXPGN,01F804,281C,000000E894C164B8*19
 
1.32962         MSG_UDP              iDivisorNMEA    $HCHDG,285.0,0.0,E,23.3,W*6D
 
1.33978         MSG_UDP              iDivisorNMEA    $GPHDT,261.66,T*00
 
1.34994         MSG_UDP              iDivisorNMEA    $TIROT,-0.19,A*2E
 
1.36008         MSG_UDP              iDivisorNMEA    $AGRSA,-0.84,A,,V*6E
 
1.36012         ANGULO_LEME          iDivisorNMEA    -0.84000     
1.37028         MSG_UDP              iDivisorNMEA    $GPZDA,131533.020,07,03,2023,,*55
 
1.38039         MSG_UDP              iDivisorNMEA    $MXPGN,01F803,281C,0000000000008CBA*1C
 
1.39053         MSG_UDP              iDivisorNMEA    $MXPGN,01F804,281C,000000E894C18CBA*19
 
1.40068         MSG_UDP              iDivisorNMEA    $MXPGN,00FF00,280B,0002000005049913*19
 
1.41084         MSG_UDP              iDivisorNMEA    $HCHDG,285.0,0.0,E,23.3,W*6D
 
1.42097         MSG_UDP              iDivisorNMEA    $GPHDT,261.66,T*00
 
1.43112         MSG_UDP              iDivisorNMEA    $TIROT,-0.19,A*2E
 
1.44128         MSG_UDP              iDivisorNMEA    $AGRSA,-0.84,A,,V*6E
 
1.44131         ANGULO_LEME          iDivisorNMEA    -0.84000     
1.45143         MSG_UDP              iDivisorNMEA    $MXPGN,01F803,281C,0000000000008CBA*1C
 
1.46157         MSG_UDP              iDivisorNMEA    $MXPGN,01F804,281C,000000AF25C18CBA*69
 
1.47172         MSG_UDP              iDivisorNMEA    $MXPGN,01FF1A,680B,FF022B849F410560*6A
 
1.48189         MSG_UDP              iDivisorNMEA    $HCHDG,285.0,0.0,E,23.3,W*6D
 
1.72500         MSG_UDP              iDivisorNMEA    $GPGSV,3,1,09,08,33,228,43,10,44,163,43,16,15,306,42,18,23,080,44*77
 
1.72607         MSG_UDP              iDivisorNMEA    $GPGSV,3,2,09,21,03,228,00,23,20,134,00,24,01,123,00,26,05,341,41*79
 
1.73558         MSG_UDP              iDivisorNMEA    $GPGSV,3,3,09,27,63,259,50*4B
 
1.74582         MSG_UDP              iDivisorNMEA    $GPGGA,131534.000,2254.75309,S,04309.53829,W,1,09,1.60,0.85,M,-5.00,M,,*7B
 
1.75603         MSG_UDP              iDivisorNMEA    $GPGLL,2254.75309,S,04309.53829,W,131534.000,A,A*55
 
1.76624         MSG_UDP              iDivisorNMEA    $GPRMC,131534.000,A,2254.75309,S,04309.53829,W,0.01,256.89,070323,23.39,W,A*14
 
1.77644         MSG_UDP              iDivisorNMEA    $GPVTG,256.89,T,,M,0.01,N,0.01,K,A*3D
 
1.78665         MSG_UDP              iDivisorNMEA    $AGRSA,-0.84,A,,V*6E
 
1.78669         ANGULO_LEME          iDivisorNMEA    -0.84000     
1.79686         MSG_UDP              iDivisorNMEA    $MXPGN,01FA06,681C,8300A800C8BD0F40*61
 
1.80703         MSG_UDP              iDivisorNMEA    $MXPGN,01FA06,681C,008400A7EDD70041*11
 
1.81722         MSG_UDP              iDivisorNMEA    $MXPGN,01FA06,681C,FFFFFFFFFF014242*1D
 
1.82743         MSG_UDP              iDivisorNMEA    $MXPGN,01F803,281C,00000000000000BD*62
 
1.83763         MSG_UDP              iDivisorNMEA    $MXPGN,01F804,281C,000000694AC100BD*6D
 
1.84776         MSG_UDP              iDivisorNMEA    $HCHDG,285.0,0.0,E,23.3,W*6D
 
1.85793         MSG_UDP              iDivisorNMEA    $GPHDT,261.66,T*00
 
1.86811         MSG_UDP              iDivisorNMEA    $TIROT,-0.19,A*2E
 
1.87828         MSG_UDP              iDivisorNMEA    $AGRSA,-0.84,A,,V*6E
 
1.87832         ANGULO_LEME          iDivisorNMEA    -0.84000     
1.88845         MSG_UDP              iDivisorNMEA    $MXPGN,00FF19,7808,0000000202009F41*15
 
1.89863         MSG_UDP              iDivisorNMEA    $MXPGN,01F803,281C,00000000000014BE*66
 
1.90880         MSG_UDP              iDivisorNMEA    $MXPGN,01F804,281C,000000694AC114BE*69
 
1.91920         MSG_UDP              iDivisorNMEA    $MXPGN,00FF00,280B,0002000005049913*19
 
1.92946         MSG_UDP              iDivisorNMEA    $MXPGN,00FF19,7808,0080000A0A009F41*1D
 
1.93969         MSG_UDP              iDivisorNMEA    $HCHDG,285.0,0.0,E,23.3,W*6D
 
1.94986         MSG_UDP              iDivisorNMEA    $GPHDT,261.65,T*03
 
1.95997         MSG_UDP              iDivisorNMEA    $TIROT,-0.39,A*2C
 
1.97015         MSG_UDP              iDivisorNMEA    $MXPGN,00FF8C,6808,FFF10695C9409F41*64
 
1.98037         MSG_UDP              iDivisorNMEA    $MXPGN,00FF28,3808,FF08FFFDFC059F41*19
 
1.99057         MSG_UDP              iDivisorNMEA    $AGRSA,-0.90,A,,V*6B
 
1.99066         ANGULO_LEME          iDivisorNMEA    -0.90000     
2.00080         MSG_UDP              iDivisorNMEA    !AIVDM,1,1,,A,1:U8U8PP12LrLpQjquL9=?wp0W3h,0*5F
 
2.01098         MSG_UDP              iDivisorNMEA    $MXPGN,01F803,281C,0000000000003CC0*67
 
2.02130         MSG_UDP              iDivisorNMEA    $MXPGN,01F804,281C,000000EA6EC13CC0*65
 
2.03163         MSG_UDP              iDivisorNMEA    $HCHDG,284.9,0.0,E,23.3,W*65
 
2.04183         MSG_UDP              iDivisorNMEA    $GPHDT,261.64,T*02
 
2.05211         MSG_UDP              iDivisorNMEA    $TIROT,-0.39,A*2C
 
2.06234         MSG_UDP              iDivisorNMEA    $AGRSA,-0.90,A,,V*6B
 
2.06240         ANGULO_LEME          iDivisorNMEA    -0.90000     
2.07260         MSG_UDP              iDivisorNMEA    $MXPGN,01F803,281C,0000000000003CC0*67
 
2.08286         MSG_UDP              iDivisorNMEA    $MXPGN,01F804,281C,000000EA6EC13CC0*65
 
2.09307         MSG_UDP              iDivisorNMEA    $GPGSA,A,3,08,10,16,18,26,27,28,31,32,66,65,86,1.60,1.40,1.40*07
 
2.10334         MSG_UDP              iDivisorNMEA    $GPGSV,3,1,12,08,34,229,42,10,45,163,33,16,16,307,39,18,23,080,37*76
 
2.11361         MSG_UDP              iDivisorNMEA    $GPGSV,3,2,12,26,06,343,35,27,63,259,44,28,12,020,43,31,08,011,36*76
 
2.12387         MSG_UDP              iDivisorNMEA    $GPGSV,3,3,12,32,76,046,48,66,07,320,44,65,58,291,33,86,38,061,43*73
 
2.13435         MSG_UDP              iDivisorNMEA    !AIVDM,1,1,,B,1:U6vLPP00trHf=jpds:<ww42D1n,0*74
 
2.14459         MSG_UDP              iDivisorNMEA    $HCHDG,284.9,0.0,E,23.3,W*65
 
2.15484         MSG_UDP              iDivisorNMEA    $GPHDT,261.63,T*05
 
2.16512         MSG_UDP              iDivisorNMEA    $TIROT,-0.39,A*2C
 
2.17547         MSG_UDP              iDivisorNMEA    $MXPGN,00FF00,280B,0002000005049913*19
 
2.18574         MSG_UDP              iDivisorNMEA    $MXPGN,00FF3C,3808,8000F8FE00009F41*1C
 
2.19598         MSG_UDP              iDivisorNMEA    $GPGGA,131534.000,2254.75177,S,04309.53751,W,1,12,0.90,7.47,M,-5.60,M,,*7B
 
2.20628         MSG_UDP              iDivisorNMEA    $GPGLL,2254.75177,S,04309.53751,W,131534.000,A,A*5E
 
2.21653         MSG_UDP              iDivisorNMEA    $GPRMC,131534.000,A,2254.75177,S,04309.53751,W,0.19,0.00,070323,23.30,W,A*1F
 
2.22687         MSG_UDP              iDivisorNMEA    $GPVTG,0.00,T,,M,0.19,N,0.35,K,A*33
 
2.23712         MSG_UDP              iDivisorNMEA    $AGRSA,-0.90,A,,V*6B
 
2.23718         ANGULO_LEME          iDivisorNMEA    -0.90000     
2.24739         MSG_UDP              iDivisorNMEA    $MXPGN,01F803,281C,00000000000064C2*17
 
2.25768         MSG_UDP              iDivisorNMEA    $MXPGN,01F804,281C,000000EA6EC164C2*15
 
2.26792         MSG_UDP              iDivisorNMEA    $MXPGN,01FF0D,780B,FF03000098900560*60
 
2.27816         MSG_UDP              iDivisorNMEA    $HCHDG,284.9,0.0,E,23.3,W*65
 
2.28839         MSG_UDP              iDivisorNMEA    $GPHDT,261.63,T*05
 
2.29871         MSG_UDP              iDivisorNMEA    $TIROT,-0.39,A*2C
 
2.30901         MSG_UDP              iDivisorNMEA    $MXPGN,00FF16,7808,FF0000002B0A9F41*1B
 
2.31937         MSG_UDP              iDivisorNMEA    $GPGGA,,2254.75519,S,04309.53749,W,1,,,,M,,M,,*5F
 
2.32970         MSG_UDP              iDivisorNMEA    $GPGLL,2254.75519,S,04309.53749,W,,A,A*44
 
2.33995         MSG_UDP              iDivisorNMEA    $GPVTG,281.40,T,,M,0.50,N,0.92,K,A*3C
 
2.35020         MSG_UDP              iDivisorNMEA    $AGRSA,-0.90,A,,V*6B
 
2.35026         ANGULO_LEME          iDivisorNMEA    -0.90000     
2.36044         MSG_UDP              iDivisorNMEA    $MXPGN,01F803,281C,00000000000064C2*17
 
2.62561         MSG_UDP              iDivisorNMEA    $AGRSA,-0.90,A,,V*6B
 
2.62568         ANGULO_LEME          iDivisorNMEA    -0.90000     
2.63274         MSG_UDP              iDivisorNMEA    $MXPGN,00FF3D,6808,7FFFFF0DFFFF9F41*6E
 
2.63672         MSG_UDP              iDivisorNMEA    $MXPGN,01F803,281C,000000000000A0C5*63
 
2.64695         MSG_UDP              iDivisorNMEA    $MXPGN,01F804,281C,0000002B68C1A0C5*68
 
2.67573         MSG_UDP              iDivisorNMEA    $HCHDG,285.0,0.0,E,23.3,W*6D
 
2.67607         MSG_UDP              iDivisorNMEA    $GPHDT,261.65,T*03
 
2.68639         MSG_UDP              iDivisorNMEA    $TIROT,-0.39,A*2C
 
2.72504         MSG_UDP              iDivisorNMEA    $GPGSA,A,3,08,10,16,18,21,23,24,26,27,,,,1.88,1.60,1.60*01
 
2.72590         MSG_UDP              iDivisorNMEA    $GPGSV,3,1,09,08,33,228,43,10,44,163,43,16,15,306,42,18,23,080,44*77
 
2.73600         MSG_UDP              iDivisorNMEA    $GPGSV,3,2,09,21,03,228,00,23,20,134,00,24,01,123,00,26,05,341,41*79
 
2.74635         MSG_UDP              iDivisorNMEA    $GPGSV,3,3,09,27,63,259,50*4B
 
2.75661         MSG_UDP              iDivisorNMEA    $GPGGA,131534.900,2254.75309,S,04309.53829,W,1,09,1.60,0.85,M,-5.00,M,,*72
 
2.76692         MSG_UDP              iDivisorNMEA    $GPGLL,2254.75309,S,04309.53829,W,131534.900,A,A*5C
 
2.77719         MSG_UDP              iDivisorNMEA    $GPRMC,131534.900,A,2254.75309,S,04309.53829,W,0.03,63.66,070323,23.39,W,A*2A
 
2.78747         MSG_UDP              iDivisorNMEA    $GPVTG,63.66,T,,M,0.03,N,0.05,K,A*0E
 
2.79781         MSG_UDP              iDivisorNMEA    $AGRSA,-0.90,A,,V*6B
 
2.79789         ANGULO_LEME          iDivisorNMEA    -0.90000     
2.80810         MSG_UDP              iDivisorNMEA    $MXPGN,01FA06,681C,8300A800C8C60F60*10
 
2.81837         MSG_UDP              iDivisorNMEA    $MXPGN,01FA06,681C,008400A7EDDD0061*60
 
2.82861         MSG_UDP              iDivisorNMEA    $MXPGN,01FA06,681C,FFFFFFFFFF014262*1F
 
2.83886         MSG_UDP              iDivisorNMEA    $MXPGN,01F803,281C,00000000000000C6*11
 
2.84913         MSG_UDP              iDivisorNMEA    $MXPGN,01F804,281C,0000002B68C100C6*1A
 
2.85938         MSG_UDP              iDivisorNMEA    $MXPGN,01FF06,380B,801001FF99130FA0*13
 
2.86962         MSG_UDP              iDivisorNMEA    $MXPGN,01FF06,380B,0001B112FC0000A1*1A
 
2.87982         MSG_UDP              iDivisorNMEA    $MXPGN,01FF06,380B,FFFFFFFFFFBE8EA2*17
 
2.89008         MSG_UDP              iDivisorNMEA    $HCHDG,284.9,0.0,E,23.3,W*65
 
2.90040         MSG_UDP              iDivisorNMEA    $GPHDT,261.64,T*02
 
2.91071         MSG_UDP              iDivisorNMEA    $TIROT,-0.39,A*2C
 
2.92100         MSG_UDP              iDivisorNMEA    $AGRSA,-0.90,A,,V*6B
 
2.92126         ANGULO_LEME          iDivisorNMEA    -0.90000     
2.93160         MSG_UDP              iDivisorNMEA    $MXPGN,00FF19,7808,0000000202009F41*15
 
2.94197         MSG_UDP              iDivisorNMEA    $MXPGN,01F803,281C,FFFDA800000014C7*6E
 
2.95222         MSG_UDP              iDivisorNMEA    $MXPGN,01F804,281C,0000001976C114C7*69
 
2.96244         MSG_UDP              iDivisorNMEA    $MXPGN,00FF00,280B,0002000005049913*19
 
2.97274         MSG_UDP              iDivisorNMEA    $MXPGN,00FF19,7808,0080000A0A009F41*1D
 
2.98300         MSG_UDP              iDivisorNMEA    $HCHDG,285.0,0.0,E,23.3,W*6D
 
2.99324         MSG_UDP              iDivisorNMEA    $GPHDT,261.65,T*03
 
3.00352         MSG_UDP              iDivisorNMEA    $TIROT,-0.09,A*2F
 
3.01380         MSG_UDP              iDivisorNMEA    $MXPGN,00FF8C,6808,FFF10695C9409F41*64
 
3.02409         MSG_UDP              iDivisorNMEA    $MXPGN,00FF28,3808,FF08FFFDFC059F41*19
 
3.03438         MSG_UDP              iDivisorNMEA    $AGRSA,-0.90,A,,V*6B
 
3.03451         ANGULO_LEME          iDivisorNMEA    -0.90000     
3.04473         MSG_UDP              iDivisorNMEA    $MXPGN,01F803,281C,FFFDA800000014C7*6E
 
3.05497         MSG_UDP              iDivisorNMEA    $MXPGN,01F804,281C,0000001976C114C7*69
 
3.06518         MSG_UDP              iDivisorNMEA    $HCHDG,285.0,0.0,E,23.3,W*6D
 
3.07548         MSG_UDP              iDivisorNMEA    $GPHDT,261.65,T*03
 
3.08577         MSG_UDP              iDivisorNMEA    $TIROT,-0.09,A*2F
 
3.09607         MSG_UDP              iDivisorNMEA    !AIVDO,1,1,,,B:UOH3P007>VtHLf>bFgswiUoP06,0*19
 
3.10629         MSG_UDP              iDivisorNMEA    $MXPGN,01FF06,380B,801101FF99130FC0*10
 
3.11656         MSG_UDP              iDivisorNMEA    $MXPGN,01FF06,380B,0001B112FC0000C1*18
 
3.12680         MSG_UDP              iDivisorNMEA    $MXPGN,01FF06,380B,FFFFFFFFFFBE8EC2*15
 
3.13776         MSG_UDP              iDivisorNMEA    $AGRSA,-0.90,A,,V*6B
 
3.13783         ANGULO_LEME          iDivisorNMEA    -0.90000     
3.14802         MSG_UDP              iDivisorNMEA    $MXPGN,01F803,281C,FFFDA80000003CC9*15
 
3.15821         MSG_UDP              iDivisorNMEA    $MXPGN,01F804,281C,0000008E32C13CC9*67
 
3.16847         MSG_UDP              iDivisorNMEA    $GPGSA,A,3,08,10,16,18,26,27,28,31,32,66,65,86,1.60,1.40,1.40*07
 
3.17871         MSG_UDP              iDivisorNMEA    $GPGSV,3,1,12,08,34,229,42,10,45,163,33,16,16,307,39,18,23,080,37*76
 
3.18905         MSG_UDP              iDivisorNMEA    $GPGSV,3,2,12,26,06,343,34,27,63,259,44,28,12,020,43,31,08,011,36*77
 
3.19937         MSG_UDP              iDivisorNMEA    $GPGSV,3,3,12,32,76,046,48,66,07,320,45,65,58,291,33,86,38,061,43*72
 
3.20972         MSG_UDP              iDivisorNMEA    $HCHDG,285.0,0.0,E,23.3,W*6D
 
3.21991         MSG_UDP              iDivisorNMEA    $GPHDT,261.65,T*03
 
3.23016         MSG_UDP              iDivisorNMEA    $TIROT,-0.19,A*2E
 
3.24037         MSG_UDP              iDivisorNMEA    $MXPGN,00FF00,280B,0002000005049913*19
 
3.25059         MSG_UDP              iDivisorNMEA    $MXPGN,00FF3C,3808,8000F8FE00009F41*1C
 
3.26081         MSG_UDP              iDivisorNMEA    $GPGGA,131535.000,2254.75172,S,04309.53737,W,1,12,0.90,7.47,M,-5.60,M,,*7F
 
3.27106         MSG_UDP              iDivisorNMEA    $GPGLL,2254.75172,S,04309.53737,W,131535.000,A,A*5A
 
3.28160         MSG_UDP              iDivisorNMEA    $GPRMC,131535.000,A,2254.75172,S,04309.53737,W,0.09,0.00,070323,23.30,W,A*1A
 
3.29189         MSG_UDP              iDivisorNMEA    $GPVTG,0.00,T,,M,0.09,N,0.16,K,A*33
 
3.52642         MSG_UDP              iDivisorNMEA    $AGRSA,-0.84,A,,V*6E
 
3.52653         ANGULO_LEME          iDivisorNMEA    -0.84000     
3.52659         MSG_UDP              iDivisorNMEA    $SDDPT,1.77,0.00,*7A
 
3.53696         MSG_UDP              iDivisorNMEA    $MXPGN,01F803,281C,FFFDA8000000C8D0*10
 
3.54753         MSG_UDP              iDivisorNMEA    $MXPGN,01F804,281C,0000004FFFC1C8D0*6C
 
3.57661         MSG_UDP              iDivisorNMEA    $HCHDG,285.0,0.0,E,23.3,W*6D
 
3.57745         MSG_UDP              iDivisorNMEA    $GPHDT,261.66,T*00
 
3.58769         MSG_UDP              iDivisorNMEA    $TIROT,-0.19,A*2E
 
3.59796         MSG_UDP              iDivisorNMEA    $MXPGN,00FF00,280B,0002000005049913*19
 
3.60859         MSG_UDP              iDivisorNMEA    $MXPGN,01FF2C,7808,FFFFFFFF9F411780*63
 
3.61891         MSG_UDP              iDivisorNMEA    $MXPGN,01FF2C,7808,FFFF7FFFFFFF7F81*1E
 
3.62922         MSG_UDP              iDivisorNMEA    $MXPGN,01FF2C,7808,FF7FFFFFFFFFFF82*6C
 
3.63998         MSG_UDP              iDivisorNMEA    $MXPGN,01FF2C,7808,FFFFFFFF7FFFFF83*6D
 
3.65029         MSG_UDP              iDivisorNMEA    $AGRSA,-0.84,A,,V*6E
 
3.65034         ANGULO_LEME          iDivisorNMEA    -0.84000     
3.66054         MSG_UDP              iDivisorNMEA    $MXPGN,00FF3D,6808,7FFFFF0DFFFF9F41*6E
 
3.67099         MSG_UDP              iDivisorNMEA    $MXPGN,01F803,281C,FFFDA8000000C8D0*10
 
3.68123         MSG_UDP              iDivisorNMEA    $MXPGN,01F804,281C,0000004FFFC1C8D0*6C
 
3.69154         MSG_UDP              iDivisorNMEA    $HCHDG,285.0,0.0,E,23.3,W*6D
 
3.70186         MSG_UDP              iDivisorNMEA    $GPHDT,261.66,T*00
 
3.71210         MSG_UDP              iDivisorNMEA    $TIROT,-0.19,A*2E
 
3.72572         MSG_UDP              iDivisorNMEA    $GPGSA,A,3,08,10,16,18,21,23,24,26,27,,,,1.88,1.60,1.60*01
 
3.73304         MSG_UDP              iDivisorNMEA    $GPGSV,3,1,09,08,33,228,43,10,44,163,43,16,15,306,41,18,23,080,44*74
 
3.74332         MSG_UDP              iDivisorNMEA    $GPGSV,3,2,09,21,03,228,00,23,20,133,00,24,01,123,00,26,05,341,41*7E
 
3.75361         MSG_UDP              iDivisorNMEA    $GPGSV,3,3,09,27,63,259,50*4B
 
3.76386         MSG_UDP              iDivisorNMEA    $GPGGA,131536.000,2254.75309,S,04309.53839,W,1,09,1.60,0.85,M,-5.00,M,,*78
 
3.77418         MSG_UDP              iDivisorNMEA    $GPGLL,2254.75309,S,04309.53839,W,131536.000,A,A*56
 
3.78443         MSG_UDP              iDivisorNMEA    $GPRMC,131536.000,A,2254.75309,S,04309.53839,W,0.01,117.33,070323,23.39,W,A*10
 
3.79473         MSG_UDP              iDivisorNMEA    $GPVTG,117.33,T,,M,0.01,N,0.01,K,A*3A
 
3.80502         MSG_UDP              iDivisorNMEA    $AGRSA,-0.90,A,,V*6B
 
3.80512         ANGULO_LEME          iDivisorNMEA    -0.90000     
3.81527         MSG_UDP              iDivisorNMEA    $MXPGN,01FA06,681C,8300A800C8D10F80*1E
 
3.82557         MSG_UDP              iDivisorNMEA    $MXPGN,01FA06,681C,008400A7EDDD0081*6E
 
3.83586         MSG_UDP              iDivisorNMEA    $MXPGN,01FA06,681C,FFFFFFFFFF014282*11
 
3.84610         MSG_UDP              iDivisorNMEA    $MXPGN,01F803,281C,00000000000000D1*11
 
3.85636         MSG_UDP              iDivisorNMEA    $MXPGN,01F804,281C,0000009964C100D1*66
 
3.86662         MSG_UDP              iDivisorNMEA    $MXPGN,01FF06,380B,010001FF99130F20*68
 
3.87678         MSG_UDP              iDivisorNMEA    $MXPGN,01FF06,380B,00007702FC010121*1A
 
3.88690         MSG_UDP              iDivisorNMEA    $MXPGN,01FF06,380B,FFFFFFFFFFA63322*69
 
3.89705         MSG_UDP              iDivisorNMEA    $HCHDG,285.0,0.0,E,23.3,W*6D
 
3.90724         MSG_UDP              iDivisorNMEA    $GPHDT,261.66,T*00
 
3.91743         MSG_UDP              iDivisorNMEA    $TIROT,-0.19,A*2E
 
3.92754         MSG_UDP              iDivisorNMEA    $AGRSA,-0.90,A,,V*6B
 
3.92757         ANGULO_LEME          iDivisorNMEA    -0.90000     
3.93769         MSG_UDP              iDivisorNMEA    $MXPGN,00FF19,7808,0000000202009F41*15
 
3.94787         MSG_UDP              iDivisorNMEA    $MXPGN,00FF00,280B,0002000005049913*19
 
3.95805         MSG_UDP              iDivisorNMEA    $MXPGN,01F803,281C,00000000000014D2*17
 
3.96823         MSG_UDP              iDivisorNMEA    $MXPGN,01F804,281C,0000009964C114D2*60
 
3.97841         MSG_UDP              iDivisorNMEA    $MXPGN,00FF19,7808,0080000A0A009F41*1D
 
3.98860         MSG_UDP              iDivisorNMEA    $HCHDG,285.0,0.0,E,23.3,W*6D
 
3.99871         MSG_UDP              iDivisorNMEA    $GPHDT,261.66,T*00
 
4.00893         MSG_UDP              iDivisorNMEA    $TIROT,-0.19,A*2E
 
4.01911         MSG_UDP              iDivisorNMEA    $MXPGN,00FF8C,6808,FFF10695C9409F41*64
 
4.02928         MSG_UDP              iDivisorNMEA    $MXPGN,00FF28,3808,FF08FFFDFC059F41*19
 
4.03938         MSG_UDP              iDivisorNMEA    $AGRSA,-0.90,A,,V*6B
 
4.03941         ANGULO_LEME          iDivisorNMEA    -0.90000     
4.04953         MSG_UDP              iDivisorNMEA    $MXPGN,01F803,281C,0000000000003CD4*64
 
4.05966         MSG_UDP              iDivisorNMEA    $MXPGN,01F804,281C,000000F0EAC13CD4*63
 
4.06981         MSG_UDP              iDivisorNMEA    $HCHDG,285.0,0.0,E,23.3,W*6D
 
4.07995         MSG_UDP              iDivisorNMEA    $GPHDT,261.66,T*00
 
4.09009         MSG_UDP              iDivisorNMEA    $TIROT,-0.09,A*2F
 
4.10027         MSG_UDP              iDivisorNMEA    $AGRSA,-0.90,A,,V*6B
 
4.10029         ANGULO_LEME          iDivisorNMEA    -0.90000     
4.11044         MSG_UDP              iDivisorNMEA    $MXPGN,01F803,281C,0000000000003CD4*64
 
4.12065         MSG_UDP              iDivisorNMEA    $MXPGN,01F804,281C,000000F0EAC13CD4*63
 
4.13081         MSG_UDP              iDivisorNMEA    $HCHDG,285.0,0.0,E,23.3,W*6D
 
4.14109         MSG_UDP              iDivisorNMEA    $GPHDT,261.66,T*00
 
4.15127         MSG_UDP              iDivisorNMEA    $TIROT,-0.09,A*2F
 
4.16141         MSG_UDP              iDivisorNMEA    $MXPGN,00FF3C,3808,8000F8FE00009F41*1C
 
4.17155         MSG_UDP              iDivisorNMEA    $GPGGA,131536.000,2254.75175,S,04309.53733,W,1,12,0.90,7.34,M,-5.60,M,,*7B
 
4.42710         MSG_UDP              iDivisorNMEA    $AGRSA,-0.90,A,,V*6B
 
4.42714         ANGULO_LEME          iDivisorNMEA    -0.90000     
4.44113         MSG_UDP              iDivisorNMEA    $MXPGN,01F803,281C,0000000000008CD8*63
 
4.44221         MSG_UDP              iDivisorNMEA    $MXPGN,01F804,281C,000000F4DEC18CD8*65
 
4.46228         MSG_UDP              iDivisorNMEA    $MXPGN,01FF1A,680B,FF022B849F410500*6C
 
4.47722         MSG_UDP              iDivisorNMEA    $HCHDG,284.9,0.0,E,23.3,W*65
 
4.47823         MSG_UDP              iDivisorNMEA    $GPHDT,261.63,T*05
 
4.48763         MSG_UDP              iDivisorNMEA    $TIROT,-0.29,A*2D
 
4.49795         MSG_UDP              iDivisorNMEA    $MXPGN,01FF1A,782B,FF010B049F4105C0*15
 
4.52727         MSG_UDP              iDivisorNMEA    $AGRSA,-0.90,A,,V*6B
 
4.52748         ANGULO_LEME          iDivisorNMEA    -0.90000     
4.52757         MSG_UDP              iDivisorNMEA    $SDDPT,1.76,0.00,*7B
 
4.53781         MSG_UDP              iDivisorNMEA    $MXPGN,01F803,281C,0000000000008CD8*63
 
4.54812         MSG_UDP              iDivisorNMEA    $MXPGN,01F804,281C,000000F4DEC18CD8*65
 
4.55843         MSG_UDP              iDivisorNMEA    $MXPGN,01FF1A,680B,FF022B849F410500*6C
 
4.56872         MSG_UDP              iDivisorNMEA    $MXPGN,01FF1A,782B,FF010B049F4105E0*13
 
4.57898         MSG_UDP              iDivisorNMEA    $HCHDG,284.9,0.0,E,23.3,W*65
 
4.58927         MSG_UDP              iDivisorNMEA    $GPHDT,261.63,T*05
 
4.59957         MSG_UDP              iDivisorNMEA    $TIROT,-0.19,A*2E
 
4.60988         MSG_UDP              iDivisorNMEA    $MXPGN,01FF1A,782B,FFFAFF859F410500*1B
 
4.62017         MSG_UDP              iDivisorNMEA    $MXPGN,00FF00,280B,0002000005049913*19
 
4.63058         MSG_UDP              iDivisorNMEA    $MXPGN,01FF2C,7808,FFFFFFFF9F4117A0*1A
 
4.64085         MSG_UDP              iDivisorNMEA    $MXPGN,01FF2C,7808,FFFF7FFFFFFF7FA1*67
 
4.65186         MSG_UDP              iDivisorNMEA    $MXPGN,01FF2C,7808,FF7FFFFFFFFFFFA2*15
 
4.66214         MSG_UDP              iDivisorNMEA    $MXPGN,01FF2C,7808,FFFFFFFF7FFFFFA3*14
 
4.67237         MSG_UDP              iDivisorNMEA    $MXPGN,01FF06,380B,020001FF99130F40*6D
 
4.68255         MSG_UDP              iDivisorNMEA    $MXPGN,01FF06,380B,0002570200370041*1D
 
4.69273         MSG_UDP              iDivisorNMEA    $MXPGN,01FF06,380B,FFFFFFFFFF912742*15
 
4.70292         MSG_UDP              iDivisorNMEA    $AGRSA,-0.90,A,,V*6B
 
4.70298         ANGULO_LEME          iDivisorNMEA    -0.90000     
4.71314         MSG_UDP              iDivisorNMEA    $MXPGN,00FF3D,6808,7FFFFF0DFFFF9F41*6E
 
4.72335         MSG_UDP              iDivisorNMEA    $MXPGN,01FF1A,680B,FF022B849F410500*6C
 
4.73353         MSG_UDP              iDivisorNMEA    $MXPGN,01F803,281C,000000000000B4DA*17
 
4.74369         MSG_UDP              iDivisorNMEA    $MXPGN,01F804,281C,000063F4DEC1B4DA*14
 
4.75388         MSG_UDP              iDivisorNMEA    $MXPGN,01FF1A,782B,FF010B049F410500*66
 
4.76407         MSG_UDP              iDivisorNMEA    $HCHDG,284.9,0.0,E,23.3,W*65
 
4.77426         MSG_UDP              iDivisorNMEA    $GPHDT,261.62,T*04
 
4.78443         MSG_UDP              iDivisorNMEA    $TIROT,-0.09,A*2F
 
4.79459         MSG_UDP              iDivisorNMEA    !AIVDM,1,1,,A,1:U8vhS1h0LrNM=jsGs8u1kp0PRd,0*78
 
4.80476         MSG_UDP              iDivisorNMEA    $GPGSA,A,3,08,10,16,18,21,23,24,26,27,,,,1.88,1.60,1.60*01
 
4.81492         MSG_UDP              iDivisorNMEA    $GPGSV,3,1,09,08,33,228,43,10,44,163,42,16,15,306,41,18,23,080,44*75
 
4.82512         MSG_UDP              iDivisorNMEA    $GPGSV,3,2,09,21,03,228,00,23,20,133,00,24,01,123,00,26,05,341,41*7E
 
4.83524         MSG_UDP              iDivisorNMEA    $GPGSV,3,3,09,27,63,259,50*4B
 
4.84547         MSG_UDP              iDivisorNMEA    $GPGGA,131537.000,2254.75309,S,04309.53839,W,1,09,1.60,0.98,M,-5.00,M,,*75
 
4.85562         MSG_UDP              iDivisorNMEA    $GPGLL,2254.75309,S,04309.53839,W,131537.000,A,A*57
 
4.86581         MSG_UDP              iDivisorNMEA    $GPRMC,131537.000,A,2254.75309,S,04309.53839,W,0.00,359.16,070323,23.39,W,A*1F
 
4.87600         MSG_UDP              iDivisorNMEA    $GPVTG,359.16,T,,M,0.00,N,0.00,K,A*35
 
4.88620         MSG_UDP              iDivisorNMEA    $AGRSA,-0.84,A,,V*6E
 
4.88622         ANGULO_LEME          iDivisorNMEA    -0.84000     
4.89637         MSG_UDP              iDivisorNMEA    $MXPGN,01FA06,681C,8300A800C8DB0FA0*14
 
4.90658         MSG_UDP              iDivisorNMEA    $MXPGN,01FA06,681C,008400A7EDDD00A1*17
 
4.91679         MSG_UDP              iDivisorNMEA    $MXPGN,01FA06,681C,FFFFFFFFFF0142A2*68
 
4.92695         MSG_UDP              iDivisorNMEA    $MXPGN,01F803,281C,00000000000000DB*62
 
4.93713         MSG_UDP              iDivisorNMEA    $MXPGN,01F804,281C,0000008C4DC100DB*1C
 
4.94733         MSG_UDP              iDivisorNMEA    $MXPGN,01FF1A,680B,FF022B849F410500*6C
 
4.95751         MSG_UDP              iDivisorNMEA    $MXPGN,01FF1A,782B,FF010B049F410520*64
 
4.96760         MSG_UDP              iDivisorNMEA    $HCHDG,284.9,0.0,E,23.3,W*65
 
4.97776         MSG_UDP              iDivisorNMEA    $GPHDT,261.62,T*04
 
4.98794         MSG_UDP              iDivisorNMEA    $TIROT,-0.09,A*2F
 
4.99813         MSG_UDP              iDivisorNMEA    $AGRSA,-0.84,A,,V*6E
 
4.99816         ANGULO_LEME          iDivisorNMEA    -0.84000     
5.00832         MSG_UDP              iDivisorNMEA    $MXPGN,00FF19,7808,0000000202009F41*15
 
5.01849         MSG_UDP              iDivisorNMEA    $MXPGN,01F803,281C,00000000000014DC*66
 
5.02870         MSG_UDP              iDivisorNMEA    $MXPGN,01F804,281C,0000008C4DC114DC*18
 
5.03890         MSG_UDP              iDivisorNMEA    $MXPGN,00FF00,280B,0002000005049913*19
 
5.04907         MSG_UDP              iDivisorNMEA    $MXPGN,00FF19,7808,0080000A0A009F41*1D
 
5.05925         MSG_UDP              iDivisorNMEA    $MXPGN,01FF06,380B,080001FF99130F60*65
 
5.06944         MSG_UDP              iDivisorNMEA    $MXPGN,01FF06,380B,000B7A0202850561*15
 
5.07964         MSG_UDP              iDivisorNMEA    $MXPGN,01FF06,380B,FFFFFFFFFF467862*17
 
5.32777         MSG_UDP              iDivisorNMEA    $AGRSA,-0.84,A,,V*6E
 
5.32782         ANGULO_LEME          iDivisorNMEA    -0.84000     
5.32867         MSG_UDP              iDivisorNMEA    $GPZDA,131537.020,07,03,2023,,*51
 
5.33802         MSG_UDP              iDivisorNMEA    $MXPGN,01F803,281C,0000000000008CE2*68
 
5.34818         MSG_UDP              iDivisorNMEA    $MXPGN,00FF00,280B,0002000005049913*19
 
5.35833         MSG_UDP              iDivisorNMEA    $MXPGN,01F804,281C,0000006F03C18CE2*6E
 
5.37787         MSG_UDP              iDivisorNMEA    $HCHDG,284.9,0.0,E,23.3,W*65
 
5.37911         MSG_UDP              iDivisorNMEA    $GPHDT,261.61,T*07
 
5.38931         MSG_UDP              iDivisorNMEA    $TIROT,-0.19,A*2E
 
5.39944         MSG_UDP              iDivisorNMEA    $MXPGN,01FF06,380B,050001FF99130FA0*1F
 
5.40956         MSG_UDP              iDivisorNMEA    $MXPGN,01FF06,380B,00015202003600A1*6F
 
5.41970         MSG_UDP              iDivisorNMEA    $MXPGN,01FF06,380B,FFFFFFFFFF41C4A2*1F
 
5.42986         MSG_UDP              iDivisorNMEA    $AGRSA,-0.84,A,,V*6E
 
5.42990         ANGULO_LEME          iDivisorNMEA    -0.84000     
5.44002         MSG_UDP              iDivisorNMEA    $MXPGN,01F803,281C,0000000000008CE2*68
 
5.45016         MSG_UDP              iDivisorNMEA    $MXPGN,01F804,281C,000000053AC18CE2*6A
 
5.47787         MSG_UDP              iDivisorNMEA    $HCHDG,284.9,0.0,E,23.3,W*65
 
5.47891         MSG_UDP              iDivisorNMEA    $GPHDT,261.62,T*04
 
5.48813         MSG_UDP              iDivisorNMEA    $TIROT,0.00,A*0B
 
5.52804         MSG_UDP              iDivisorNMEA    $AGRSA,-0.90,A,,V*6B
 
5.52808         ANGULO_LEME          iDivisorNMEA    -0.90000     
5.52811         MSG_UDP              iDivisorNMEA    $SDDPT,1.77,0.00,*7A
 
5.53830         MSG_UDP              iDivisorNMEA    $MXPGN,01F803,281C,000000000000B4E4*63
 
5.54844         MSG_UDP              iDivisorNMEA    $MXPGN,01F804,281C,FFFF9D053AC1B4E4*1C
 
5.57808         MSG_UDP              iDivisorNMEA    $HCHDG,284.9,0.0,E,23.3,W*65
 
5.57891         MSG_UDP              iDivisorNMEA    $GPHDT,261.63,T*05
 
5.58907         MSG_UDP              iDivisorNMEA    $TIROT,0.00,A*0B
 
5.59923         MSG_UDP              iDivisorNMEA    $MXPGN,00FF00,280B,0002000005049913*19
 
5.61004         MSG_UDP              iDivisorNMEA    $MXPGN,01FF2C,7808,FFFFFFFF9F4117C0*18
 
5.62024         MSG_UDP              iDivisorNMEA    $MXPGN,01FF2C,7808,FFFF7FFFFFFF7FC1*65
 
5.63043         MSG_UDP              iDivisorNMEA    $MXPGN,01FF2C,7808,FF7FFFFFFFFFFFC2*17
 
5.64058         MSG_UDP              iDivisorNMEA    $MXPGN,01FF2C,7808,FFFFFFFF7FFFFFC3*16
 
5.65073         MSG_UDP              iDivisorNMEA    $AGRSA,-0.90,A,,V*6B
 
5.65074         ANGULO_LEME          iDivisorNMEA    -0.90000     
5.66088         MSG_UDP              iDivisorNMEA    $MXPGN,00FF3D,6808,7FFFFF0DFFFF9F41*6E
 
5.67104         MSG_UDP              iDivisorNMEA    $MXPGN,01F803,281C,000000000000B4E4*63
 
5.68117         MSG_UDP              iDivisorNMEA    $MXPGN,01F804,281C,FFFF9D053AC1B4E4*1C
 
5.69131         MSG_UDP              iDivisorNMEA    $MXPGN,01FF06,380B,040001FF99130FC0*1C
 
5.70148         MSG_UDP              iDivisorNMEA    $MXPGN,01FF06,380B,0003F102005600C1*19
 
5.71163         MSG_UDP              iDivisorNMEA    $MXPGN,01FF06,380B,FFFFFFFFFF245AC2*1D
 
5.72176         MSG_UDP              iDivisorNMEA    $MXPGN,00FF3D,6808,0000FF0BFFFF9F41*19
 
5.73190         MSG_UDP              iDivisorNMEA    $HCHDG,284.9,0.0,E,23.3,W*65
 
5.74205         MSG_UDP              iDivisorNMEA    $GPHDT,261.64,T*02
 
5.75217         MSG_UDP              iDivisorNMEA    $TIROT,0.29,A*00
 
5.76234         MSG_UDP              iDivisorNMEA    $MXPGN,00FF3D,6808,FFFFFF0CFFFF9F41*18
 
5.77251         MSG_UDP              iDivisorNMEA    $MXPGN,00FF3D,6808,FFFFFF03FFFF9F41*68
 
5.78268         MSG_UDP              iDivisorNMEA    $GPGSA,A,3,08,10,16,18,21,23,24,26,27,,,,1.88,1.60,1.60*01
 
5.79286         MSG_UDP              iDivisorNMEA    $GPGSV,3,1,09,08,33,228,43,10,44,163,43,16,15,306,41,18,23,080,44*74
 
5.80303         MSG_UDP              iDivisorNMEA    $GPGSV,3,2,09,21,03,228,00,23,20,133,00,24,01,123,00,26,05,341,41*7E
 
5.81322         MSG_UDP              iDivisorNMEA    $GPGSV,3,3,09,27,63,259,50*4B
 
5.82337         MSG_UDP              iDivisorNMEA    $GPGGA,131538.000,2254.75309,S,04309.53839,W,1,09,1.60,0.85,M,-5.00,M,,*76
 
5.83355         MSG_UDP              iDivisorNMEA    $GPGLL,2254.75309,S,04309.53839,W,131538.000,A,A*58
 
5.84392         MSG_UDP              iDivisorNMEA    $GPRMC,131538.000,A,2254.75309,S,04309.53839,W,0.00,7.66,070323,23.39,W,A*1F
 
5.85410         MSG_UDP              iDivisorNMEA    $GPVTG,7.66,T,,M,0.00,N,0.00,K,A*3A
 
5.86426         MSG_UDP              iDivisorNMEA    $AGRSA,-0.90,A,,V*6B
 
5.86430         ANGULO_LEME          iDivisorNMEA    -0.90000     
5.87444         MSG_UDP              iDivisorNMEA    $MXPGN,01FA06,681C,8300A800C8E50FC0*60
 
5.88460         MSG_UDP              iDivisorNMEA    $MXPGN,01FA06,681C,008400A7EDE300C1*63
 
5.89477         MSG_UDP              iDivisorNMEA    $MXPGN,01FA06,681C,FFFFFFFFFF0142C2*6A
 
5.90495         MSG_UDP              iDivisorNMEA    $MXPGN,00FF3D,6808,FFFFFF02FFFF9F41*69
 
5.91513         MSG_UDP              iDivisorNMEA    $MXPGN,01F803,281C,00000000000000E5*14
 
5.92531         MSG_UDP              iDivisorNMEA    $MXPGN,01F804,281C,0000006F22C100E5*11
 
5.93555         MSG_UDP              iDivisorNMEA    $MXPGN,01FF1A,680B,FF022B849F410520*6E
 
5.94572         MSG_UDP              iDivisorNMEA    $MXPGN,01FF1A,782B,FF010B049F410540*62
 
5.95586         MSG_UDP              iDivisorNMEA    $HCHDG,284.9,0.0,E,23.3,W*65
 
5.96606         MSG_UDP              iDivisorNMEA    $GPHDT,261.64,T*02
 
5.97624         MSG_UDP              iDivisorNMEA    $TIROT,0.29,A*00
 
5.98642         MSG_UDP              iDivisorNMEA    $AGRSA,-0.90,A,,V*6B
 
5.98645         ANGULO_LEME          iDivisorNMEA    -0.90000     
5.99660         MSG_UDP              iDivisorNMEA    $MXPGN,00FF19,7808,0000000202009F41*15
 
6.21132         MSG_UDP              iDivisorNMEA    $MXPGN,00FF16,7808,FF0000002B0A9F41*1B
 
6.22975         MSG_UDP              iDivisorNMEA    $GPGGA,,2254.75439,S,04309.53769,W,1,,,,M,,M,,*5E
 
6.23059         MSG_UDP              iDivisorNMEA    $GPGLL,2254.75439,S,04309.53769,W,,A,A*45
 
6.24081         MSG_UDP              iDivisorNMEA    $GPVTG,281.40,T,,M,0.00,N,0.00,K,A*32
 
6.25100         MSG_UDP              iDivisorNMEA    $AGRSA,-0.90,A,,V*6B
 
6.25102         ANGULO_LEME          iDivisorNMEA    -0.90000     
6.26117         MSG_UDP              iDivisorNMEA    $MXPGN,01F803,281C,00000000000064EA*62
 
6.27137         MSG_UDP              iDivisorNMEA    $MXPGN,01F804,281C,00006322E1C164EA*66
 
6.28148         MSG_UDP              iDivisorNMEA    $HCHDG,284.9,0.0,E,23.3,W*65
 
6.29159         MSG_UDP              iDivisorNMEA    $GPHDT,261.64,T*02
 
6.30175         MSG_UDP              iDivisorNMEA    $TIROT,0.29,A*00
 
6.32874         MSG_UDP              iDivisorNMEA    $AGRSA,-0.90,A,,V*6B
 
6.32877         ANGULO_LEME          iDivisorNMEA    -0.90000     
6.32952         MSG_UDP              iDivisorNMEA    $GPZDA,131538.020,07,03,2023,,*5E
 
6.33970         MSG_UDP              iDivisorNMEA    $MXPGN,01F803,281C,0000000000008CEC*19
 
6.35035         MSG_UDP              iDivisorNMEA    $MXPGN,01F804,281C,00000022E1C18CEC*18
 
6.36059         MSG_UDP              iDivisorNMEA    $MXPGN,00FF00,280B,0002000005049913*19
 
6.37879         MSG_UDP              iDivisorNMEA    $HCHDG,284.9,0.0,E,23.3,W*65
 
6.38103         MSG_UDP              iDivisorNMEA    $GPHDT,261.63,T*05
 
6.39129         MSG_UDP              iDivisorNMEA    $TIROT,0.29,A*00
 
6.42880         MSG_UDP              iDivisorNMEA    $AGRSA,-0.90,A,,V*6B
 
6.42889         ANGULO_LEME          iDivisorNMEA    -0.90000     
6.43787         MSG_UDP              iDivisorNMEA    $MXPGN,01F803,281C,0000000000008CEC*19
 
6.43911         MSG_UDP              iDivisorNMEA    $MXPGN,01F804,281C,0000008534C18CEC*66
 
6.47881         MSG_UDP              iDivisorNMEA    $HCHDG,284.9,0.0,E,23.3,W*65
 
6.47967         MSG_UDP              iDivisorNMEA    $GPHDT,261.63,T*05
 
6.49001         MSG_UDP              iDivisorNMEA    $TIROT,0.49,A*06
 
6.52887         MSG_UDP              iDivisorNMEA    $AGRSA,-0.90,A,,V*6B
 
6.52900         ANGULO_LEME          iDivisorNMEA    -0.90000     
6.52908         MSG_UDP              iDivisorNMEA    $SDDPT,1.78,0.00,*75
 
6.53941         MSG_UDP              iDivisorNMEA    $MXPGN,01F803,281C,000000000000B4EE*12
 
6.54973         MSG_UDP              iDivisorNMEA    $MXPGN,01F804,281C,0000008534C1B4EE*6D
 
6.57918         MSG_UDP              iDivisorNMEA    $HCHDG,284.9,0.0,E,23.3,W*65
 
6.57976         MSG_UDP              iDivisorNMEA    $GPHDT,261.62,T*04
 
6.59011         MSG_UDP              iDivisorNMEA    $TIROT,0.49,A*06
 
6.60030         MSG_UDP              iDivisorNMEA    $MXPGN,00FF00,280B,0002000005049913*19
 
6.61083         MSG_UDP              iDivisorNMEA    $MXPGN,01FF2C,7808,FFFFFFFF9F4117E0*1E
 
6.62111         MSG_UDP              iDivisorNMEA    $MXPGN,01FF2C,7808,FFFF7FFFFFFF7FE1*63
 
6.63141         MSG_UDP              iDivisorNMEA    $MXPGN,01FF2C,7808,FF7FFFFFFFFFFFE2*11
 
6.64171         MSG_UDP              iDivisorNMEA    $MXPGN,01FF2C,7808,FFFFFFFF7FFFFFE3*10
 
6.65196         MSG_UDP              iDivisorNMEA    $AGRSA,-0.90,A,,V*6B
 
6.65202         ANGULO_LEME          iDivisorNMEA    -0.90000     
6.66223         MSG_UDP              iDivisorNMEA    $MXPGN,00FF3D,6808,7FFFFF0DFFFF9F41*6E
 
6.67249         MSG_UDP              iDivisorNMEA    $MXPGN,01F803,281C,000000000000B4EE*12
 
6.68274         MSG_UDP              iDivisorNMEA    $MXPGN,01F804,281C,0000008534C1B4EE*6D
 
6.69302         MSG_UDP              iDivisorNMEA    !AIVDM,1,1,,A,1:U8?kPP1@LrJV1jqLCacOwp0d28,0*76
 
6.70326         MSG_UDP              iDivisorNMEA    $HCHDG,284.9,0.0,E,23.3,W*65
 
6.71351         MSG_UDP              iDivisorNMEA    $GPHDT,261.62,T*04
 
6.72370         MSG_UDP              iDivisorNMEA    $TIROT,0.49,A*06
 
6.73403         MSG_UDP              iDivisorNMEA    $GPGSA,A,3,08,10,16,18,21,23,24,26,27,,,,1.88,1.60,1.60*01
 
6.74428         MSG_UDP              iDivisorNMEA    $GPGSV,3,1,09,08,33,228,43,10,44,163,42,16,15,306,41,18,23,080,44*75
 
6.75459         MSG_UDP              iDivisorNMEA    $GPGSV,3,2,09,21,03,228,00,23,20,133,00,24,01,123,00,26,05,341,41*7E
 
6.76492         MSG_UDP              iDivisorNMEA    $GPGSV,3,3,09,27,63,259,50*4B
 
6.77522         MSG_UDP              iDivisorNMEA    $GPGGA,131539.000,2254.75309,S,04309.53839,W,1,09,1.60,0.85,M,-5.00,M,,*77
 
6.78550         MSG_UDP              iDivisorNMEA    $GPGLL,2254.75309,S,04309.53839,W,131539.000,A,A*59
 
6.79571         MSG_UDP              iDivisorNMEA    $GPRMC,131539.000,A,2254.75309,S,04309.53839,W,0.01,195.37,070323,23.39,W,A*11
 
6.80598         MSG_UDP              iDivisorNMEA    $GPVTG,195.37,T,,M,0.01,N,0.01,K,A*34
 
6.81627         MSG_UDP              iDivisorNMEA    $AGRSA,-0.90,A,,V*6B
 
6.81633         ANGULO_LEME          iDivisorNMEA    -0.90000     
6.82677         MSG_UDP              iDivisorNMEA    $MXPGN,01FA06,681C,8300A800C8EF0FE0*15
 
6.83711         MSG_UDP              iDivisorNMEA    $MXPGN,01FA06,681C,008400A7EDE300E1*65
 
6.84756         MSG_UDP              iDivisorNMEA    $MXPGN,01FA06,681C,FFFFFFFFFF0142E2*6C
 
6.85836         MSG_UDP              iDivisorNMEA    $MXPGN,01F803,281C,00000000000000EF*67
 
6.86857         MSG_UDP              iDivisorNMEA    $MXPGN,01F804,281C,0000009493C100EF*15
 
6.87877         MSG_UDP              iDivisorNMEA    $MXPGN,01FF1A,680B,FF022B849F410540*68
 
6.88898         MSG_UDP              iDivisorNMEA    $MXPGN,01FF1A,782B,FF010B049F410560*60
 
6.89920         MSG_UDP              iDivisorNMEA    $HCHDG,284.9,0.0,E,23.3,W*65
 
6.90952         MSG_UDP              iDivisorNMEA    $GPHDT,261.62,T*04
 
6.91980         MSG_UDP              iDivisorNMEA    $TIROT,0.49,A*06
 
6.93011         MSG_UDP              iDivisorNMEA    $MXPGN,01FF22,2808,FF01FFFF9F410C20*69
 
7.11208         MSG_UDP              iDivisorNMEA    $MXPGN,00FF3C,3808,8000F8FE00009F41*1C
 
7.12935         MSG_UDP              iDivisorNMEA    $AGRSA,-0.90,A,,V*6B
 
7.12941         ANGULO_LEME          iDivisorNMEA    -0.90000     
7.13843         MSG_UDP              iDivisorNMEA    $MXPGN,01F803,281C,00000000000064F4*14
 
7.13964         MSG_UDP              iDivisorNMEA    $MXPGN,01F804,281C,000000ED02C164F4*62
 
7.18144         MSG_UDP              iDivisorNMEA    $GPGGA,131539.000,2254.75213,S,04309.53706,W,1,12,0.90,7.20,M,-5.60,M,,*74
 
7.18241         MSG_UDP              iDivisorNMEA    $GPGLL,2254.75213,S,04309.53706,W,131539.000,A,A*50
 
7.19273         MSG_UDP              iDivisorNMEA    $GPRMC,131539.000,A,2254.75213,S,04309.53706,W,0.29,46.19,070323,23.30,W,A*28
 
7.20310         MSG_UDP              iDivisorNMEA    $GPVTG,46.19,T,,M,0.29,N,0.53,K,A*0A
 
7.21339         MSG_UDP              iDivisorNMEA    $HCHDG,284.9,0.0,E,23.3,W*65
 
7.22391         MSG_UDP              iDivisorNMEA    $GPHDT,261.61,T*07
 
7.23425         MSG_UDP              iDivisorNMEA    $TIROT,0.49,A*06
 
7.24458         MSG_UDP              iDivisorNMEA    !AIVDM,1,1,,A,13a0JR0000LrT4AjrVMU?qM>0D2D,0*1B
 
7.25494         MSG_UDP              iDivisorNMEA    $GPGSA,A,3,08,10,16,18,26,27,28,31,32,66,65,86,1.60,0.90,1.40*0B
 
7.26532         MSG_UDP              iDivisorNMEA    $GPGSV,3,1,12,08,34,229,42,10,45,163,33,16,16,307,39,18,23,080,37*76
 
7.27570         MSG_UDP              iDivisorNMEA    $GPGSV,3,2,12,26,06,343,34,27,63,260,44,28,13,021,43,31,08,011,37*7C
 
7.28604         MSG_UDP              iDivisorNMEA    $GPGSV,3,3,12,32,76,046,48,66,07,320,45,65,58,291,34,86,38,061,43*75
 
7.29637         MSG_UDP              iDivisorNMEA    $MXPGN,01FF0D,780B,FF03000098900500*66
 
7.30661         MSG_UDP              iDivisorNMEA    $MXPGN,00FF16,7808,FF0000002B0A9F41*1B
 
7.31684         MSG_UDP              iDivisorNMEA    $GPGGA,,2254.75389,S,04309.53799,W,1,,,,M,,M,,*5D
 
7.32710         MSG_UDP              iDivisorNMEA    $GPGLL,2254.75389,S,04309.53799,W,,A,A*46
 
7.33737         MSG_UDP              iDivisorNMEA    $GPVTG,281.40,T,,M,0.40,N,0.74,K,A*35
 
7.34763         MSG_UDP              iDivisorNMEA    $AGRSA,-0.90,A,,V*6B
 
7.34772         ANGULO_LEME          iDivisorNMEA    -0.90000     
7.35839         MSG_UDP              iDivisorNMEA    $MXPGN,01F803,281C,00000000000064F4*14
 
7.36866         MSG_UDP              iDivisorNMEA    $MXPGN,01F804,281C,0000005E38C164F4*1A
 
7.37892         MSG_UDP              iDivisorNMEA    $HCHDG,284.9,0.0,E,23.3,W*65
 
7.38915         MSG_UDP              iDivisorNMEA    $GPHDT,261.61,T*07
 
7.39945         MSG_UDP              iDivisorNMEA    $TIROT,0.29,A*00
 
7.40973         MSG_UDP              iDivisorNMEA    $AGRSA,-0.90,A,,V*6B
 
7.40979         ANGULO_LEME          iDivisorNMEA    -0.90000     
7.41997         MSG_UDP              iDivisorNMEA    $GPZDA,131539.020,07,03,2023,,*5F
 
7.43020         MSG_UDP              iDivisorNMEA    $MXPGN,01F803,281C,0000000000008CF6*6F
 
7.44042         MSG_UDP              iDivisorNMEA    $MXPGN,00FF00,280B,0002000005049913*19
 
7.45071         MSG_UDP              iDivisorNMEA    $MXPGN,01F804,281C,0000005E38C18CF6*61
 
7.46097         MSG_UDP              iDivisorNMEA    !AIVDM,1,1,,A,B:U76@000O>WfvLf`wlJOwkWGP06,0*42
 
7.47120         MSG_UDP              iDivisorNMEA    $HCHDG,284.9,0.0,E,23.3,W*65
 
7.48141         MSG_UDP              iDivisorNMEA    $GPHDT,261.62,T*04
 
7.49171         MSG_UDP              iDivisorNMEA    $TIROT,0.29,A*00
 
7.50191         MSG_UDP              iDivisorNMEA    !AIVDM,1,1,,B,3:U8efU000LrW6Ajr4eRV23p0lsr,0*58
 
7.51212         MSG_UDP              iDivisorNMEA    $AGRSA,-0.90,A,,V*6B
 
7.51219         ANGULO_LEME          iDivisorNMEA    -0.90000     
7.52235         MSG_UDP              iDivisorNMEA    $MXPGN,01F803,281C,0000000000008CF6*6F
 
7.53256         MSG_UDP              iDivisorNMEA    $MXPGN,01F804,281C,0000003787C18CF6*11
 
7.54279         MSG_UDP              iDivisorNMEA    $HCHDG,284.9,0.0,E,23.3,W*65
 
7.55303         MSG_UDP              iDivisorNMEA    $GPHDT,261.62,T*04
 
7.56326         MSG_UDP              iDivisorNMEA    $TIROT,0.29,A*00
 
7.57340         MSG_UDP              iDivisorNMEA    $AGRSA,-0.90,A,,V*6B
 
7.57344         ANGULO_LEME          iDivisorNMEA    -0.90000     
7.58372         MSG_UDP              iDivisorNMEA    $SDDPT,1.79,0.00,*74
 
7.59388         MSG_UDP              iDivisorNMEA    $MXPGN,01F803,281C,0000000000008CF6*6F
 
7.60415         MSG_UDP              iDivisorNMEA    $MXPGN,01F804,281C,0000003787C18CF6*11
 
7.61438         MSG_UDP              iDivisorNMEA    $HCHDG,284.9,0.0,E,23.3,W*65
 
7.62469         MSG_UDP              iDivisorNMEA    $GPHDT,261.63,T*05
 
7.63504         MSG_UDP              iDivisorNMEA    $TIROT,0.29,A*00
 
7.64531         MSG_UDP              iDivisorNMEA    $MXPGN,01FF1A,782B,FFFAFF859F410580*13
 
7.65568         MSG_UDP              iDivisorNMEA    $MXPGN,00FF00,280B,0002000005049913*19
 
7.66598         MSG_UDP              iDivisorNMEA    $MXPGN,01FF2C,7808,FFFFFFFF9F411700*6B
 
7.67619         MSG_UDP              iDivisorNMEA    $MXPGN,01FF2C,7808,FFFF7FFFFFFF7F01*16
 
7.68647         MSG_UDP              iDivisorNMEA    $MXPGN,01FF2C,7808,FF7FFFFFFFFFFF02*64
 
7.69667         MSG_UDP              iDivisorNMEA    $MXPGN,01FF2C,7808,FFFFFFFF7FFFFF03*65
 
7.70693         MSG_UDP              iDivisorNMEA    $AGRSA,-0.90,A,,V*6B
 
7.70698         ANGULO_LEME          iDivisorNMEA    -0.90000     
7.71718         MSG_UDP              iDivisorNMEA    $MXPGN,00FF3D,6808,7FFFFF0DFFFF9F41*6E
 
7.72743         MSG_UDP              iDivisorNMEA    $MXPGN,01F803,281C,000258000000B4F8*63
 
7.73766         MSG_UDP              iDivisorNMEA    $MXPGN,01F804,281C,0000003787C1B4F8*12
 
7.74794         MSG_UDP              iDivisorNMEA    $HCHDG,284.9,0.0,E,23.3,W*65
 
7.75825         MSG_UDP              iDivisorNMEA    $GPHDT,261.64,T*02
 
7.76857         MSG_UDP              iDivisorNMEA    $TIROT,0.39,A*01
 
7.77891         MSG_UDP              iDivisorNMEA    $GPGSA,A,3,08,10,16,18,21,23,24,26,27,,,,1.88,1.60,1.60*01
 
8.02998         MSG_UDP              iDivisorNMEA    $AGRSA,-0.90,A,,V*6B
 
8.03016         ANGULO_LEME          iDivisorNMEA    -0.90000     
8.03888         MSG_UDP              iDivisorNMEA    $MXPGN,01F803,281C,0000000000003C01*15
 
8.04042         MSG_UDP              iDivisorNMEA    $MXPGN,01F804,281C,00000095CFC13C01*69
 
8.07984         MSG_UDP              iDivisorNMEA    $HCHDG,284.9,0.0,E,23.3,W*65
 
8.08078         MSG_UDP              iDivisorNMEA    $GPHDT,261.62,T*04
 
8.09091         MSG_UDP              iDivisorNMEA    $TIROT,0.19,A*03
 
8.10107         MSG_UDP              iDivisorNMEA    $MXPGN,00FF00,280B,0002000005049913*19
 
8.11272         MSG_UDP              iDivisorNMEA    $MXPGN,00FF3C,3808,8000F8FE00009F41*1C
 
8.12990         MSG_UDP              iDivisorNMEA    $AGRSA,-0.90,A,,V*6B
 
8.13001         ANGULO_LEME          iDivisorNMEA    -0.90000     
8.13895         MSG_UDP              iDivisorNMEA    $MXPGN,01F803,281C,0000000000006403*65
 
8.14321         MSG_UDP              iDivisorNMEA    $MXPGN,01F804,281C,FFFF9D95CFC16403*64
 
8.18196         MSG_UDP              iDivisorNMEA    $GPGGA,131540.000,2254.75220,S,04309.53701,W,1,12,0.90,7.14,M,-5.60,M,,*7A
 
8.18305         MSG_UDP              iDivisorNMEA    $GPGLL,2254.75220,S,04309.53701,W,131540.000,A,A*59
 
8.19216         MSG_UDP              iDivisorNMEA    $GPRMC,131540.000,A,2254.75220,S,04309.53701,W,0.19,0.00,070323,23.30,W,A*18
 
8.20227         MSG_UDP              iDivisorNMEA    $GPVTG,0.00,T,,M,0.19,N,0.35,K,A*33
 
8.21238         MSG_UDP              iDivisorNMEA    $HCHDG,284.9,0.0,E,23.3,W*65
 
8.22255         MSG_UDP              iDivisorNMEA    $GPHDT,261.60,T*06
 
8.23272         MSG_UDP              iDivisorNMEA    $TIROT,0.19,A*03
 
8.24283         MSG_UDP              iDivisorNMEA    $GPGSA,A,3,08,10,16,18,26,27,28,31,32,66,65,86,1.60,0.90,1.40*0B
 
8.25311         MSG_UDP              iDivisorNMEA    $GPGSV,3,1,12,08,34,229,42,10,45,163,33,16,16,307,39,18,23,080,37*76
 
8.26340         MSG_UDP              iDivisorNMEA    $GPGSV,3,2,12,26,06,343,34,27,63,260,44,28,13,021,43,31,08,011,37*7C
 
8.27357         MSG_UDP              iDivisorNMEA    $GPGSV,3,3,12,32,76,046,48,66,07,320,45,65,58,291,34,86,38,061,43*75
 
8.28371         MSG_UDP              iDivisorNMEA    $MXPGN,01FF0D,780B,FF03000098900520*64
 
8.29395         MSG_UDP              iDivisorNMEA    $MXPGN,00FF16,7808,FF0000002B0A9F41*1B
 
8.30413         MSG_UDP              iDivisorNMEA    $GPGGA,,2254.75389,S,04309.53799,W,1,,,,M,,M,,*5D
 
8.31433         MSG_UDP              iDivisorNMEA    $GPGLL,2254.75389,S,04309.53799,W,,A,A*46
 
8.32448         MSG_UDP              iDivisorNMEA    $GPVTG,281.40,T,,M,0.40,N,0.74,K,A*35
 
8.33464         MSG_UDP              iDivisorNMEA    $AGRSA,-0.90,A,,V*6B
 
8.33469         ANGULO_LEME          iDivisorNMEA    -0.90000     
8.34488         MSG_UDP              iDivisorNMEA    $MXPGN,01F803,281C,0000000000006403*65
 
8.35512         MSG_UDP              iDivisorNMEA    $MXPGN,01F804,281C,FFFF9D1FE6C16403*69
 
8.36542         MSG_UDP              iDivisorNMEA    $HCHDG,284.9,0.0,E,23.3,W*65
 
8.37563         MSG_UDP              iDivisorNMEA    $GPHDT,261.59,T*0C
 
8.38590         MSG_UDP              iDivisorNMEA    $TIROT,0.00,A*0B
 
8.39614         MSG_UDP              iDivisorNMEA    $AGRSA,-0.90,A,,V*6B
 
8.39622         ANGULO_LEME          iDivisorNMEA    -0.90000     
8.40640         MSG_UDP              iDivisorNMEA    $GPZDA,131540.020,07,03,2023,,*51
 
8.41659         MSG_UDP              iDivisorNMEA    $MXPGN,01F803,281C,0000000000008C05*1A
 
8.42674         MSG_UDP              iDivisorNMEA    $MXPGN,01F804,281C,FFFF9D1FE6C18C05*16
 
8.43689         MSG_UDP              iDivisorNMEA    $MXPGN,00FF00,280B,0002000005049913*19
 
8.44702         MSG_UDP              iDivisorNMEA    $HCHDG,284.9,0.0,E,23.3,W*65
 
8.45715         MSG_UDP              iDivisorNMEA    $GPHDT,261.59,T*0C
 
8.46728         MSG_UDP              iDivisorNMEA    $TIROT,0.00,A*0B
 
8.47743         MSG_UDP              iDivisorNMEA    $AGRSA,-0.90,A,,V*6B
 
8.47746         ANGULO_LEME          iDivisorNMEA    -0.90000     
8.48757         MSG_UDP              iDivisorNMEA    $MXPGN,01F803,281C,0000000000008C05*1A
 
8.49771         MSG_UDP              iDivisorNMEA    $MXPGN,01F804,281C,FFFF9D5087C18C05*18
 
8.50796         MSG_UDP              iDivisorNMEA    !AIVDM,1,1,,A,1:U8RjPP29trJd5jqF5Rvww@25`t,0*71
 
8.51809         MSG_UDP              iDivisorNMEA    $HCHDG,284.9,0.0,E,23.3,W*65
 
8.52832         MSG_UDP              iDivisorNMEA    $GPHDT,261.59,T*0C
 
8.53849         MSG_UDP              iDivisorNMEA    $TIROT,0.00,A*0B
 
8.54876         MSG_UDP              iDivisorNMEA    $AGRSA,-0.90,A,,V*6B
 
8.54879         ANGULO_LEME          iDivisorNMEA    -0.90000     
8.55893         MSG_UDP              iDivisorNMEA    $SDDPT,1.78,0.00,*75
 
8.56928         MSG_UDP              iDivisorNMEA    $MXPGN,01F803,281C,000000000000A006*13
 
8.57954         MSG_UDP              iDivisorNMEA    $MXPGN,01F804,281C,FFFF9D5087C1A006*11
 
8.58977         MSG_UDP              iDivisorNMEA    $HCHDG,284.9,0.0,E,23.3,W*65
 
8.59991         MSG_UDP              iDivisorNMEA    $GPHDT,261.58,T*0D
 
8.61012         MSG_UDP              iDivisorNMEA    $TIROT,-0.19,A*2E
 
8.62034         MSG_UDP              iDivisorNMEA    $MXPGN,00FF00,280B,0002000005049913*19
 
8.63064         MSG_UDP              iDivisorNMEA    $MXPGN,01FF2C,7808,FFFFFFFF9F411720*69
 
8.64098         MSG_UDP              iDivisorNMEA    $MXPGN,01FF2C,7808,FFFF7FFFFFFF7F21*14
 
8.65127         MSG_UDP              iDivisorNMEA    $MXPGN,01FF2C,7808,FF7FFFFFFFFFFF22*66
 
8.66157         MSG_UDP              iDivisorNMEA    $MXPGN,01FF2C,7808,FFFFFFFF7FFFFF23*67
 
8.67185         MSG_UDP              iDivisorNMEA    $AGRSA,-0.90,A,,V*6B
 
8.67192         ANGULO_LEME          iDivisorNMEA    -0.90000     
8.68204         MSG_UDP              iDivisorNMEA    $MXPGN,00FF3D,6808,7FFFFF0DFFFF9F41*6E
 
8.69219         MSG_UDP              iDivisorNMEA    $MXPGN,01F803,281C,000000000000A006*13
 
8.70234         MSG_UDP              iDivisorNMEA    $MXPGN,01F804,281C,FFFF9D5087C1A006*11
 
8.91266         MSG_UDP              iDivisorNMEA    $MXPGN,00FF8C,6808,FFF10695C9409F41*64
 
8.91358         MSG_UDP              iDivisorNMEA    $MXPGN,00FF28,3808,FF08FFFDFC059F41*19
 
8.93085         MSG_UDP              iDivisorNMEA    $AGRSA,-0.90,A,,V*6B
 
8.93093         ANGULO_LEME          iDivisorNMEA    -0.90000     
8.94003         MSG_UDP              iDivisorNMEA    $MXPGN,01F803,281C,0000000000001408*69
 
8.94429         MSG_UDP              iDivisorNMEA    $MXPGN,01F804,281C,000000B875C11408*64
 
8.98062         MSG_UDP              iDivisorNMEA    $HCHDG,284.9,0.0,E,23.3,W*65
 
8.98151         MSG_UDP              iDivisorNMEA    $GPHDT,261.57,T*02
 
8.99175         MSG_UDP              iDivisorNMEA    $TIROT,-0.29,A*2D
 
9.03060         MSG_UDP              iDivisorNMEA    $AGRSA,-0.90,A,,V*6B
 
9.03067         ANGULO_LEME          iDivisorNMEA    -0.90000     
9.03964         MSG_UDP              iDivisorNMEA    $MXPGN,01F803,281C,0000000000003C0A*65
 
9.04087         MSG_UDP              iDivisorNMEA    $MXPGN,01F804,281C,0000004575C13C0A*13
 
9.08076         MSG_UDP              iDivisorNMEA    $HCHDG,284.9,0.0,E,23.3,W*65
 
9.08173         MSG_UDP              iDivisorNMEA    $GPHDT,261.57,T*02
 
9.09196         MSG_UDP              iDivisorNMEA    $TIROT,-0.19,A*2E
 
9.10219         MSG_UDP              iDivisorNMEA    $MXPGN,00FF00,280B,0002000005049913*19
 
9.11248         MSG_UDP              iDivisorNMEA    !AIVDO,1,1,,,B:UOH3P01o>VtDLf>c>gswlUoP06,0*30
 
9.12272         MSG_UDP              iDivisorNMEA    $MXPGN,00FF3C,3808,8000F8FE00009F41*1C
 
9.13298         MSG_UDP              iDivisorNMEA    $AGRSA,-0.90,A,,V*6B
 
9.13304         ANGULO_LEME          iDivisorNMEA    -0.90000     
9.14326         MSG_UDP              iDivisorNMEA    $MXPGN,01F803,281C,000000000000780D*1F
 
9.15352         MSG_UDP              iDivisorNMEA    $MXPGN,01F804,281C,0000004575C1780D*69
 
9.18289         MSG_UDP              iDivisorNMEA    $GPGGA,131541.000,2254.75222,S,04309.53693,W,1,12,0.90,7.01,M,-5.60,M,,*77
 
9.18383         MSG_UDP              iDivisorNMEA    $GPGLL,2254.75222,S,04309.53693,W,131541.000,A,A*50
 
9.19412         MSG_UDP              iDivisorNMEA    $GPRMC,131541.000,A,2254.75222,S,04309.53693,W,0.29,47.99,070323,23.30,W,A*21
 
9.20433         MSG_UDP              iDivisorNMEA    $GPVTG,47.99,T,,M,0.29,N,0.53,K,A*03
 
